{"features":[{"geometry":{"coordinates":[144.9679369,-37.8120109],"type":"Point"},"properties":{"events":[{"categories":["Music"],"eDate":"2025-05-02","eName":"K Motionz","genre":"Electronic","price":"$69.36 - 89.76","supports":["Subsonic"],"ticketUrl":null,"time":" 9pm"}],"vName":"170 Russell"},"type":"Feature"},{"geometry":{"coordinates":[144.9982812,-37.7713296],"type":"Point"},"properties":{"events":[{"categories":["Music","Other \"Dance \"","Other \"Spoken Word, Poetry \""],"eDate":"2025-05-02","eName":"Elena Zaléz & Gosip Tango","genre":"Jazz","price":"$25.00","supports":[],"ticketUrl":null,"time":" 6:30pm"},{"categories":["Music"],"eDate":"2025-05-02","eName":"The New Monos + The Pirateska Rebellion","genre":"Rock","price":"$20.00 - 30.00","supports":[],"ticketUrl":null,"time":" 9pm"}],"vName":"Bar 303"},"type":"Feature"},{"geometry":{"coordinates":[144.978425,-37.79773],"type":"Point"},"properties":{"events":[{"categories":["Free","Music"],"eDate":"2025-05-02","eName":"Malcura","genre":"Jazz","price":"Free","supports":[],"ticketUrl":null,"time":" 6:30pm"},{"categories":["Music"],"eDate":"2025-05-02","eName":"Raptor","genre":"Rock","price":"$17.35","supports":["Motion Blur"," Valenta"],"ticketUrl":null,"time":" 8:30pm"}],"vName":"Bar Open"},"type":"Feature"},{"geometry":{"coordinates":[144.978682,-37.7981225],"type":"Point"},"properties":{"events":[{"categories":["Free","Music"],"eDate":"2025-05-02","eName":"Woody Samson","genre":null,"price":"Free","supports":[],"ticketUrl":null,"time":" 9pm"},{"categories":["Free","Music"],"eDate":"2025-05-02","eName":"DJ Nomar Jr","genre":null,"price":"Free","supports":[],"ticketUrl":null,"time":"10pm"}],"vName":"Baxter's Lot"},"type":"Feature"},{"geometry":{"coordinates":[144.9891167,-37.7996488],"type":"Point"},"properties":{"events":[{"categories":["Music"],"eDate":"2025-05-02","eName":"Convergence: A Night of Alternative Metal","genre":"Metal","price":"$17.35","supports":[],"ticketUrl":null,"time":" 9pm"}],"vName":"Bendigo Hotel"},"type":"Feature"},{"geometry":{"coordinates":[144.9607158,-37.776327],"type":"Point"},"properties":{"events":[{"categories":["Music"],"eDate":"2025-05-02","eName":"Much Love to Safe Steps","genre":"Rock","price":"$28.05","supports":[],"ticketUrl":null,"time":" 7pm"}],"vName":"Bergy Bandroom"},"type":"Feature"},{"geometry":{"coordinates":[144.9617083,-37.7704205],"type":"Point"},"properties":{"events":[{"categories":["Music"],"eDate":"2025-05-02","eName":"Johnny Fuego & The Heat with Loretta Miller: The Music of JAMES BOND","genre":"Soul/Funk","price":"$38.86","supports":[],"ticketUrl":null,"time":" 9pm"}],"vName":"Brunswick Ballroom"},"type":"Feature"},{"geometry":{"coordinates":[144.9713425,-37.8128595],"type":"Point"},"properties":{"events":[{"categories":["Music"],"eDate":"2025-05-02","eName":"And Then They Run","genre":"Punk","price":"$12.00","supports":[],"ticketUrl":null,"time":" 8pm"}],"vName":"Cherry Bar"},"type":"Feature"},{"geometry":{"coordinates":[144.9926664,-37.8248893],"type":"Point"},"properties":{"events":[{"categories":["Music"],"eDate":"2025-05-02","eName":"Weened: 25 Years of White Pepper","genre":"Rock","price":"$26.05","supports":[],"ticketUrl":null,"time":" 8:30pm"}],"vName":"Corner Hotel"},"type":"Feature"},{"geometry":{"coordinates":[145.1232659,-38.1461351],"type":"Point"},"properties":{"events":[{"categories":["Music"],"eDate":"2025-05-02","eName":"Ed Kuepper: Solo. At Last!","genre":"Punk","price":"$59.90","supports":[],"ticketUrl":null,"time":" 8:30pm"}],"vName":"Frankston Arts Centre"},"type":"Feature"},{"geometry":{"coordinates":[144.983442,-37.804851],"type":"Point"},"properties":{"events":[{"categories":["Music"],"eDate":"2025-05-02","eName":"Bec Sykes","genre":null,"price":"$22.00 - 25.00","supports":["Mood Spill"," Liv Cartledge"],"ticketUrl":null,"time":" 7:30pm"}],"vName":"Grace Darling Hotel"},"type":"Feature"},{"geometry":{"coordinates":[144.973013,-37.8640582],"type":"Point"},"properties":{"events":[{"categories":["Music"],"eDate":"2025-05-02","eName":"Ryan McMullan","genre":"Acoustic","price":"$54.60","supports":[],"ticketUrl":null,"time":" 7:30pm"}],"vName":"Hotel Esplanade (aka The Espy)"},"type":"Feature"},{"geometry":{"coordinates":[144.9596527,-37.7720304],"type":"Point"},"properties":{"events":[{"categories":["Music"],"eDate":"2025-05-02","eName":"Ripple Effect Band","genre":"Global","price":"$38.76","supports":[],"ticketUrl":null,"time":" 8pm"}],"vName":"Howler"},"type":"Feature"},{"geometry":{"coordinates":[145.0008148,-37.8107158],"type":"Point"},"properties":{"events":[{"categories":["Music"],"eDate":"2025-05-02","eName":"RØNIN","genre":"Hip Hop","price":"$28.85","supports":[],"ticketUrl":null,"time":" 8pm"}],"vName":"Leadbeater Hotel"},"type":"Feature"},{"geometry":{"coordinates":[144.9658499,-37.8147453],"type":"Point"},"properties":{"events":[{"categories":["Music"],"eDate":"2025-05-02","eName":"Ned Bennett","genre":"Electronic","price":"$43.90 - 54.10","supports":[],"ticketUrl":null,"time":" 8pm"}],"vName":"Max Watt's (Melbourne)"},"type":"Feature"},{"geometry":{"coordinates":[144.9675876,-37.8240849],"type":"Point"},"properties":{"events":[{"categories":["Music"],"eDate":"2025-05-02","eName":"Luke Howard + Simon Burgin","genre":"Classical","price":"$45.00","supports":[],"ticketUrl":null,"time":" 7:30pm"}],"vName":"Melbourne Recital Centre"},"type":"Feature"},{"geometry":{"coordinates":[144.9790251,-37.8675008],"type":"Point"},"properties":{"events":[{"categories":["Music"],"eDate":"2025-05-02","eName":"Wendy Matthews","genre":"Jazz","price":"$40.00 - 60.00","supports":["Jason Ayres"],"ticketUrl":null,"time":" 7pm"}],"vName":"Memo Music Hall"},"type":"Feature"},{"geometry":{"coordinates":[144.9712356,-37.812902],"type":"Point"},"properties":{"events":[{"categories":["Music"],"eDate":"2025-05-02","eName":"Marcus Knight","genre":"Electronic","price":"Free","supports":[],"ticketUrl":null,"time":" 6pm"},{"categories":["Comedy"],"eDate":"2025-05-02","eName":"Basement Comedy Club","genre":null,"price":"$25.00","supports":[],"ticketUrl":null,"time":" 8pm"},{"categories":["Music"],"eDate":"2025-05-02","eName":"Kayla Bruno","genre":"Electronic","price":"Free","supports":[],"ticketUrl":null,"time":"10pm"}],"vName":"Morris House"},"type":"Feature"},{"geometry":{"coordinates":[144.998414,-37.771471],"type":"Point"},"properties":{"events":[{"categories":["Music"],"eDate":"2025-05-02","eName":"Dangerous Curves","genre":"Rock","price":"Free","supports":[],"ticketUrl":null,"time":" 7:30pm"}],"vName":"Northcote Social Club"},"type":"Feature"},{"geometry":{"coordinates":[144.9982706,-37.7737068],"type":"Point"},"properties":{"events":[{"categories":["Music"],"eDate":"2025-05-02","eName":"Melbourne Rikarena","genre":"Electronic","price":"$76.70 - 98.12","supports":[],"ticketUrl":null,"time":" 7:30pm"}],"vName":"Northcote Theatre"},"type":"Feature"},{"geometry":{"coordinates":[145.0015248,-37.8258878],"type":"Point"},"properties":{"events":[{"categories":["Music"],"eDate":"2025-05-02","eName":"Schism 21C","genre":"Electronic","price":"$23.50","supports":[],"ticketUrl":null,"time":" 7pm"}],"vName":"Odeon Richmond"},"type":"Feature"},{"geometry":{"coordinates":[144.97711,-37.79833],"type":"Point"},"properties":{"events":[{"categories":["Music"],"eDate":"2025-05-02","eName":"Treebeard","genre":"Metal","price":"$23.50","supports":["Saleeha"," Lily Of The Valley"],"ticketUrl":null,"time":" 8pm"}],"vName":"Old Bar"},"type":"Feature"},{"geometry":{"coordinates":[144.9837213,-37.8048409],"type":"Point"},"properties":{"events":[{"categories":["Music"],"eDate":"2025-05-02","eName":"Babie Club presents: Grasps","genre":null,"price":"$30.00","supports":["Harvest"," Fairie"," Chaotiic Good"," Bygone"],"ticketUrl":null,"time":" 8pm"}],"vName":"QQQ ST. Park"},"type":"Feature"},{"geometry":{"coordinates":[145.0142411,-37.7310367],"type":"Point"},"properties":{"events":[{"categories":["Music"],"eDate":"2025-05-02","eName":"Boof!","genre":"Soul/Funk","price":"Free","supports":[],"ticketUrl":null,"time":" 8pm"}],"vName":"Ragtime Tavern"},"type":"Feature"},{"geometry":{"coordinates":[145.0013923,-37.7559265],"type":"Point"},"properties":{"events":[{"categories":["Music"],"eDate":"2025-05-02","eName":"Charlie Needs Braces","genre":"Country/Folk","price":"$18.35 - 28.80","supports":["Golden Scissor Puppets"," Black Wattle Witches"],"ticketUrl":null,"time":" 8pm"}],"vName":"Shotkickers"},"type":"Feature"},{"geometry":{"coordinates":[145.3534507,-37.9100746],"type":"Point"},"properties":{"events":[{"categories":["Music"],"eDate":"2025-05-02","eName":"Kingswood","genre":"Rock","price":"$39.80","supports":[],"ticketUrl":null,"time":" 7pm"}],"vName":"Sooki Lounge"},"type":"Feature"},{"geometry":{"coordinates":[144.9607404,-37.7743469],"type":"Point"},"properties":{"events":[{"categories":["Music"],"eDate":"2025-05-02","eName":"The End Of… Behind Crimson Eyes","genre":"Metal","price":"$39.90","supports":[],"ticketUrl":null,"time":" 7pm"},{"categories":["Music"],"eDate":"2025-05-02","eName":"Last Words: Behind Crimson Eyes Official Afterparty & Guest DJ Set","genre":"Metal","price":"$12.75","supports":[],"ticketUrl":null,"time":"11pm"}],"vName":"Stay Gold"},"type":"Feature"},{"geometry":{"coordinates":[144.9657057,-37.8061581],"type":"Point"},"properties":{"events":[{"categories":["Music"],"eDate":"2025-05-02","eName":"Dumbells","genre":"Rock","price":"$27.95","supports":["The Blinds"," Possible Humans"," Silicone Prairie"],"ticketUrl":null,"time":" 8pm"}],"vName":"The Curtin"},"type":"Feature"},{"geometry":{"coordinates":[144.9555612,-37.8066759],"type":"Point"},"properties":{"events":[{"categories":["Music"],"eDate":"2025-05-02","eName":"Traditional Irish Music Session","genre":"Country/Folk","price":"Free","supports":[],"ticketUrl":null,"time":" 6pm"},{"categories":["Free","Music"],"eDate":"2025-05-02","eName":"Northern Shiners","genre":"Country/Folk","price":"Free","supports":[],"ticketUrl":null,"time":" 8:30pm"}],"vName":"The Drunken Poet"},"type":"Feature"},{"geometry":{"coordinates":[144.9586498,-37.766903],"type":"Point"},"properties":{"events":[{"categories":["Music"],"eDate":"2025-05-02","eName":"Vince Jones","genre":"Jazz","price":"$50.00","supports":["Michelle Nicolle"],"ticketUrl":null,"time":" 8pm"}],"vName":"The Jazzlab"},"type":"Feature"},{"geometry":{"coordinates":[144.9463641,-37.8047757],"type":"Point"},"properties":{"events":[{"categories":["Music"],"eDate":"2025-05-02","eName":"Flight To Dubai","genre":null,"price":"$20.00","supports":["Licklash"," The Antics"],"ticketUrl":null,"time":" 7pm"},{"categories":["Music"],"eDate":"2025-05-02","eName":"Flight To Dubai","genre":"Rock","price":"$16.35","supports":[],"ticketUrl":null,"time":" 7pm"}],"vName":"The Last Chance Rock & Roll Bar"},"type":"Feature"},{"geometry":{"coordinates":[144.996838,-37.7794356],"type":"Point"},"properties":{"events":[{"categories":["Music"],"eDate":"2025-05-02","eName":"Tom West + Molly Mckew + Ryan Oliver","genre":"Indie","price":"$19.31","supports":[],"ticketUrl":null,"time":" 8:30pm"}],"vName":"The Merri Creek Tavern"},"type":"Feature"},{"geometry":{"coordinates":[144.9708437,-37.7973184],"type":"Point"},"properties":{"events":[{"categories":["Free","Music"],"eDate":"2025-05-02","eName":"Mark Morand’s Jazz Fridays","genre":"Jazz","price":"Free","supports":[],"ticketUrl":null,"time":" 6:30pm"}],"vName":"The Motley Bauhaus"},"type":"Feature"},{"geometry":{"coordinates":[144.9794553,-37.7982653],"type":"Point"},"properties":{"events":[{"categories":["Music"],"eDate":"2025-05-02","eName":"Last Night","genre":"Electronic","price":"$29.57 - 44.86","supports":[],"ticketUrl":null,"time":" 7pm"}],"vName":"The Night Cat"},"type":"Feature"},{"geometry":{"coordinates":[144.9621651,-37.7679775],"type":"Point"},"properties":{"events":[{"categories":["Music"],"eDate":"2025-05-02","eName":"Shelley’s Motor Club","genre":"Soul/Funk","price":"Free","supports":[],"ticketUrl":null,"time":" 8:30pm"}],"vName":"The Penny Black"},"type":"Feature"},{"geometry":{"coordinates":[145.1818891,-37.8163371],"type":"Point"},"properties":{"events":[{"categories":["Theatre"],"eDate":"2025-05-02","eName":"Niusia (Matinee Session)","genre":null,"price":"$46.00","supports":[],"ticketUrl":null,"time":" 1pm"},{"categories":["Theatre"],"eDate":"2025-05-02","eName":"Niusia (Matinee Session)","genre":null,"price":"$46.00","supports":[],"ticketUrl":null,"time":" 8pm"}],"vName":"The Round"},"type":"Feature"},{"geometry":{"coordinates":[144.9998797,-37.7616512],"type":"Point"},"properties":{"events":[{"categories":["Music"],"eDate":"2025-05-02","eName":"Lot 56","genre":"Country/Folk","price":"Free","supports":[],"ticketUrl":null,"time":" 8pm"}],"vName":"The Thornbury Local"},"type":"Feature"},{"geometry":{"coordinates":[144.9651425,-37.8119429],"type":"Point"},"properties":{"events":[{"categories":["Free","Music"],"eDate":"2025-05-02","eName":"Crowd Control + Friend’s","genre":"Electronic","price":"Free","supports":[],"ticketUrl":null,"time":" 9pm"}],"vName":"The Toff In Town"},"type":"Feature"},{"geometry":{"coordinates":[144.9870814,-37.799406],"type":"Point"},"properties":{"events":[{"categories":["Music"],"eDate":"2025-05-02","eName":"Wapperin","genre":"Indie","price":"$28.60","supports":[],"ticketUrl":null,"time":" 8pm"},{"categories":["Music"],"eDate":"2025-05-02","eName":"Armlock","genre":"Rock","price":"$28.60","supports":[],"ticketUrl":null,"time":" 8:30pm"}],"vName":"The Tote Hotel"},"type":"Feature"},{"geometry":{"coordinates":[144.9769451,-37.8055776],"type":"Point"},"properties":{"events":[{"categories":["Music"],"eDate":"2025-05-02","eName":"Alienist","genre":"Metal","price":"$20.00","supports":["The City"," Where The Devil"," OCD"],"ticketUrl":null,"time":" 8pm"}],"vName":"The Workers Club"},"type":"Feature"}],"type":"FeatureCollection"}