{"features":[{"geometry":{"coordinates":[144.9982812,-37.7713296],"type":"Point"},"properties":{"events":[{"categories":["Music"],"eDate":"2026-06-13","eName":"Ultravibralux + Chai Light Ninja","genre":"Soul/Funk","price":"$20.00","supports":[],"ticketUrl":null,"time":" 6pm"},{"categories":["Free","Music"],"eDate":"2026-06-13","eName":"Rudi Sound System","genre":"Electronic","price":"Free","supports":[],"ticketUrl":null,"time":" 8pm"}],"vName":"Bar 303"},"type":"Feature"},{"geometry":{"coordinates":[144.978682,-37.7981225],"type":"Point"},"properties":{"events":[{"categories":["Free","Music"],"eDate":"2026-06-13","eName":"Lewis Toms","genre":null,"price":"Free","supports":[],"ticketUrl":null,"time":" 9pm"}],"vName":"Baxter's Lot"},"type":"Feature"},{"geometry":{"coordinates":[144.9891167,-37.7996488],"type":"Point"},"properties":{"events":[{"categories":["Music"],"eDate":"2026-06-13","eName":"Amor Andino","genre":"Soul/Funk","price":"$25.00 - 35.70","supports":["DJ Maria Piña"," Nodox Collective"],"ticketUrl":null,"time":" 8pm"}],"vName":"Bendigo Hotel"},"type":"Feature"},{"geometry":{"coordinates":[144.9607158,-37.776327],"type":"Point"},"properties":{"events":[{"categories":["Music"],"eDate":"2026-06-13","eName":"Twisted Fix","genre":"Rock","price":"$20.00","supports":["Fur Blossom"," Dove Creek"],"ticketUrl":null,"time":" 1pm"},{"categories":["Music"],"eDate":"2026-06-13","eName":"The Motion Below","genre":"Rock","price":"$20.00","supports":[],"ticketUrl":null,"time":" 8pm"}],"vName":"Bergy Bandroom"},"type":"Feature"},{"geometry":{"coordinates":[144.9713425,-37.8128595],"type":"Point"},"properties":{"events":[{"categories":["Music"],"eDate":"2026-06-13","eName":"Brad Cook Trio","genre":"Rock","price":"$15.43","supports":["Southbound Snake Charmers"," Skid Steer"],"ticketUrl":null,"time":" 8pm"}],"vName":"Cherry Bar"},"type":"Feature"},{"geometry":{"coordinates":[144.9926664,-37.8248893],"type":"Point"},"properties":{"events":[{"categories":["Music"],"eDate":"2026-06-13","eName":"Starshine: Tribute to Stevie Nicks & Fleetwood Mac","genre":"Rock","price":"$40.40 - 51.10","supports":[],"ticketUrl":null,"time":" 8pm"}],"vName":"Corner Hotel"},"type":"Feature"},{"geometry":{"coordinates":[144.9627513,-37.760963],"type":"Point"},"properties":{"events":[{"categories":["Music"],"eDate":"2026-06-13","eName":"Steamboat Whistlers","genre":"Country/Folk","price":"Free","supports":[],"ticketUrl":null,"time":" 8pm"}],"vName":"Edinburgh Castle Hotel"},"type":"Feature"},{"geometry":{"coordinates":[144.9693768,-37.8164414],"type":"Point"},"properties":{"events":[{"categories":["Music"],"eDate":"2026-06-13","eName":"Jon Stevens","genre":"Rock","price":"Free","supports":["The Vandastruts"],"ticketUrl":null,"time":" 7pm"}],"vName":"Forum Melbourne"},"type":"Feature"},{"geometry":{"coordinates":[144.9777885,-37.8597831],"type":"Point"},"properties":{"events":[{"categories":["Music"],"eDate":"2026-06-13","eName":"Renae Brennen","genre":"Acoustic","price":"Free","supports":[],"ticketUrl":null,"time":" 8pm"},{"categories":["Music"],"eDate":"2026-06-13","eName":"DJ Rodney Guzman","genre":"Rock","price":"Free","supports":[],"ticketUrl":null,"time":"11pm"}],"vName":"Freddie Wimpoles"},"type":"Feature"},{"geometry":{"coordinates":[144.9679835,-37.8201575],"type":"Point"},"properties":{"events":[{"categories":["Music","Other \"Film\""],"eDate":"2026-06-13","eName":"Harry Potter and the Chamber of Secrets in Concert (Matinee)","genre":"Classical","price":"$81.00 - 161.00","supports":[],"ticketUrl":null,"time":" 1pm"}],"vName":"Hamer Hall (Arts Centre Melbourne)"},"type":"Feature"},{"geometry":{"coordinates":[144.8975289,-37.8022392],"type":"Point"},"properties":{"events":[{"categories":["Free","Music"],"eDate":"2026-06-13","eName":"ENZYME XX","genre":null,"price":"Free","supports":["DevilMonkey"," Chiron"],"ticketUrl":null,"time":" 8pm"}],"vName":"Mamma Chen's"},"type":"Feature"},{"geometry":{"coordinates":[144.9761619,-37.8230506],"type":"Point"},"properties":{"events":[{"categories":["Comedy"],"eDate":"2026-06-13","eName":"Max Amini","genre":null,"price":"$63.75","supports":[],"ticketUrl":null,"time":" 8pm"}],"vName":"Margaret Court Arena"},"type":"Feature"},{"geometry":{"coordinates":[144.9658499,-37.8147453],"type":"Point"},"properties":{"events":[{"categories":["Music"],"eDate":"2026-06-13","eName":"Foxy Shazam","genre":"Rock","price":"$86.20","supports":["Big Red Fire Truck"],"ticketUrl":null,"time":" 7:30pm"}],"vName":"Max Watt's (Melbourne)"},"type":"Feature"},{"geometry":{"coordinates":[144.9675876,-37.8240849],"type":"Point"},"properties":{"events":[{"categories":["Music"],"eDate":"2026-06-13","eName":"Vika & Linda: Where Do You Come From?","genre":"Soul/Funk","price":"$89.00 - 99.00","supports":["BATTS"],"ticketUrl":null,"time":" 7:30pm"}],"vName":"Melbourne Recital Centre"},"type":"Feature"},{"geometry":{"coordinates":[144.9790251,-37.8675008],"type":"Point"},"properties":{"events":[{"categories":["Music"],"eDate":"2026-06-13","eName":"Southside Winter Warmer","genre":"Country/Folk","price":"$32.00 - 44.00","supports":["Alex Hamilton & The Highway"," Chelsea Hotel"," Mr Sippy"],"ticketUrl":null,"time":" 7pm"}],"vName":"Memo Music Hall"},"type":"Feature"},{"geometry":{"coordinates":[144.998414,-37.771471],"type":"Point"},"properties":{"events":[{"categories":["Music"],"eDate":"2026-06-13","eName":"Jordan Hart","genre":"Indie","price":"$40.00","supports":["Finojet"],"ticketUrl":null,"time":" 8pm"}],"vName":"Northcote Social Club"},"type":"Feature"},{"geometry":{"coordinates":[145.0015248,-37.8258878],"type":"Point"},"properties":{"events":[{"categories":["Music"],"eDate":"2026-06-13","eName":"La Discothèque: Happy 2nd Birthday Odeon Richmond","genre":"Soul/Funk","price":"$20.00 - 55.00","supports":["DJ Randy Lipz XXX"],"ticketUrl":null,"time":" 7pm"}],"vName":"Odeon Richmond"},"type":"Feature"},{"geometry":{"coordinates":[144.96084,-37.813514],"type":"Point"},"properties":{"events":[{"categories":["Music"],"eDate":"2026-06-13","eName":"Not So Big Band: Best of Broadway","genre":"Jazz","price":"$45.00","supports":[],"ticketUrl":null,"time":" 6pm"},{"categories":["Music"],"eDate":"2026-06-13","eName":"Jessica Young Quintet","genre":"Jazz","price":"$45.00","supports":[],"ticketUrl":null,"time":" 6:30pm"},{"categories":["Music"],"eDate":"2026-06-13","eName":"The Royal Motown Revue","genre":"Jazz","price":"$48.00","supports":["ISEULA"," Paul Slattery & The Horns of Hip"],"ticketUrl":null,"time":" 9pm"},{"categories":["Music"],"eDate":"2026-06-13","eName":"Swingtrain: Celebrates the Great American Songbook","genre":"Jazz","price":"$45.00","supports":[],"ticketUrl":null,"time":" 9:30pm"}],"vName":"Paris Cat Jazz Club"},"type":"Feature"},{"geometry":{"coordinates":[144.9583409,-37.7664168],"type":"Point"},"properties":{"events":[{"categories":["Music"],"eDate":"2026-06-13","eName":"Steph Brett & Dave Bramble","genre":"Country/Folk","price":"Free","supports":[],"ticketUrl":null,"time":" 6pm"},{"categories":["Music"],"eDate":"2026-06-13","eName":"TEK TEK","genre":"Jazz","price":"$28.00","supports":[],"ticketUrl":null,"time":" 8pm"}],"vName":"Quadraphonic Club"},"type":"Feature"},{"geometry":{"coordinates":[145.0142411,-37.7310367],"type":"Point"},"properties":{"events":[{"categories":["Music"],"eDate":"2026-06-13","eName":"James Fahy","genre":"Acoustic","price":"Free","supports":[],"ticketUrl":null,"time":" 6:30pm"},{"categories":["Music"],"eDate":"2026-06-13","eName":"Places Please! Musical Theatre Singalong","genre":"Pop","price":"Free","supports":[],"ticketUrl":null,"time":" 8pm"}],"vName":"Ragtime Tavern"},"type":"Feature"},{"geometry":{"coordinates":[144.9615882,-37.7711432],"type":"Point"},"properties":{"events":[{"categories":["Music"],"eDate":"2026-06-13","eName":"A Night For Cuba","genre":"Rock","price":"$20.00","supports":["Super Tart"," Operation Karma"," Footscray Hotel Choir"," Bayan Chorus"],"ticketUrl":null,"time":" 7pm"}],"vName":"Retreat Hotel"},"type":"Feature"},{"geometry":{"coordinates":[144.993413,-37.8506652],"type":"Point"},"properties":{"events":[{"categories":["Music"],"eDate":"2026-06-13","eName":"Will Sparks","genre":"Electronic","price":"$31.62 - 41.82","supports":[],"ticketUrl":null,"time":" 7am"},{"categories":["Music"],"eDate":"2026-06-13","eName":"The Late Show","genre":"Electronic","price":"$31.62","supports":[],"ticketUrl":null,"time":"10pm"}],"vName":"Revolver Upstairs"},"type":"Feature"},{"geometry":{"coordinates":[145.0013923,-37.7559265],"type":"Point"},"properties":{"events":[{"categories":["Music","Other \"Food \""],"eDate":"2026-06-13","eName":"Dimmie Fest","genre":"Metal","price":"$30.00","supports":["more"],"ticketUrl":null,"time":" 2pm"}],"vName":"Shotkickers"},"type":"Feature"},{"geometry":{"coordinates":[144.9607404,-37.7743469],"type":"Point"},"properties":{"events":[{"categories":["Music"],"eDate":"2026-06-13","eName":"am//pm emo night","genre":"Punk","price":"$23.50 - 33.70","supports":["nightlight"," Closure"," Headstrong"],"ticketUrl":null,"time":" 8pm"}],"vName":"Stay Gold"},"type":"Feature"},{"geometry":{"coordinates":[144.9657057,-37.8061581],"type":"Point"},"properties":{"events":[{"categories":["Music"],"eDate":"2026-06-13","eName":"Clamm","genre":"Punk","price":"$27.95","supports":["Sodler"," Techno 666"],"ticketUrl":null,"time":" 8pm"}],"vName":"The Curtin"},"type":"Feature"},{"geometry":{"coordinates":[144.9770425,-37.8588717],"type":"Point"},"properties":{"events":[{"categories":["Music"],"eDate":"2026-06-13","eName":"Milly Joel + DJ MCB","genre":null,"price":"Free","supports":[],"ticketUrl":null,"time":" 9pm"}],"vName":"The Fifth Province"},"type":"Feature"},{"geometry":{"coordinates":[144.9720579,-37.8121675],"type":"Point"},"properties":{"events":[{"categories":["Comedy","Theatre"],"eDate":"2026-06-13","eName":"The Remix: Live Improv Comedy From A Guest’s True Stories","genre":null,"price":"$24.00","supports":[],"ticketUrl":null,"time":" 8:15pm"}],"vName":"The Improv Conspiracy"},"type":"Feature"},{"geometry":{"coordinates":[144.9463641,-37.8047757],"type":"Point"},"properties":{"events":[{"categories":["Music"],"eDate":"2026-06-13","eName":"Big League","genre":"Rock","price":"$16.35","supports":["Skiptons"," HECTICT"," Grevillea Hedge"],"ticketUrl":null,"time":" 8pm"}],"vName":"The Last Chance Rock & Roll Bar"},"type":"Feature"},{"geometry":{"coordinates":[144.9708437,-37.7973184],"type":"Point"},"properties":{"events":[{"categories":["Music"],"eDate":"2026-06-13","eName":"Vardos","genre":"Country/Folk","price":"Free","supports":[],"ticketUrl":null,"time":" 3pm"},{"categories":["Comedy"],"eDate":"2026-06-13","eName":"Jett Bond: First Ever Hour Of Regular Normal Stand Up Comedy","genre":null,"price":"$20.76","supports":[],"ticketUrl":null,"time":" 7:30pm"},{"categories":["Music","Comedy"],"eDate":"2026-06-13","eName":"Impromptunes: Student Workshop Showcase","genre":"Pop","price":"$20.76","supports":[],"ticketUrl":null,"time":" 8:30pm"}],"vName":"The Motley Bauhaus"},"type":"Feature"},{"geometry":{"coordinates":[145.1818891,-37.8163371],"type":"Point"},"properties":{"events":[{"categories":["Music","Theatre"],"eDate":"2026-06-13","eName":"Sea Wolves Howl","genre":"Pop","price":"$57.00","supports":[],"ticketUrl":null,"time":" 1:30pm"},{"categories":["Music","Free"],"eDate":"2026-06-13","eName":"Dragon Rhythm: Cantonese Harmony Festival","genre":"Global","price":"Free","supports":[],"ticketUrl":null,"time":" 6:30pm"}],"vName":"The Round"},"type":"Feature"},{"geometry":{"coordinates":[144.9998797,-37.7616512],"type":"Point"},"properties":{"events":[{"categories":["Music"],"eDate":"2026-06-13","eName":"The Suburban","genre":"Rock","price":"Free","supports":["Vincent Standley"],"ticketUrl":null,"time":" 8pm"}],"vName":"The Thornbury Local"},"type":"Feature"},{"geometry":{"coordinates":[144.9651425,-37.8119429],"type":"Point"},"properties":{"events":[{"categories":["Music"],"eDate":"2026-06-13","eName":"Donsteppa Roc Tha Set Party","genre":"Electronic","price":"$18.87","supports":[],"ticketUrl":null,"time":" 7pm"}],"vName":"The Toff In Town"},"type":"Feature"},{"geometry":{"coordinates":[144.9769451,-37.8055776],"type":"Point"},"properties":{"events":[{"categories":["Music"],"eDate":"2026-06-13","eName":"Lucky","genre":"Indie","price":"Free","supports":[],"ticketUrl":null,"time":" 8pm"}],"vName":"The Workers Club"},"type":"Feature"},{"geometry":{"coordinates":[144.9661635,-37.8176298],"type":"Point"},"properties":{"events":[{"categories":["Music"],"eDate":"2026-06-13","eName":"AKA Zeb","genre":"Electronic","price":"$10.95","supports":["Zepherin Saint"," Alice Payne"],"ticketUrl":null,"time":" 9pm"}],"vName":"Wax Music Lounge"},"type":"Feature"},{"geometry":{"coordinates":[144.9984324,-37.7729134],"type":"Point"},"properties":{"events":[{"categories":["Music"],"eDate":"2026-06-13","eName":"Wobbly Boots Old Time String Band","genre":null,"price":"Free","supports":[],"ticketUrl":null,"time":" 6pm"}],"vName":"Wesley Anne"},"type":"Feature"},{"geometry":{"coordinates":[144.9618781,-37.8126316],"type":"Point"},"properties":{"events":[{"categories":["Music"],"eDate":"2026-06-13","eName":"Nightfall","genre":"Electronic","price":"Free","supports":[],"ticketUrl":null,"time":" 2pm"}],"vName":"Whitehart Bar"},"type":"Feature"}],"type":"FeatureCollection"}