{"features":[{"geometry":{"coordinates":[144.9500257,-37.8032773],"type":"Point"},"properties":{"events":[{"categories":["Free","Art"],"eDate":"2024-04-08","eName":"ನಿರೀಕ್ಷಣೆ nireekshane","genre":null,"price":"Free","supports":[],"ticketUrl":null,"time":"10am"},{"categories":["Free","Art"],"eDate":"2024-04-08","eName":"ಒಡಲಾಳ Odalala","genre":null,"price":"Free","supports":[],"ticketUrl":null,"time":"10am"}],"vName":"Arts House"},"type":"Feature"},{"geometry":{"coordinates":[144.9712728,-37.8117601],"type":"Point"},"properties":{"events":[{"categories":["Comedy"],"eDate":"2024-04-08","eName":"Anthony Locascio: Pappou","genre":null,"price":"$30.00 - 35.00","supports":[],"ticketUrl":null,"time":" 8pm"},{"categories":["Festival","Comedy","Theatre"],"eDate":"2024-04-08","eName":"Damien Vosk - Woo Woo: A Sketch Comedy","genre":null,"price":"$15.00 - 25.00","supports":[],"ticketUrl":null,"time":" 9:15pm"}],"vName":"Bard's Apothecary"},"type":"Feature"},{"geometry":{"coordinates":[144.9875917,-37.7963837],"type":"Point"},"properties":{"events":[{"categories":["Music"],"eDate":"2024-04-08","eName":"Jam at the Gem","genre":null,"price":"Free","supports":[],"ticketUrl":null,"time":" 6pm"},{"categories":["Music"],"eDate":"2024-04-08","eName":"Jam at the Gem","genre":null,"price":"Free","supports":[],"ticketUrl":null,"time":" 6pm"}],"vName":"Gem Bar"},"type":"Feature"},{"geometry":{"coordinates":[144.9712356,-37.812902],"type":"Point"},"properties":{"events":[{"categories":["Comedy"],"eDate":"2024-04-08","eName":"Ben Knight & Friends: Educators","genre":null,"price":"$20.50 - 25.50","supports":[],"ticketUrl":null,"time":" 5pm"},{"categories":["Comedy"],"eDate":"2024-04-08","eName":"Lehmo: Camper Van Go","genre":null,"price":"$28.00 - 35.50","supports":[],"ticketUrl":null,"time":" 8:15pm"}],"vName":"Morris House"},"type":"Feature"},{"geometry":{"coordinates":[144.998414,-37.771471],"type":"Point"},"properties":{"events":[{"categories":["Free","Music"],"eDate":"2024-04-08","eName":"Social Sanctuary: honeybeam + Snowy (duo) + Nat Pavlovic (duo)","genre":"Indie","price":"Free","supports":[],"ticketUrl":null,"time":" 7pm"}],"vName":"Northcote Social Club"},"type":"Feature"},{"geometry":{"coordinates":[144.9651227,-37.815011],"type":"Point"},"properties":{"events":[{"categories":["Comedy","Other \"Cabaret\""],"eDate":"2024-04-08","eName":"Motion Sickness","genre":null,"price":"$30.00 - 39.00","supports":[],"ticketUrl":null,"time":" 5:30pm"}],"vName":"The Butterfly Club"},"type":"Feature"}],"type":"FeatureCollection"}