{"features":[{"geometry":{"coordinates":[144.9679369,-37.8120109],"type":"Point"},"properties":{"events":[{"categories":["Music"],"eDate":"2024-12-06","eName":"Patrick Topping","genre":"Electronic","price":"$89.90","supports":[],"ticketUrl":null,"time":"11pm"}],"vName":"170 Russell"},"type":"Feature"},{"geometry":{"coordinates":[144.99828116650363,-37.7713296],"type":"Point"},"properties":{"events":[{"categories":["Free","Music"],"eDate":"2024-12-06","eName":"The Calabrians + Retro T-bones 1999","genre":"Rock","price":"Free","supports":[],"ticketUrl":null,"time":" 5pm"},{"categories":["Music"],"eDate":"2024-12-06","eName":"Freshen Up","genre":"Soul/Funk","price":"$20.00","supports":[],"ticketUrl":null,"time":" 8pm"}],"vName":"Bar 303"},"type":"Feature"},{"geometry":{"coordinates":[144.978425,-37.79773],"type":"Point"},"properties":{"events":[{"categories":["Free","Music"],"eDate":"2024-12-06","eName":"The Four Scoops","genre":"Jazz","price":"Free","supports":[],"ticketUrl":null,"time":" 6pm"},{"categories":["Music"],"eDate":"2024-12-06","eName":"Parle Green","genre":"Rock","price":"$15.00","supports":["Tam Vantage"," Molly Mckew"],"ticketUrl":null,"time":" 8:30pm"}],"vName":"Bar Open"},"type":"Feature"},{"geometry":{"coordinates":[144.978682,-37.7981225],"type":"Point"},"properties":{"events":[{"categories":["Free","Music"],"eDate":"2024-12-06","eName":"Woody Samson","genre":null,"price":"Free","supports":[],"ticketUrl":null,"time":" 9pm"},{"categories":["Music"],"eDate":"2024-12-06","eName":"DJ Lewy C","genre":"Electronic","price":"Free","supports":[],"ticketUrl":null,"time":"10pm"}],"vName":"Baxter's Lot"},"type":"Feature"},{"geometry":{"coordinates":[144.9567859,-37.8111049],"type":"Point"},"properties":{"events":[{"categories":["Music"],"eDate":"2024-12-06","eName":"Kevin Borich Express","genre":"Rock","price":"$38.00","supports":[],"ticketUrl":null,"time":" 7:30pm"}],"vName":"Bird's Basement"},"type":"Feature"},{"geometry":{"coordinates":[144.9617018,-37.7704566],"type":"Point"},"properties":{"events":[{"categories":["Music"],"eDate":"2024-12-06","eName":"Joe Camilleri & The Black Sorrows","genre":"Soul/Funk","price":"$55.69","supports":[],"ticketUrl":null,"time":" 8:30pm"}],"vName":"Brunswick Ballroom"},"type":"Feature"},{"geometry":{"coordinates":[145.00025846036164,-37.7592368],"type":"Point"},"properties":{"events":[{"categories":["Music","Theatre","Other \"Wrestling\""],"eDate":"2024-12-06","eName":"BANJZIG","genre":null,"price":"$10.00","supports":["Grug"],"ticketUrl":null,"time":" 7:30pm"}],"vName":"Cafe Gummo"},"type":"Feature"},{"geometry":{"coordinates":[144.9248037207342,-37.7656716],"type":"Point"},"properties":{"events":[{"categories":["Dance"],"eDate":"2024-12-06","eName":"Anderson Dance Company presents On Broadway: Senior School Showcase","genre":null,"price":"$43.00","supports":[],"ticketUrl":null,"time":" 6:30pm"}],"vName":"Clocktower Centre"},"type":"Feature"},{"geometry":{"coordinates":[144.99266639479475,-37.82488935],"type":"Point"},"properties":{"events":[{"categories":["Music"],"eDate":"2024-12-06","eName":"Jamie Webster","genre":"Rock","price":"$73.10","supports":[],"ticketUrl":null,"time":" 8:30pm"}],"vName":"Corner Hotel"},"type":"Feature"},{"geometry":{"coordinates":[144.950359,-37.8100202],"type":"Point"},"properties":{"events":[{"categories":["Music"],"eDate":"2024-12-06","eName":"B.I Hype","genre":"Hip Hop","price":"$218.00","supports":[],"ticketUrl":null,"time":" 6:30pm"}],"vName":"Festival Hall"},"type":"Feature"},{"geometry":{"coordinates":[144.973013,-37.8640582],"type":"Point"},"properties":{"events":[{"categories":["Music"],"eDate":"2024-12-06","eName":"VOLTS: AC/DC Tribute","genre":"Rock","price":"$22.95","supports":["Sweet Death Machine"],"ticketUrl":null,"time":" 7:30pm"},{"categories":["Music"],"eDate":"2024-12-06","eName":"Club Wicked","genre":"Pop","price":"$11.75 - 22.95","supports":[],"ticketUrl":null,"time":" 9pm"}],"vName":"Hotel Esplanade (aka The Espy)"},"type":"Feature"},{"geometry":{"coordinates":[144.8971518,-37.8054274],"type":"Point"},"properties":{"events":[{"categories":["Free","Music"],"eDate":"2024-12-06","eName":"The Algorythm Community Xmas Party","genre":"Electronic","price":"Free","supports":[],"ticketUrl":null,"time":" 6pm"}],"vName":"Mamma Chen's"},"type":"Feature"},{"geometry":{"coordinates":[144.96741062735794,-37.82454855],"type":"Point"},"properties":{"events":[{"categories":["Music"],"eDate":"2024-12-06","eName":"Olivier Messiaen","genre":"Classical","price":"$40.00","supports":[],"ticketUrl":null,"time":" 7pm"}],"vName":"Melbourne Recital Centre"},"type":"Feature"},{"geometry":{"coordinates":[144.9786817,-37.8671902],"type":"Point"},"properties":{"events":[{"categories":["Music"],"eDate":"2024-12-06","eName":"One Intimate Night with Reece Mastin","genre":"Pop","price":"$33.00 - 45.00","supports":[],"ticketUrl":null,"time":" 7pm"}],"vName":"Memo Music Hall"},"type":"Feature"},{"geometry":{"coordinates":[144.998414,-37.771471],"type":"Point"},"properties":{"events":[{"categories":["Music"],"eDate":"2024-12-06","eName":"The Bawdies","genre":"Rock","price":"$43.45","supports":["Hot Machine"," Gnome"],"ticketUrl":null,"time":" 8:30pm"}],"vName":"Northcote Social Club"},"type":"Feature"},{"geometry":{"coordinates":[144.97711,-37.79833],"type":"Point"},"properties":{"events":[{"categories":["Music"],"eDate":"2024-12-06","eName":"Tyler Richardson","genre":"Punk","price":"$28.60","supports":["Bec Stevens"," Kelsie Rimmer"],"ticketUrl":null,"time":" 8pm"}],"vName":"Old Bar"},"type":"Feature"},{"geometry":{"coordinates":[144.9988348,-37.8525949],"type":"Point"},"properties":{"events":[{"categories":["Music"],"eDate":"2024-12-06","eName":"Alex Preston","genre":"Electronic","price":"$20.00","supports":["Monochrome"," MiMi"," DNE"," Danni B"," Jay Ramon"," Spinn OD"," Adam Trace"],"ticketUrl":null,"time":" 9pm"}],"vName":"OneSixOne"},"type":"Feature"},{"geometry":{"coordinates":[144.9981771,-37.7742773],"type":"Point"},"properties":{"events":[{"categories":["Music"],"eDate":"2024-12-06","eName":"Vardos","genre":"Jazz","price":"$25.00","supports":[],"ticketUrl":null,"time":" 6:30pm"},{"categories":["Music"],"eDate":"2024-12-06","eName":"The Wikimen","genre":"Jazz","price":"$20.00","supports":[],"ticketUrl":null,"time":" 9:30pm"}],"vName":"Open Studio"},"type":"Feature"},{"geometry":{"coordinates":[144.9605705,-37.8132486],"type":"Point"},"properties":{"events":[{"categories":["Music"],"eDate":"2024-12-06","eName":"Sondheim: Unbound with Elissa Rodger","genre":"Jazz","price":"$45.00","supports":[],"ticketUrl":null,"time":" 6pm"},{"categories":["Music"],"eDate":"2024-12-06","eName":"Peter Gaudion’s Blues Express","genre":"Blues","price":"$45.00","supports":[],"ticketUrl":null,"time":" 6:30pm"},{"categories":["Music"],"eDate":"2024-12-06","eName":"Ollie Shute Cuban Octet","genre":"Jazz","price":"$45.00","supports":[],"ticketUrl":null,"time":" 9pm"},{"categories":["Music"],"eDate":"2024-12-06","eName":"Mr PC & The Devious 3 with Paul Coyle","genre":"Jazz","price":"$45.00","supports":[],"ticketUrl":null,"time":" 9:30pm"}],"vName":"Paris Cat Jazz Club"},"type":"Feature"},{"geometry":{"coordinates":[144.90239079583333,-37.79990865],"type":"Point"},"properties":{"events":[{"categories":["Comedy","Trivia"],"eDate":"2024-12-06","eName":"Pride Drag Bingo","genre":null,"price":"$10.00","supports":[],"ticketUrl":null,"time":" 7pm"}],"vName":"Pride Of Our Footscray Community Bar"},"type":"Feature"},{"geometry":{"coordinates":[144.9828155,-37.8567825],"type":"Point"},"properties":{"events":[{"categories":["Music"],"eDate":"2024-12-06","eName":"The 502s","genre":"Country/Folk","price":"$71.30","supports":[],"ticketUrl":null,"time":" 7:30pm"}],"vName":"Prince Bandroom"},"type":"Feature"},{"geometry":{"coordinates":[144.9746525926778,-37.823819181966286],"type":"Point"},"properties":{"events":[{"categories":["Music"],"eDate":"2024-12-06","eName":"Missy Higgins","genre":"Pop","price":"$99.90 - 149.90","supports":["Dan Sultan"," Mia Wray"],"ticketUrl":null,"time":" 5pm"}],"vName":"Sidney Myer Music Bowl"},"type":"Feature"},{"geometry":{"coordinates":[145.35345070507591,-37.9100746],"type":"Point"},"properties":{"events":[{"categories":["Music"],"eDate":"2024-12-06","eName":"Coco Jumbo","genre":"Rock","price":"$20.00","supports":["Mast Gully Fellas"," Freud & The Family Solution"],"ticketUrl":null,"time":" 7pm"},{"categories":["Music"],"eDate":"2024-12-06","eName":"Synergy","genre":"Electronic","price":"$15.00 - 25.00","supports":[],"ticketUrl":null,"time":" 9pm"}],"vName":"Sooki Lounge"},"type":"Feature"},{"geometry":{"coordinates":[144.9607404,-37.7743469],"type":"Point"},"properties":{"events":[{"categories":["Music"],"eDate":"2024-12-06","eName":"Good Things Official Afterparty","genre":"Punk","price":"$18.65 - 25.00","supports":[],"ticketUrl":null,"time":" 9pm"}],"vName":"Stay Gold"},"type":"Feature"},{"geometry":{"coordinates":[144.99959550357977,-37.762376950000004],"type":"Point"},"properties":{"events":[{"categories":["Music"],"eDate":"2024-12-06","eName":"A Tribute to Toumani Diabaté","genre":"Global","price":"$45.00","supports":[],"ticketUrl":null,"time":" 7:30pm"}],"vName":"The Croxton"},"type":"Feature"},{"geometry":{"coordinates":[144.9555612,-37.8066759],"type":"Point"},"properties":{"events":[{"categories":["Music"],"eDate":"2024-12-06","eName":"Traditional Irish Music Session","genre":"Country/Folk","price":"Free","supports":[],"ticketUrl":null,"time":" 6pm"}],"vName":"The Drunken Poet"},"type":"Feature"},{"geometry":{"coordinates":[144.9708437,-37.7973184],"type":"Point"},"properties":{"events":[{"categories":["Music"],"eDate":"2024-12-06","eName":"Brass & Beats","genre":"Hip Hop","price":"$20.26","supports":[],"ticketUrl":null,"time":" 8pm"}],"vName":"The Motley Bauhaus"},"type":"Feature"},{"geometry":{"coordinates":[144.9651425,-37.8119429],"type":"Point"},"properties":{"events":[{"categories":["Free","Music"],"eDate":"2024-12-06","eName":"Hyper Toff","genre":"Pop","price":"Free","supports":[],"ticketUrl":null,"time":"11pm"}],"vName":"The Toff In Town"},"type":"Feature"},{"geometry":{"coordinates":[144.9846126,-37.7989941],"type":"Point"},"properties":{"events":[{"categories":["Music","Art"],"eDate":"2024-12-06","eName":"A Very Merry (And Jolly) Cheap-Skate Christmas Fundraising Bonanza 2","genre":"Punk","price":"$23.50","supports":[],"ticketUrl":null,"time":" 7pm"},{"categories":["Music"],"eDate":"2024-12-06","eName":"Harriet Wraith’s Solo Show","genre":"Acoustic","price":"$11.25","supports":["Araminta"," Chloe Hari"],"ticketUrl":null,"time":" 8pm"}],"vName":"The Tote Hotel"},"type":"Feature"},{"geometry":{"coordinates":[144.9769450659087,-37.8055776],"type":"Point"},"properties":{"events":[{"categories":["Music"],"eDate":"2024-12-06","eName":"Mia June","genre":"Indie","price":"$12.75","supports":["Alison Parade"," Ellis King"],"ticketUrl":null,"time":" 8pm"}],"vName":"The Workers Club"},"type":"Feature"}],"type":"FeatureCollection"}