{"features":[{"geometry":{"coordinates":[144.9982812,-37.7713296],"type":"Point"},"properties":{"events":[{"categories":["Free","Music"],"eDate":"2026-04-24","eName":"HOMEBASS","genre":"Electronic","price":"Free","supports":[],"ticketUrl":null,"time":" 8:30pm"}],"vName":"Bar 303"},"type":"Feature"},{"geometry":{"coordinates":[144.353924,-38.1629265],"type":"Point"},"properties":{"events":[{"categories":["Music"],"eDate":"2026-04-24","eName":"Riffs & Reckoning","genre":"Rock","price":"$10.00 - 15.00","supports":["Two Steps Forward"],"ticketUrl":null,"time":" 7:30pm"}],"vName":"Barwon Club Hotel"},"type":"Feature"},{"geometry":{"coordinates":[144.978682,-37.7981225],"type":"Point"},"properties":{"events":[{"categories":["Free","Music"],"eDate":"2026-04-24","eName":"Lewis Ciavarella","genre":null,"price":"Free","supports":[],"ticketUrl":null,"time":" 9pm"},{"categories":["Free","Music"],"eDate":"2026-04-24","eName":"Xander Cuming","genre":null,"price":"Free","supports":[],"ticketUrl":null,"time":" 9pm"}],"vName":"Baxter's Lot"},"type":"Feature"},{"geometry":{"coordinates":[145.0004166,-37.7612582],"type":"Point"},"properties":{"events":[{"categories":["Music"],"eDate":"2026-04-24","eName":"Heavy Amber","genre":null,"price":"$25.00 - 29.10","supports":["Boggle"," Wahala Dey"],"ticketUrl":null,"time":" 8pm"}],"vName":"Cactus Room"},"type":"Feature"},{"geometry":{"coordinates":[144.9713425,-37.8128595],"type":"Point"},"properties":{"events":[{"categories":["Music"],"eDate":"2026-04-24","eName":"Slugfest 2026","genre":"Rock","price":"$33.80","supports":["more"],"ticketUrl":null,"time":" 6pm"}],"vName":"Cherry Bar"},"type":"Feature"},{"geometry":{"coordinates":[144.9627513,-37.760963],"type":"Point"},"properties":{"events":[{"categories":["Free","Music"],"eDate":"2026-04-24","eName":"Tony J King","genre":"Blues","price":"Free","supports":[],"ticketUrl":null,"time":" 8pm"}],"vName":"Edinburgh Castle Hotel"},"type":"Feature"},{"geometry":{"coordinates":[144.9785611,-37.7965465],"type":"Point"},"properties":{"events":[{"categories":["Music"],"eDate":"2026-04-24","eName":"Tellerwood","genre":null,"price":"$17.85","supports":[],"ticketUrl":null,"time":" 8pm"}],"vName":"Evelyn Hotel"},"type":"Feature"},{"geometry":{"coordinates":[144.8975289,-37.8022392],"type":"Point"},"properties":{"events":[{"categories":["Music"],"eDate":"2026-04-24","eName":"208L Containers","genre":"Punk","price":"$15.00","supports":["Ze Wisenheimer"," Sylvia"],"ticketUrl":null,"time":" 8pm"}],"vName":"Mamma Chen's"},"type":"Feature"},{"geometry":{"coordinates":[144.9675876,-37.8240849],"type":"Point"},"properties":{"events":[{"categories":["Music"],"eDate":"2026-04-24","eName":"ONE PIECE Piano Symphony","genre":"Classical","price":"$71.00 - 119.00","supports":[],"ticketUrl":null,"time":" 7:30pm"}],"vName":"Melbourne Recital Centre"},"type":"Feature"},{"geometry":{"coordinates":[144.96084,-37.813514],"type":"Point"},"properties":{"events":[{"categories":["Music"],"eDate":"2026-04-24","eName":"Sondheim: unbound with Elissa Rodger","genre":"Jazz","price":"$45.00","supports":[],"ticketUrl":null,"time":" 6pm"},{"categories":["Music"],"eDate":"2026-04-24","eName":"Gianni Marinucci’s Morricone","genre":"Jazz","price":"$45.00","supports":[],"ticketUrl":null,"time":" 6:30pm"},{"categories":["Music"],"eDate":"2026-04-24","eName":"Groove Congress: Snarky Puppy","genre":"Jazz","price":"$45.00","supports":[],"ticketUrl":null,"time":" 8:30pm"},{"categories":["Music"],"eDate":"2026-04-24","eName":"Brooklyn ’86 Brass Band","genre":"Jazz","price":"$45.00","supports":[],"ticketUrl":null,"time":" 9:30pm"}],"vName":"Paris Cat Jazz Club"},"type":"Feature"},{"geometry":{"coordinates":[144.9657057,-37.8061581],"type":"Point"},"properties":{"events":[{"categories":["Music"],"eDate":"2026-04-24","eName":"Black Foxxes","genre":"Rock","price":"$22.85","supports":["Raging Hormones"," Exiles"],"ticketUrl":null,"time":" 8pm"}],"vName":"The Curtin"},"type":"Feature"},{"geometry":{"coordinates":[144.9794553,-37.7982653],"type":"Point"},"properties":{"events":[{"categories":["Music"],"eDate":"2026-04-24","eName":"Soothsayer & Urban Analytics Presents: CaucasianOpportunities","genre":"Electronic","price":"$34.90","supports":[],"ticketUrl":null,"time":"10pm"}],"vName":"The Night Cat"},"type":"Feature"},{"geometry":{"coordinates":[145.1818891,-37.8163371],"type":"Point"},"properties":{"events":[{"categories":["Theatre"],"eDate":"2026-04-24","eName":"Beyond the Neck","genre":null,"price":"$55.00","supports":[],"ticketUrl":null,"time":"10:30am"},{"categories":["Theatre"],"eDate":"2026-04-24","eName":"Beyond the Neck (Morning Session)","genre":null,"price":"$55.00","supports":[],"ticketUrl":null,"time":"10:30am"}],"vName":"The Round"},"type":"Feature"},{"geometry":{"coordinates":[144.9769451,-37.8055776],"type":"Point"},"properties":{"events":[{"categories":["Music"],"eDate":"2026-04-24","eName":"Kasem","genre":"Rock","price":"$19.99","supports":["Casino Stepdad"," The Warburton Street Blues Band"],"ticketUrl":null,"time":" 8pm"}],"vName":"The Workers Club"},"type":"Feature"},{"geometry":{"coordinates":[144.9984324,-37.7729134],"type":"Point"},"properties":{"events":[{"categories":["Music"],"eDate":"2026-04-24","eName":"Hugh McGinlay","genre":"Indie","price":"Free","supports":[],"ticketUrl":null,"time":" 6pm"}],"vName":"Wesley Anne"},"type":"Feature"}],"type":"FeatureCollection"}