{"features":[{"geometry":{"coordinates":[145.0048929,-37.8035316],"type":"Point"},"properties":{"events":[{"categories":["Music","Other \"Spoken Word, Poetry \""],"eDate":"2026-06-20","eName":"WinterLIVE: Vocal Sound Bath with Odeya Nini","genre":null,"price":"$39.00","supports":[],"ticketUrl":null,"time":" 6pm"}],"vName":"Abbotsford Convent"},"type":"Feature"},{"geometry":{"coordinates":[144.9982812,-37.7713296],"type":"Point"},"properties":{"events":[{"categories":["Music"],"eDate":"2026-06-20","eName":"Guitar Kingdom","genre":"Acoustic","price":"$20.00","supports":[],"ticketUrl":null,"time":" 5pm"},{"categories":["Music"],"eDate":"2026-06-20","eName":"Access Granted IV","genre":"Hip Hop","price":"Free","supports":[],"ticketUrl":null,"time":" 8pm"}],"vName":"Bar 303"},"type":"Feature"},{"geometry":{"coordinates":[144.978682,-37.7981225],"type":"Point"},"properties":{"events":[{"categories":["Free","Music"],"eDate":"2026-06-20","eName":"Woody Samson & Lewis Toms","genre":null,"price":"Free","supports":[],"ticketUrl":null,"time":" 9pm"}],"vName":"Baxter's Lot"},"type":"Feature"},{"geometry":{"coordinates":[144.9607158,-37.776327],"type":"Point"},"properties":{"events":[{"categories":["Music"],"eDate":"2026-06-20","eName":"Renee Naccari","genre":"Pop","price":"$25.00","supports":["Michael Kay"," Kaiyah Mercedes"],"ticketUrl":null,"time":" 8pm"}],"vName":"Bergy Bandroom"},"type":"Feature"},{"geometry":{"coordinates":[144.9568039,-37.8111442],"type":"Point"},"properties":{"events":[{"categories":["Music"],"eDate":"2026-06-20","eName":"Grand Wazoo Presents The Soul Queens (One Night Only)","genre":"Soul/Funk","price":"$55.00","supports":[],"ticketUrl":null,"time":" 7:30pm"}],"vName":"Bird's Basement"},"type":"Feature"},{"geometry":{"coordinates":[144.9248037,-37.7656716],"type":"Point"},"properties":{"events":[{"categories":["Music"],"eDate":"2026-06-20","eName":"Queen Rocks","genre":"Rock","price":"$74.90","supports":[],"ticketUrl":null,"time":" 7:30pm"}],"vName":"Clocktower Centre"},"type":"Feature"},{"geometry":{"coordinates":[144.9777885,-37.8597831],"type":"Point"},"properties":{"events":[{"categories":["Music"],"eDate":"2026-06-20","eName":"Cliff Raux","genre":"Acoustic","price":"Free","supports":[],"ticketUrl":null,"time":" 8pm"},{"categories":["Music"],"eDate":"2026-06-20","eName":"DJ Christian Belvedere","genre":"Rock","price":"Free","supports":[],"ticketUrl":null,"time":"11pm"}],"vName":"Freddie Wimpoles"},"type":"Feature"},{"geometry":{"coordinates":[144.9787378,-37.7954205],"type":"Point"},"properties":{"events":[{"categories":["Music"],"eDate":"2026-06-20","eName":"Cheekz & Friends: Cherub Charity Day Party","genre":"Electronic","price":"$10.00 - 20.00","supports":["Disco Bitch"," DJ Nelson"," Marley Kuran"," Millhouse"," Kerf"," more"],"ticketUrl":null,"time":" 4pm"},{"categories":["Music"],"eDate":"2026-06-20","eName":"Cheekz & Friends Charity Fundraiser","genre":"Electronic","price":"$15.00","supports":["Disco Bitch"," Marley Kuran"," Kerf"],"ticketUrl":null,"time":" 4pm"}],"vName":"Glamorama"},"type":"Feature"},{"geometry":{"coordinates":[144.9679835,-37.8201575],"type":"Point"},"properties":{"events":[{"categories":["Music"],"eDate":"2026-06-20","eName":"ABC Classic 100 in Concert (Matinee)","genre":"Classical","price":"$54.00 - 109.00","supports":[],"ticketUrl":null,"time":" 2pm"}],"vName":"Hamer Hall (Arts Centre Melbourne)"},"type":"Feature"},{"geometry":{"coordinates":[145.0358258,-37.9334203],"type":"Point"},"properties":{"events":[{"categories":["Music"],"eDate":"2026-06-20","eName":"Live at City Hall: Nathan Cavaleri","genre":null,"price":"$55.00","supports":[],"ticketUrl":null,"time":" 7:30pm"},{"categories":["Music"],"eDate":"2026-06-20","eName":"Live at City Hall: Nathan Cavaleri – Growing Pains","genre":"Blues","price":"$55.00","supports":[],"ticketUrl":null,"time":" 7:30pm"}],"vName":"Kingston City Hall"},"type":"Feature"},{"geometry":{"coordinates":[144.9675876,-37.8240849],"type":"Point"},"properties":{"events":[{"categories":["Music"],"eDate":"2026-06-20","eName":"Australian Brandenburg Orchestra: Italian Serenatas","genre":"Classical","price":"$40.00 - 186.00","supports":[],"ticketUrl":null,"time":" 5pm"}],"vName":"Melbourne Recital Centre"},"type":"Feature"},{"geometry":{"coordinates":[144.998414,-37.771471],"type":"Point"},"properties":{"events":[{"categories":["Music"],"eDate":"2026-06-20","eName":"Ullah","genre":"Acoustic","price":"$20.00","supports":["Daisypicker"," Dog Door"],"ticketUrl":null,"time":" 8pm"}],"vName":"Northcote Social Club"},"type":"Feature"},{"geometry":{"coordinates":[144.96084,-37.813514],"type":"Point"},"properties":{"events":[{"categories":["Music"],"eDate":"2026-06-20","eName":"The Crooner’s Dream: Crosby, Martin & Sinatra","genre":"Jazz","price":"$45.00","supports":[],"ticketUrl":null,"time":" 6:30pm"},{"categories":["Music"],"eDate":"2026-06-20","eName":"All I Ask: Elly Poletti Sings Adele (Early Session)","genre":"Jazz","price":"$48.00","supports":[],"ticketUrl":null,"time":" 8pm"},{"categories":["Music"],"eDate":"2026-06-20","eName":"Cannonball with Chantal Mitvalsky","genre":"Jazz","price":"$45.00","supports":[],"ticketUrl":null,"time":" 9pm"},{"categories":["Music"],"eDate":"2026-06-20","eName":"New Orleans Street Vibe: Brooklyn Come to the Bayou","genre":"Soul/Funk","price":"$48.00","supports":[],"ticketUrl":null,"time":" 9:30pm"}],"vName":"Paris Cat Jazz Club"},"type":"Feature"},{"geometry":{"coordinates":[145.0142411,-37.7310367],"type":"Point"},"properties":{"events":[{"categories":["Music"],"eDate":"2026-06-20","eName":"High Rotation Festival","genre":"Country/Folk","price":"Free","supports":[],"ticketUrl":null,"time":" 3:30pm"}],"vName":"Ragtime Tavern"},"type":"Feature"},{"geometry":{"coordinates":[144.9607404,-37.7743469],"type":"Point"},"properties":{"events":[{"categories":["Music"],"eDate":"2026-06-20","eName":"Stay Gold: To The End","genre":"Metal","price":"$23.50 - 33.70","supports":["Future Static"," Ocean Grove (DJ)"],"ticketUrl":null,"time":" 7pm"}],"vName":"Stay Gold"},"type":"Feature"},{"geometry":{"coordinates":[144.9617907,-37.7620474],"type":"Point"},"properties":{"events":[{"categories":["Music"],"eDate":"2026-06-20","eName":"Catherine Traicos","genre":null,"price":"$25.00 - 30.00","supports":["Gareth Skinner"," John Bannister"],"ticketUrl":null,"time":" 8pm"}],"vName":"Tempo Rubato, Brunswick"},"type":"Feature"},{"geometry":{"coordinates":[144.9770425,-37.8588717],"type":"Point"},"properties":{"events":[{"categories":["Music"],"eDate":"2026-06-20","eName":"Holy Rollers Duo + DJ Shadow","genre":null,"price":"Free","supports":[],"ticketUrl":null,"time":" 9pm"}],"vName":"The Fifth Province"},"type":"Feature"},{"geometry":{"coordinates":[144.9720579,-37.8121675],"type":"Point"},"properties":{"events":[{"categories":["Comedy","Theatre"],"eDate":"2026-06-20","eName":"The Remix: Live Improv Comedy From A Guest’s True Stories","genre":null,"price":"$24.00","supports":[],"ticketUrl":null,"time":" 8:15pm"}],"vName":"The Improv Conspiracy"},"type":"Feature"},{"geometry":{"coordinates":[144.9463641,-37.8047757],"type":"Point"},"properties":{"events":[{"categories":["Music"],"eDate":"2026-06-20","eName":"Pro Team","genre":"Punk","price":"$20.00","supports":["Demise"," Knifepoint"," L.O.W"],"ticketUrl":null,"time":" 8pm"}],"vName":"The Last Chance Rock & Roll Bar"},"type":"Feature"},{"geometry":{"coordinates":[144.9879283,-37.7505509],"type":"Point"},"properties":{"events":[{"categories":["Music"],"eDate":"2026-06-20","eName":"Brett Franke","genre":"Indie","price":"Free","supports":[],"ticketUrl":null,"time":" 7pm"}],"vName":"The Merri Bar"},"type":"Feature"},{"geometry":{"coordinates":[144.996838,-37.7794356],"type":"Point"},"properties":{"events":[{"categories":["Music"],"eDate":"2026-06-20","eName":"Malibu Spacey","genre":null,"price":"$15.00","supports":["Supa Lucia"],"ticketUrl":null,"time":" 8pm"}],"vName":"The Merri Creek Tavern"},"type":"Feature"},{"geometry":{"coordinates":[144.9708437,-37.7973184],"type":"Point"},"properties":{"events":[{"categories":["Music","Comedy","Other \"Cabaret\""],"eDate":"2026-06-20","eName":"Frankly: Up The Sleeve","genre":"Pop","price":"$15.70","supports":[],"ticketUrl":null,"time":" 7pm"}],"vName":"The Motley Bauhaus"},"type":"Feature"},{"geometry":{"coordinates":[144.9984324,-37.7729134],"type":"Point"},"properties":{"events":[{"categories":["Music"],"eDate":"2026-06-20","eName":"Laneous with Sam Lemann","genre":"Jazz","price":"Free","supports":[],"ticketUrl":null,"time":" 6pm"}],"vName":"Wesley Anne"},"type":"Feature"}],"type":"FeatureCollection"}