{"features":[{"geometry":{"coordinates":[144.9982812,-37.7713296],"type":"Point"},"properties":{"events":[{"categories":["Music"],"eDate":"2025-07-03","eName":"Kickin the B at 303: King Canoe","genre":"Blues","price":"Free","supports":[],"ticketUrl":null,"time":" 8pm"}],"vName":"Bar 303"},"type":"Feature"},{"geometry":{"coordinates":[144.978682,-37.7981225],"type":"Point"},"properties":{"events":[{"categories":["Free","Music"],"eDate":"2025-07-03","eName":"Maven Duo","genre":null,"price":"Free","supports":[],"ticketUrl":null,"time":" 9pm"},{"categories":["Free","Music"],"eDate":"2025-07-03","eName":"Mya & Marcus","genre":null,"price":"Free","supports":[],"ticketUrl":null,"time":" 9pm"}],"vName":"Baxter's Lot"},"type":"Feature"},{"geometry":{"coordinates":[144.9891167,-37.7996488],"type":"Point"},"properties":{"events":[{"categories":["Music"],"eDate":"2025-07-03","eName":"Buck Wild Thursdays: RIBJaw","genre":"Rock","price":"$10.00","supports":["Black Wattle Witches"," Blondehouse"],"ticketUrl":null,"time":" 7:30pm"}],"vName":"Bendigo Hotel"},"type":"Feature"},{"geometry":{"coordinates":[144.9568039,-37.8111442],"type":"Point"},"properties":{"events":[{"categories":["Music"],"eDate":"2025-07-03","eName":"To the Supreme: A Live Invocation of John Coltrane’s Masterwork","genre":"Jazz","price":"$38.00","supports":[],"ticketUrl":null,"time":" 7:30pm"}],"vName":"Bird's Basement"},"type":"Feature"},{"geometry":{"coordinates":[144.9945274,-37.8001115],"type":"Point"},"properties":{"events":[{"categories":["Free","Music","Other \"Food \""],"eDate":"2025-07-03","eName":"Mpaphi Trio: The Soul Of Botswana","genre":"Global","price":"Free","supports":[],"ticketUrl":null,"time":" 7pm"}],"vName":"Bodriggy Brewing Company"},"type":"Feature"},{"geometry":{"coordinates":[145.3107778,-38.0248796],"type":"Point"},"properties":{"events":[{"categories":["Music"],"eDate":"2025-07-03","eName":"Make Them Suffer","genre":"Metal","price":"$59.90","supports":["Justice For The Damned"," The Gloom In The Corner"," R U N"],"ticketUrl":null,"time":" 7pm"}],"vName":"District 14"},"type":"Feature"},{"geometry":{"coordinates":[144.959768,-37.831777],"type":"Point"},"properties":{"events":[{"categories":["Music"],"eDate":"2025-07-03","eName":"JMQ Jazz Ensemble’s Thursday Jazz","genre":"Jazz","price":"$20.00","supports":[],"ticketUrl":null,"time":" 6:30pm"}],"vName":"Golden Gate Hotel"},"type":"Feature"},{"geometry":{"coordinates":[144.8975289,-37.8022392],"type":"Point"},"properties":{"events":[{"categories":["Free","Music"],"eDate":"2025-07-03","eName":"Winter Rhymes: Inkrewsive Hip Hop Showcase","genre":"Hip Hop","price":"Free","supports":["Cypher"," Michael"," Andrew"," Shea"," Paul"," LJM"," Matty"," Luke"," Damian"," Nick Smith"],"ticketUrl":null,"time":" 7pm"}],"vName":"Mamma Chen's"},"type":"Feature"},{"geometry":{"coordinates":[144.9664313,-37.8146299],"type":"Point"},"properties":{"events":[{"categories":["Music"],"eDate":"2025-07-03","eName":"Mozart & The Mendelssohns","genre":"Classical","price":"$40.00","supports":[],"ticketUrl":null,"time":" 7:30pm"}],"vName":"Melbourne Town Hall"},"type":"Feature"},{"geometry":{"coordinates":[144.97711,-37.79833],"type":"Point"},"properties":{"events":[{"categories":["Music"],"eDate":"2025-07-03","eName":"Boysnlove","genre":"Rock","price":"$15.00","supports":["Postures"," Mia Lucy"],"ticketUrl":null,"time":" 7:30pm"}],"vName":"Old Bar"},"type":"Feature"},{"geometry":{"coordinates":[144.96084,-37.813514],"type":"Point"},"properties":{"events":[{"categories":["Music"],"eDate":"2025-07-03","eName":"Nana Koizumi Quartet","genre":"Jazz","price":"$45.00","supports":[],"ticketUrl":null,"time":" 7:30pm"},{"categories":["Music"],"eDate":"2025-07-03","eName":"Shota Ikeda: The Trio Project","genre":"Jazz","price":"$35.00","supports":[],"ticketUrl":null,"time":" 8pm"}],"vName":"Paris Cat Jazz Club"},"type":"Feature"},{"geometry":{"coordinates":[144.9615882,-37.7711432],"type":"Point"},"properties":{"events":[{"categories":["Music"],"eDate":"2025-07-03","eName":"Mousse Cannon","genre":"Rock","price":"$14.53","supports":["LXRP"," Special Guest"],"ticketUrl":null,"time":" 7pm"}],"vName":"Retreat Hotel"},"type":"Feature"},{"geometry":{"coordinates":[144.965405,-37.8117457],"type":"Point"},"properties":{"events":[{"categories":["Music"],"eDate":"2025-07-03","eName":"Hyperfix","genre":"Electronic","price":"Free","supports":[],"ticketUrl":null,"time":" 6pm"}],"vName":"Section 8"},"type":"Feature"},{"geometry":{"coordinates":[144.9607404,-37.7743469],"type":"Point"},"properties":{"events":[{"categories":["Music","Other \"Cabaret\""],"eDate":"2025-07-03","eName":"altimate.SHOWDOWN: Naarm – Grand Final","genre":"Jazz","price":"$28.60","supports":[],"ticketUrl":null,"time":" 6pm"}],"vName":"Stay Gold"},"type":"Feature"},{"geometry":{"coordinates":[144.9463641,-37.8047757],"type":"Point"},"properties":{"events":[{"categories":["Music"],"eDate":"2025-07-03","eName":"Liar","genre":"Metal","price":"$23.50","supports":["Druid"," Lean In"," Glow"],"ticketUrl":null,"time":" 7pm"}],"vName":"The Last Chance Rock & Roll Bar"},"type":"Feature"},{"geometry":{"coordinates":[144.9879283,-37.7505509],"type":"Point"},"properties":{"events":[{"categories":["Music"],"eDate":"2025-07-03","eName":"Open Mic Night @ The Merri Bar","genre":"Acoustic","price":"Free","supports":[],"ticketUrl":null,"time":" 7pm"}],"vName":"The Merri Bar"},"type":"Feature"},{"geometry":{"coordinates":[144.9708437,-37.7973184],"type":"Point"},"properties":{"events":[{"categories":["Free","Comedy"],"eDate":"2025-07-03","eName":"Script Jam","genre":null,"price":"Free","supports":[],"ticketUrl":null,"time":" 6:30pm"},{"categories":["Free","Music","Comedy"],"eDate":"2025-07-03","eName":"The ‘WHAM, BAM, THANK YOU’ Jam","genre":"Jazz","price":"Free","supports":[],"ticketUrl":null,"time":" 7:30pm"}],"vName":"The Motley Bauhaus"},"type":"Feature"},{"geometry":{"coordinates":[144.9621651,-37.7679775],"type":"Point"},"properties":{"events":[{"categories":["Free","Comedy"],"eDate":"2025-07-03","eName":"The Penny Black Comedy Night","genre":null,"price":"Free","supports":[],"ticketUrl":null,"time":" 7pm"}],"vName":"The Penny Black"},"type":"Feature"},{"geometry":{"coordinates":[144.9651425,-37.8119429],"type":"Point"},"properties":{"events":[{"categories":["Free","Music"],"eDate":"2025-07-03","eName":"Toff Live Presents: Oran Ray + Steppers","genre":"Electronic","price":"Free","supports":[],"ticketUrl":null,"time":" 8pm"}],"vName":"The Toff In Town"},"type":"Feature"},{"geometry":{"coordinates":[144.9870814,-37.799406],"type":"Point"},"properties":{"events":[{"categories":["Music"],"eDate":"2025-07-03","eName":"Elkie Kershaw","genre":"Rock","price":"$11.25","supports":["Overthinker"," Liv Van Dongen"],"ticketUrl":null,"time":" 7:30pm"}],"vName":"The Tote Hotel"},"type":"Feature"},{"geometry":{"coordinates":[144.9769451,-37.8055776],"type":"Point"},"properties":{"events":[{"categories":["Music"],"eDate":"2025-07-03","eName":"Leopard Print Aunt","genre":"Rock","price":"$15.00","supports":["Ingrid & The Ministers"," Rubita"],"ticketUrl":null,"time":" 7pm"}],"vName":"The Workers Club"},"type":"Feature"},{"geometry":{"coordinates":[144.9984324,-37.7729134],"type":"Point"},"properties":{"events":[{"categories":["Music"],"eDate":"2025-07-03","eName":"Sofie Kerr","genre":"Jazz","price":"Free","supports":[],"ticketUrl":null,"time":" 6pm"},{"categories":["Music","Other \"Spoken Word, Poetry \""],"eDate":"2025-07-03","eName":"Outspoken","genre":"Acoustic","price":"$25.00 - 38.00","supports":["more"],"ticketUrl":null,"time":" 8pm"}],"vName":"Wesley Anne"},"type":"Feature"}],"type":"FeatureCollection"}