{"features":[{"geometry":{"coordinates":[144.978682,-37.7981225],"type":"Point"},"properties":{"events":[{"categories":["Free","Music"],"eDate":"2025-03-09","eName":"Woody Samson","genre":null,"price":"Free","supports":[],"ticketUrl":null,"time":" 9pm"}],"vName":"Baxter's Lot"},"type":"Feature"},{"geometry":{"coordinates":[144.9607158,-37.776327],"type":"Point"},"properties":{"events":[{"categories":["Music"],"eDate":"2025-03-09","eName":"Athena Lim","genre":"Indie","price":"$16.85","supports":["Matilda Duncan"," Magnets"," Libby Ingels"],"ticketUrl":null,"time":" 9pm"}],"vName":"Bergy Bandroom"},"type":"Feature"},{"geometry":{"coordinates":[144.9945274,-37.8001115],"type":"Point"},"properties":{"events":[{"categories":["Free","Music","Other \"Food & Drink\""],"eDate":"2025-03-09","eName":"Jimmy Harwood","genre":null,"price":"Free","supports":[],"ticketUrl":null,"time":" 2pm"}],"vName":"Bodriggy Brewing Company"},"type":"Feature"},{"geometry":{"coordinates":[144.9713425,-37.8128595],"type":"Point"},"properties":{"events":[{"categories":["Free","Music"],"eDate":"2025-03-09","eName":"Beefys SKA Club","genre":"Punk","price":"Free","supports":["The PirateSka Rebellion"," Operation Big Jake Bosstone"],"ticketUrl":null,"time":" 8pm"},{"categories":["Free","Music"],"eDate":"2025-03-09","eName":"Supersonic Britpop & Indie Night","genre":"Rock","price":"Free","supports":[],"ticketUrl":null,"time":" 9pm"}],"vName":"Cherry Bar"},"type":"Feature"},{"geometry":{"coordinates":[144.1431519,-37.3411358],"type":"Point"},"properties":{"events":[{"categories":["Music"],"eDate":"2025-03-09","eName":"Chillout Festival: Yard Party","genre":"Electronic","price":"$35.50","supports":[],"ticketUrl":null,"time":" 6pm"}],"vName":"Daylesford Hotel"},"type":"Feature"},{"geometry":{"coordinates":[144.98535244416098,-37.79426315],"type":"Point"},"properties":{"events":[{"categories":["Music"],"eDate":"2025-03-09","eName":"GBH","genre":"Punk","price":"$61.20","supports":[],"ticketUrl":null,"time":" 7pm"}],"vName":"Gasometer Hotel"},"type":"Feature"},{"geometry":{"coordinates":[144.8971518,-37.8054274],"type":"Point"},"properties":{"events":[{"categories":["Free","Music","Comedy"],"eDate":"2025-03-09","eName":"Free Karaoke: Hosted by Prue Brown","genre":"Acoustic","price":"Free","supports":[],"ticketUrl":null,"time":" 6pm"}],"vName":"Mamma Chen's"},"type":"Feature"},{"geometry":{"coordinates":[144.9977626,-37.7755001],"type":"Point"},"properties":{"events":[{"categories":["Other \"Wrestling\""],"eDate":"2025-03-09","eName":"Renegades of Wrestling","genre":null,"price":"$41.60","supports":[],"ticketUrl":null,"time":" 6pm"}],"vName":"Northcote Theatre"},"type":"Feature"},{"geometry":{"coordinates":[144.9254729,-37.8284751],"type":"Point"},"properties":{"events":[{"categories":["Music"],"eDate":"2025-03-09","eName":"L.A.B","genre":"Global","price":"$80.00","supports":["Stan Walker"," Corrella"],"ticketUrl":null,"time":" 6pm"}],"vName":"PICA (Port Melbourne Industrial Centre for the Arts)"},"type":"Feature"},{"geometry":{"coordinates":[144.9605705,-37.8132486],"type":"Point"},"properties":{"events":[{"categories":["Music"],"eDate":"2025-03-09","eName":"No Regrets: The Edith Piaf Story with Nikki Nouveau","genre":"Jazz","price":"$48.00","supports":[],"ticketUrl":null,"time":" 6pm"}],"vName":"Paris Cat Jazz Club"},"type":"Feature"},{"geometry":{"coordinates":[144.9857515,-37.8484979],"type":"Point"},"properties":{"events":[{"categories":["Music"],"eDate":"2025-03-09","eName":"DIRTY SOUTH: Labour Day Eve","genre":"Electronic","price":"$20.00 - 50.00","supports":[],"ticketUrl":null,"time":"10pm"}],"vName":"Pawn & Co."},"type":"Feature"},{"geometry":{"coordinates":[144.9706095,-37.7783326],"type":"Point"},"properties":{"events":[{"categories":["Music"],"eDate":"2025-03-09","eName":"Roolette Records Presents: Scud + Licklash (Split Single Record Launch)","genre":"Punk","price":"Free","supports":["Worker & Parasite"," Glen"," Eris & The Disciples"],"ticketUrl":null,"time":" 6pm"}],"vName":"The Beast"},"type":"Feature"},{"geometry":{"coordinates":[145.0058527,-37.7468183],"type":"Point"},"properties":{"events":[{"categories":["Free","Music","Festival","Dance"],"eDate":"2025-03-09","eName":"Free Latin Music Festival","genre":null,"price":"Free","supports":[],"ticketUrl":null,"time":" 2pm"}],"vName":"The Keys"},"type":"Feature"}],"type":"FeatureCollection"}