{"features":[{"geometry":{"coordinates":[144.99828116650363,-37.7713296],"type":"Point"},"properties":{"events":[{"categories":["Music"],"eDate":"2024-08-01","eName":"Clayton Doley's Flashy Dashbacks with The Bayou Billabong Horns","genre":"Blues","price":"$20.00","supports":[],"ticketUrl":null,"time":" 8pm"}],"vName":"Bar 303"},"type":"Feature"},{"geometry":{"coordinates":[144.9607158,-37.776327],"type":"Point"},"properties":{"events":[{"categories":["Music"],"eDate":"2024-08-01","eName":"Cass Aware","genre":"Rock","price":"$16.85","supports":["The Whyb Project"," Early Morning Syndrome"," Wet Denim"],"ticketUrl":null,"time":" 7:30pm"}],"vName":"Bergy Bandroom"},"type":"Feature"},{"geometry":{"coordinates":[144.9947908,-37.8491931],"type":"Point"},"properties":{"events":[{"categories":["Theatre"],"eDate":"2024-08-01","eName":"Only Child","genre":null,"price":"$35.00 - 45.00","supports":[],"ticketUrl":null,"time":" 7:30pm"}],"vName":"Chapel Off Chapel"},"type":"Feature"},{"geometry":{"coordinates":[145.12326813392298,-38.14614695],"type":"Point"},"properties":{"events":[{"categories":["Theatre"],"eDate":"2024-08-01","eName":"Agatha Christie's The Mousetrap (Matinee)","genre":null,"price":"$85.00 - 99.00","supports":[],"ticketUrl":null,"time":" 1pm"},{"categories":["Theatre"],"eDate":"2024-08-01","eName":"Agatha Christie's The Mousetrap","genre":null,"price":"$85.00 - 99.00","supports":[],"ticketUrl":null,"time":" 7:30pm"}],"vName":"Frankston Arts Centre"},"type":"Feature"},{"geometry":{"coordinates":[144.9875917,-37.7963837],"type":"Point"},"properties":{"events":[{"categories":["Free","Music"],"eDate":"2024-08-01","eName":"Ada Duffy + Lachlan Reynolds","genre":"Indie","price":"Free","supports":[],"ticketUrl":null,"time":" 8pm"}],"vName":"Gem Bar"},"type":"Feature"},{"geometry":{"coordinates":[144.959768,-37.831777],"type":"Point"},"properties":{"events":[{"categories":["Music"],"eDate":"2024-08-01","eName":"Tamara Kuldin + John Montesante Quintet","genre":"Jazz","price":"$18.00","supports":[],"ticketUrl":null,"time":" 7pm"}],"vName":"Golden Gate Hotel"},"type":"Feature"},{"geometry":{"coordinates":[144.973013,-37.8640582],"type":"Point"},"properties":{"events":[{"categories":["Music"],"eDate":"2024-08-01","eName":"Creature Fear","genre":"Rock","price":"Free","supports":[],"ticketUrl":null,"time":" 6pm"},{"categories":["Music"],"eDate":"2024-08-01","eName":"Ulcerate","genre":"Metal","price":"$41.35","supports":["Pestilential Shadows"," Altars"],"ticketUrl":null,"time":" 7:30pm"}],"vName":"Hotel Esplanade (aka The Espy)"},"type":"Feature"},{"geometry":{"coordinates":[144.8971518,-37.8054274],"type":"Point"},"properties":{"events":[{"categories":["Music","Comedy","Other \"Spoken Word\"","Other \"Poetry & Forums\""],"eDate":"2024-08-01","eName":"Gigging for Djirra","genre":null,"price":"$15.00","supports":["Poor Premenstrual Darling"," 'Lish' Å kec"," Juliet Sironi"],"ticketUrl":null,"time":" 7pm"}],"vName":"Mamma Chen's"},"type":"Feature"},{"geometry":{"coordinates":[144.96741062735794,-37.82454855],"type":"Point"},"properties":{"events":[{"categories":["Music"],"eDate":"2024-08-01","eName":"Zoe Knighton & Amir Farid","genre":"Classical","price":"$37.00","supports":[],"ticketUrl":null,"time":" 6pm"}],"vName":"Melbourne Recital Centre"},"type":"Feature"},{"geometry":{"coordinates":[144.998414,-37.771471],"type":"Point"},"properties":{"events":[{"categories":["Music"],"eDate":"2024-08-01","eName":"Rowena Wise","genre":"Indie","price":"$21.45","supports":["Darvid Thor"],"ticketUrl":null,"time":" 8pm"}],"vName":"Northcote Social Club"},"type":"Feature"},{"geometry":{"coordinates":[144.9605705,-37.8132486],"type":"Point"},"properties":{"events":[{"categories":["Music"],"eDate":"2024-08-01","eName":"Slow Jams: Angela Librandi, Emerson Alexander & Cisco Tavares","genre":"Jazz","price":"$45.00","supports":[],"ticketUrl":null,"time":" 7:30pm"},{"categories":["Music"],"eDate":"2024-08-01","eName":"Reeding with Toots: The Chris Maunders Maunders Quintet","genre":"Jazz","price":"$40.00","supports":["Jon Hunt"],"ticketUrl":null,"time":" 8pm"}],"vName":"Paris Cat Jazz Club"},"type":"Feature"},{"geometry":{"coordinates":[144.9615882,-37.7711432],"type":"Point"},"properties":{"events":[{"categories":["Free","Music"],"eDate":"2024-08-01","eName":"Melbourne Polytechnic Music Recital","genre":"Indie","price":"Free","supports":[],"ticketUrl":null,"time":" 7:30pm"}],"vName":"Retreat Hotel"},"type":"Feature"},{"geometry":{"coordinates":[144.9631913,-37.7617818],"type":"Point"},"properties":{"events":[{"categories":["Free","Music"],"eDate":"2024-08-01","eName":"Open Mic @ Ringo Barr","genre":"Acoustic","price":"Free","supports":[],"ticketUrl":null,"time":" 7pm"},{"categories":["Free","Music"],"eDate":"2024-08-01","eName":"Open Mic @ Ringo Barr","genre":"Acoustic","price":"Free","supports":[],"ticketUrl":null,"time":" 7pm"}],"vName":"Ringo Barr"},"type":"Feature"},{"geometry":{"coordinates":[144.9607404,-37.7743469],"type":"Point"},"properties":{"events":[{"categories":["Music"],"eDate":"2024-08-01","eName":"Teenage Wrist","genre":"Rock","price":"$54.90","supports":["Better Half"," Bad Juju"],"ticketUrl":null,"time":" 7:30pm"}],"vName":"Stay Gold"},"type":"Feature"},{"geometry":{"coordinates":[144.9585654,-37.8059962],"type":"Point"},"properties":{"events":[{"categories":["Music"],"eDate":"2024-08-01","eName":"The Bin Stompers","genre":null,"price":"$16.00","supports":["Coolbah Kings"," The Rartel"],"ticketUrl":null,"time":" 8pm"}],"vName":"The Last Chance Rock & Roll Bar"},"type":"Feature"},{"geometry":{"coordinates":[144.9985126,-37.7588241],"type":"Point"},"properties":{"events":[{"categories":["Free","Music"],"eDate":"2024-08-01","eName":"Hume Blues Club","genre":"Blues","price":"Free","supports":["Shake Shack Jammers"],"ticketUrl":null,"time":" 7pm"}],"vName":"Thornbury Bowls Club"},"type":"Feature"},{"geometry":{"coordinates":[144.9618426,-37.8125531],"type":"Point"},"properties":{"events":[{"categories":["Free","Music","Other \"Food & Drink\""],"eDate":"2024-08-01","eName":"Inner Sanctuary: DJ JNETT + Jimmy James","genre":"Electronic","price":"Free","supports":[],"ticketUrl":null,"time":" 3pm"}],"vName":"Whitehart Bar"},"type":"Feature"}],"type":"FeatureCollection"}