{"features":[{"geometry":{"coordinates":[144.9982812,-37.7713296],"type":"Point"},"properties":{"events":[{"categories":["Music"],"eDate":"2025-08-01","eName":"Jam On Raw Dough + Miguel Brooking & Day One","genre":"Indie","price":"Free","supports":[],"ticketUrl":null,"time":" 8pm"}],"vName":"Bar 303"},"type":"Feature"},{"geometry":{"coordinates":[144.9891167,-37.7996488],"type":"Point"},"properties":{"events":[{"categories":["Music"],"eDate":"2025-08-01","eName":"Convulsing","genre":"Metal","price":"$22.95","supports":["Reekmind"," Tumour"," Well"],"ticketUrl":null,"time":" 8:30pm"}],"vName":"Bendigo Hotel"},"type":"Feature"},{"geometry":{"coordinates":[144.9568039,-37.8111442],"type":"Point"},"properties":{"events":[{"categories":["Music"],"eDate":"2025-08-01","eName":"Kav Temperley: Christmas in August","genre":"Rock","price":"$50.00","supports":[],"ticketUrl":null,"time":" 7:30pm"}],"vName":"Bird's Basement"},"type":"Feature"},{"geometry":{"coordinates":[145.0004166,-37.7612582],"type":"Point"},"properties":{"events":[{"categories":["Music"],"eDate":"2025-08-01","eName":"Great Australian Bank (Palestinian Mutual Aid Fundraiser)","genre":"Punk","price":"$15.00","supports":["The Mundaynes"," Techno666"," Frons"],"ticketUrl":null,"time":" 7pm"}],"vName":"Cactus Room"},"type":"Feature"},{"geometry":{"coordinates":[144.9713425,-37.8128595],"type":"Point"},"properties":{"events":[{"categories":["Music"],"eDate":"2025-08-01","eName":"Palace Of The King","genre":"Rock","price":"$17.48","supports":[],"ticketUrl":null,"time":" 8pm"}],"vName":"Cherry Bar"},"type":"Feature"},{"geometry":{"coordinates":[144.9926664,-37.8248893],"type":"Point"},"properties":{"events":[{"categories":["Music"],"eDate":"2025-08-01","eName":"Motta Maadi Music","genre":"Global","price":"$65.95 - 82.30","supports":[],"ticketUrl":null,"time":" 8pm"}],"vName":"Corner Hotel"},"type":"Feature"},{"geometry":{"coordinates":[144.9785611,-37.7965465],"type":"Point"},"properties":{"events":[{"categories":["Music"],"eDate":"2025-08-01","eName":"Lara Villani ‘Make it go away’ Single Launch","genre":"Pop","price":"$15.00","supports":[],"ticketUrl":null,"time":" 6pm"}],"vName":"Evelyn Hotel"},"type":"Feature"},{"geometry":{"coordinates":[144.9489214,-37.8106039],"type":"Point"},"properties":{"events":[{"categories":["Music"],"eDate":"2025-08-01","eName":"Baekhyun","genre":"Pop","price":"Free","supports":[],"ticketUrl":null,"time":" 7pm"}],"vName":"Festival Hall"},"type":"Feature"},{"geometry":{"coordinates":[145.0358857,-37.8230335],"type":"Point"},"properties":{"events":[{"categories":["Music"],"eDate":"2025-08-01","eName":"Grigoryan Brothers: Amistad","genre":null,"price":"$52.00 - 65.00","supports":[],"ticketUrl":null,"time":" 7:30pm"}],"vName":"Hawthorn Arts Centre"},"type":"Feature"},{"geometry":{"coordinates":[145.0314658,-37.8067273],"type":"Point"},"properties":{"events":[{"categories":["Music"],"eDate":"2025-08-01","eName":"Kew Court House Live: Monty Shnier Sextet","genre":"Jazz","price":"$20.00","supports":[],"ticketUrl":null,"time":" 7:30pm"}],"vName":"Kew Court House"},"type":"Feature"},{"geometry":{"coordinates":[145.0008148,-37.8107158],"type":"Point"},"properties":{"events":[{"categories":["Music"],"eDate":"2025-08-01","eName":"Mood Spill","genre":"Indie","price":"$23.75","supports":["Aunty Blue"," Mini Waters"],"ticketUrl":null,"time":" 8pm"}],"vName":"Leadbeater Hotel"},"type":"Feature"},{"geometry":{"coordinates":[144.9658499,-37.8147453],"type":"Point"},"properties":{"events":[{"categories":["Music"],"eDate":"2025-08-01","eName":"Beddy Rays","genre":"Rock","price":"$43.90","supports":[],"ticketUrl":null,"time":" 8pm"}],"vName":"Max Watt's (Melbourne)"},"type":"Feature"},{"geometry":{"coordinates":[144.9675876,-37.8240849],"type":"Point"},"properties":{"events":[{"categories":["Music"],"eDate":"2025-08-01","eName":"Our Duty to Care","genre":"Classical","price":"$45.00","supports":[],"ticketUrl":null,"time":" 6pm"}],"vName":"Melbourne Recital Centre"},"type":"Feature"},{"geometry":{"coordinates":[144.9790251,-37.8675008],"type":"Point"},"properties":{"events":[{"categories":["Music"],"eDate":"2025-08-01","eName":"8 Ball Aitken + Taya Chani","genre":"Blues","price":"$35.00 - 50.00","supports":[],"ticketUrl":null,"time":" 7pm"}],"vName":"Memo Music Hall"},"type":"Feature"},{"geometry":{"coordinates":[144.998414,-37.771471],"type":"Point"},"properties":{"events":[{"categories":["Music"],"eDate":"2025-08-01","eName":"Nai Palm","genre":"Soul/Funk","price":"$51.10","supports":["Nikodimos"],"ticketUrl":null,"time":" 8:30pm"}],"vName":"Northcote Social Club"},"type":"Feature"},{"geometry":{"coordinates":[144.96084,-37.813514],"type":"Point"},"properties":{"events":[{"categories":["Music"],"eDate":"2025-08-01","eName":"Serenade To Roland Kirk: Yael Zamir Quintet","genre":"Jazz","price":"$45.00","supports":[],"ticketUrl":null,"time":" 6pm"},{"categories":["Music"],"eDate":"2025-08-01","eName":"Tamara Kuldin’s To Ella with Love","genre":"Jazz","price":"$45.00","supports":[],"ticketUrl":null,"time":" 6:30pm"},{"categories":["Music"],"eDate":"2025-08-01","eName":"Bomin Kim & Jonah Grant Present: Beyond the Garden","genre":"Jazz","price":"$45.00","supports":[],"ticketUrl":null,"time":" 9pm"},{"categories":["Music"],"eDate":"2025-08-01","eName":"Harry Connick Jr: Love Songs with The Craig Smith Sextet","genre":"Jazz","price":"$45.00","supports":[],"ticketUrl":null,"time":" 9:30pm"}],"vName":"Paris Cat Jazz Club"},"type":"Feature"},{"geometry":{"coordinates":[144.9741326,-37.8619943],"type":"Point"},"properties":{"events":[{"categories":["Music"],"eDate":"2025-08-01","eName":"VOXNEON","genre":"Electronic","price":"$39.00","supports":[],"ticketUrl":null,"time":" 7:30pm"}],"vName":"Prince Bandroom"},"type":"Feature"},{"geometry":{"coordinates":[144.9583409,-37.7664168],"type":"Point"},"properties":{"events":[{"categories":["Music"],"eDate":"2025-08-01","eName":"Dragnet","genre":null,"price":"Free","supports":["Speccy"," Annual Leaf"],"ticketUrl":null,"time":" 7:30pm"}],"vName":"Quadraphonic Club"},"type":"Feature"},{"geometry":{"coordinates":[144.9615882,-37.7711432],"type":"Point"},"properties":{"events":[{"categories":["Music"],"eDate":"2025-08-01","eName":"Jord.","genre":"Pop","price":"$21.64","supports":["Chloe Violette"," Harrison Knight"],"ticketUrl":null,"time":" 7:30pm"}],"vName":"Retreat Hotel"},"type":"Feature"},{"geometry":{"coordinates":[144.993413,-37.8506652],"type":"Point"},"properties":{"events":[{"categories":["Music"],"eDate":"2025-08-01","eName":"Deep Dance Collective x Revolver Fridays","genre":"Electronic","price":"$21.42","supports":["more"],"ticketUrl":null,"time":"10pm"}],"vName":"Revolver Upstairs"},"type":"Feature"},{"geometry":{"coordinates":[145.0013923,-37.7559265],"type":"Point"},"properties":{"events":[{"categories":["Music"],"eDate":"2025-08-01","eName":"X: “At Home With You” 40th Anniversary","genre":"Punk","price":"$30.00","supports":["Jack Howard"," Velvet Parade"],"ticketUrl":null,"time":" 8pm"}],"vName":"Shotkickers"},"type":"Feature"},{"geometry":{"coordinates":[145.3534507,-37.9100746],"type":"Point"},"properties":{"events":[{"categories":["Music"],"eDate":"2025-08-01","eName":"Microwave + Free Throw","genre":"Punk","price":"$64.90","supports":[],"ticketUrl":null,"time":" 7pm"}],"vName":"Sooki Lounge"},"type":"Feature"},{"geometry":{"coordinates":[144.9607404,-37.7743469],"type":"Point"},"properties":{"events":[{"categories":["Music"],"eDate":"2025-08-01","eName":"City Escape: In Memory Of Christopher Winstone","genre":"Metal","price":"$29.90","supports":[],"ticketUrl":null,"time":" 7pm"},{"categories":["Music"],"eDate":"2025-08-01","eName":"City Escape: In Memory Of Christopher Winstone","genre":"Metal","price":"$29.90","supports":[],"ticketUrl":null,"time":" 7pm"}],"vName":"Stay Gold"},"type":"Feature"},{"geometry":{"coordinates":[144.9463641,-37.8047757],"type":"Point"},"properties":{"events":[{"categories":["Music"],"eDate":"2025-08-01","eName":"Silurian Returns (Once Off Show)","genre":null,"price":"$15.00","supports":["Draining"," Gush"," Perfect Blue"],"ticketUrl":null,"time":" 7:30pm"}],"vName":"The Last Chance Rock & Roll Bar"},"type":"Feature"},{"geometry":{"coordinates":[144.996838,-37.7794356],"type":"Point"},"properties":{"events":[{"categories":["Music"],"eDate":"2025-08-01","eName":"The Owls + Simon Juliff Band","genre":null,"price":"$15.00","supports":[],"ticketUrl":null,"time":" 8pm"}],"vName":"The Merri Creek Tavern"},"type":"Feature"},{"geometry":{"coordinates":[144.9708437,-37.7973184],"type":"Point"},"properties":{"events":[{"categories":["Music"],"eDate":"2025-08-01","eName":"Winter Witching Hour","genre":"Country/Folk","price":"$15.20","supports":[],"ticketUrl":null,"time":" 8pm"}],"vName":"The Motley Bauhaus"},"type":"Feature"},{"geometry":{"coordinates":[144.9651425,-37.8119429],"type":"Point"},"properties":{"events":[{"categories":["Music"],"eDate":"2025-08-01","eName":"The Art of the Side Room: Mike G Takeover","genre":"Electronic","price":"Free","supports":["El’ Fuentes"," Emelyne"],"ticketUrl":null,"time":" 9pm"},{"categories":["Free","Music"],"eDate":"2025-08-01","eName":"This Side of Paradise","genre":"Electronic","price":"Free","supports":[],"ticketUrl":null,"time":"11pm"}],"vName":"The Toff In Town"},"type":"Feature"},{"geometry":{"coordinates":[144.9769451,-37.8055776],"type":"Point"},"properties":{"events":[{"categories":["Music"],"eDate":"2025-08-01","eName":"The Vanns","genre":"Rock","price":"Free","supports":["Joe Mungovan"],"ticketUrl":null,"time":" 8pm"}],"vName":"The Workers Club"},"type":"Feature"}],"type":"FeatureCollection"}