{"features":[{"geometry":{"coordinates":[144.978682,-37.7981225],"type":"Point"},"properties":{"events":[{"categories":["Music"],"eDate":"2024-07-07","eName":"HH + Sax Gawn","genre":null,"price":"Free","supports":[],"ticketUrl":null,"time":" 9:30pm"}],"vName":"Baxter's Lot"},"type":"Feature"},{"geometry":{"coordinates":[144.9945274,-37.8001115],"type":"Point"},"properties":{"events":[{"categories":["Free","Music","Other \"Food & Drink\""],"eDate":"2024-07-07","eName":"Gospel Sundays","genre":null,"price":"Free","supports":["Business Partner"],"ticketUrl":null,"time":" 3pm"}],"vName":"Bodriggy Brewing Company"},"type":"Feature"},{"geometry":{"coordinates":[144.9745581,-37.7694446],"type":"Point"},"properties":{"events":[{"categories":["Music"],"eDate":"2024-07-07","eName":"Boggle + PSI PHI + Buttered Loaf","genre":"Jazz","price":"$15.00 - 30.00","supports":[],"ticketUrl":null,"time":" 3:30pm"},{"categories":["Music"],"eDate":"2024-07-07","eName":"Boggle + Psi Phi + Buttered Loaf","genre":null,"price":"$25.00","supports":[],"ticketUrl":null,"time":" 4pm"}],"vName":"Cross Street Music Hall"},"type":"Feature"},{"geometry":{"coordinates":[144.8971518,-37.8054274],"type":"Point"},"properties":{"events":[{"categories":["Free","Music"],"eDate":"2024-07-07","eName":"MATW Project Fundraiser: Mint Tulip + Jo Huf","genre":null,"price":"Free","supports":[],"ticketUrl":null,"time":" 3:15pm"}],"vName":"Mamma Chen's"},"type":"Feature"},{"geometry":{"coordinates":[144.97711,-37.79833],"type":"Point"},"properties":{"events":[{"categories":["Free","Music"],"eDate":"2024-07-07","eName":"The Tommys","genre":"Rock","price":"Free","supports":[],"ticketUrl":null,"time":" 4pm"},{"categories":["Free","Music"],"eDate":"2024-07-07","eName":"The Prime Ministers of the Commonwealth of Australia + Self-Titled","genre":"Rock","price":"Free","supports":[],"ticketUrl":null,"time":" 7:30pm"}],"vName":"Old Bar"},"type":"Feature"},{"geometry":{"coordinates":[144.9605705,-37.8132486],"type":"Point"},"properties":{"events":[{"categories":["Music"],"eDate":"2024-07-07","eName":"Jazz Harbingers: The Music of Art Blakey & The Jazz Messengers","genre":"Jazz","price":"$45.00","supports":[],"ticketUrl":null,"time":" 6pm"},{"categories":["Music"],"eDate":"2024-07-07","eName":"Yolly Does Billie in Paris","genre":"Jazz","price":"$35.00","supports":[],"ticketUrl":null,"time":" 6:30pm"}],"vName":"Paris Cat Jazz Club"},"type":"Feature"}],"type":"FeatureCollection"}