{"features":[{"geometry":{"coordinates":[144.9982812,-37.7713296],"type":"Point"},"properties":{"events":[{"categories":["Music"],"eDate":"2026-06-26","eName":"The Tonalists @ 303","genre":null,"price":"$15.00","supports":[],"ticketUrl":null,"time":" 5pm"},{"categories":["Music"],"eDate":"2026-06-26","eName":"The Tonalists","genre":"Jazz","price":"Free","supports":[],"ticketUrl":null,"time":" 5:30pm"},{"categories":["Music"],"eDate":"2026-06-26","eName":"Jam On Raw Dough","genre":"Jazz","price":"Free","supports":[],"ticketUrl":null,"time":" 8:30pm"}],"vName":"Bar 303"},"type":"Feature"},{"geometry":{"coordinates":[144.978682,-37.7981225],"type":"Point"},"properties":{"events":[{"categories":["Free","Music"],"eDate":"2026-06-26","eName":"Luna The Moon","genre":null,"price":"Free","supports":[],"ticketUrl":null,"time":" 9pm"}],"vName":"Baxter's Lot"},"type":"Feature"},{"geometry":{"coordinates":[145.0002585,-37.7592368],"type":"Point"},"properties":{"events":[{"categories":["Music"],"eDate":"2026-06-26","eName":"CANDY Release Party","genre":null,"price":"$15.00 - 20.00","supports":["Trap Card"," Vigilantonie"," Candi"],"ticketUrl":null,"time":" 8pm"}],"vName":"Cafe Gummo"},"type":"Feature"},{"geometry":{"coordinates":[144.9926664,-37.8248893],"type":"Point"},"properties":{"events":[{"categories":["Music"],"eDate":"2026-06-26","eName":"The Smiths Celebration: Queen Is Dead 40th Anniversary","genre":"Rock","price":"$28.05","supports":[],"ticketUrl":null,"time":" 8:30pm"}],"vName":"Corner Hotel"},"type":"Feature"},{"geometry":{"coordinates":[144.9747815,-37.7689698],"type":"Point"},"properties":{"events":[{"categories":["Music"],"eDate":"2026-06-26","eName":"The Golden Age of Sound: Opening Night","genre":null,"price":"$25.00","supports":["Krysalis Big Band"," DJ Mono"],"ticketUrl":null,"time":" 6pm"}],"vName":"Cross Street Music Hall"},"type":"Feature"},{"geometry":{"coordinates":[144.9777885,-37.8597831],"type":"Point"},"properties":{"events":[{"categories":["Music"],"eDate":"2026-06-26","eName":"Cliff Raux","genre":"Acoustic","price":"Free","supports":[],"ticketUrl":null,"time":" 8pm"},{"categories":["Music"],"eDate":"2026-06-26","eName":"DJ Lyndon McGauchie","genre":"Rock","price":"Free","supports":[],"ticketUrl":null,"time":"11pm"}],"vName":"Freddie Wimpoles"},"type":"Feature"},{"geometry":{"coordinates":[144.9679835,-37.8201575],"type":"Point"},"properties":{"events":[{"categories":["Music"],"eDate":"2026-06-26","eName":"Scott Bradlee’s Postmodern Jukebox","genre":"Jazz","price":"$109.00","supports":[],"ticketUrl":null,"time":" 7:30pm"}],"vName":"Hamer Hall (Arts Centre Melbourne)"},"type":"Feature"},{"geometry":{"coordinates":[144.9689204,-37.8226599],"type":"Point"},"properties":{"events":[{"categories":["Music","Other \"Art \""],"eDate":"2026-06-26","eName":"NGV Friday Nights- CARTIER: Circadian Rhythms","genre":null,"price":"$24.00 - 50.00","supports":[],"ticketUrl":null,"time":" 7pm"},{"categories":["Music","Other \"Art \""],"eDate":"2026-06-26","eName":"NGV Friday Nights- CARTIER: DJ Possum","genre":null,"price":"$24.00 - 50.00","supports":[],"ticketUrl":null,"time":" 8:30pm"}],"vName":"NGV - National Gallery of Victoria"},"type":"Feature"},{"geometry":{"coordinates":[144.998414,-37.771471],"type":"Point"},"properties":{"events":[{"categories":["Music"],"eDate":"2026-06-26","eName":"Chasing Ghosts (Farewell Show)","genre":"Punk","price":"Free","supports":["DENNI"," Abselom"," Oblivion"," Senator Lidia Thorpe"," Celeste Liddle"," Uncle Kutcha"," WTC Uncle Bill"],"ticketUrl":null,"time":" 7:30pm"}],"vName":"Northcote Social Club"},"type":"Feature"},{"geometry":{"coordinates":[144.96084,-37.813514],"type":"Point"},"properties":{"events":[{"categories":["Music"],"eDate":"2026-06-26","eName":"Caleb Wilson Quartet plays John Coltrane’s A Love Supreme","genre":"Jazz","price":"$45.00","supports":[],"ticketUrl":null,"time":" 6pm"},{"categories":["Music"],"eDate":"2026-06-26","eName":"Cristina Serafy presents Este Sentimiento: A Night of Latin Jazz","genre":"Jazz","price":"$45.00","supports":[],"ticketUrl":null,"time":" 6:30pm"},{"categories":["Music"],"eDate":"2026-06-26","eName":"The Music of Fleetwood Mac with Amethyst Jane","genre":"Jazz","price":"$45.00","supports":[],"ticketUrl":null,"time":" 9pm"},{"categories":["Music"],"eDate":"2026-06-26","eName":"The Music of Fleetwood Mac: Amethyst Jane","genre":"Jazz","price":"$45.00","supports":[],"ticketUrl":null,"time":" 9pm"},{"categories":["Music"],"eDate":"2026-06-26","eName":"Phoebe Sena Presents Love Deluxe: The Sade Tribute Show","genre":"Jazz","price":"$48.00","supports":[],"ticketUrl":null,"time":" 9:30pm"}],"vName":"Paris Cat Jazz Club"},"type":"Feature"},{"geometry":{"coordinates":[145.0142411,-37.7310367],"type":"Point"},"properties":{"events":[{"categories":["Music"],"eDate":"2026-06-26","eName":"Romaan","genre":"Jazz","price":"Free","supports":[],"ticketUrl":null,"time":" 6:30pm"},{"categories":["Music"],"eDate":"2026-06-26","eName":"The Merri Band","genre":"Jazz","price":"Free","supports":[],"ticketUrl":null,"time":" 8pm"}],"vName":"Ragtime Tavern"},"type":"Feature"},{"geometry":{"coordinates":[144.9690181,-37.8117849],"type":"Point"},"properties":{"events":[{"categories":["Music"],"eDate":"2026-06-26","eName":"Succulent Funk","genre":"Soul/Funk","price":"$25.00","supports":["Poli Pearl"," Miles Ahead"," Navy Blue Radio"," O Honey"," Emil LP"],"ticketUrl":null,"time":" 9pm"}],"vName":"Solace"},"type":"Feature"},{"geometry":{"coordinates":[144.9657057,-37.8061581],"type":"Point"},"properties":{"events":[{"categories":["Music"],"eDate":"2026-06-26","eName":"The Groundswell","genre":"Rock","price":"$12.25","supports":[],"ticketUrl":null,"time":" 8pm"}],"vName":"The Curtin"},"type":"Feature"},{"geometry":{"coordinates":[144.9770425,-37.8588717],"type":"Point"},"properties":{"events":[{"categories":["Music"],"eDate":"2026-06-26","eName":"The Band She + DJ Marky Mark","genre":null,"price":"Free","supports":[],"ticketUrl":null,"time":" 9pm"}],"vName":"The Fifth Province"},"type":"Feature"},{"geometry":{"coordinates":[144.9720579,-37.8121675],"type":"Point"},"properties":{"events":[{"categories":["Comedy","Theatre"],"eDate":"2026-06-26","eName":"F#*k This, I Quit: Comedy Based on YOUR Work Stories","genre":null,"price":"$24.00","supports":[],"ticketUrl":null,"time":" 7pm"},{"categories":["Comedy","Theatre"],"eDate":"2026-06-26","eName":"The Remix: Live Improv Comedy From A Guest’s True Stories","genre":null,"price":"$24.00","supports":[],"ticketUrl":null,"time":" 8:15pm"}],"vName":"The Improv Conspiracy"},"type":"Feature"},{"geometry":{"coordinates":[144.9463641,-37.8047757],"type":"Point"},"properties":{"events":[{"categories":["Music"],"eDate":"2026-06-26","eName":"Dallas Frasca","genre":"Rock","price":"$40.00","supports":[],"ticketUrl":null,"time":" 8pm"}],"vName":"The Last Chance Rock & Roll Bar"},"type":"Feature"},{"geometry":{"coordinates":[144.9708437,-37.7973184],"type":"Point"},"properties":{"events":[{"categories":["Music"],"eDate":"2026-06-26","eName":"The Wraylettes + Eric & The Echoettes: These Boots Were Made For Rock","genre":"Rock","price":"$13.16","supports":[],"ticketUrl":null,"time":" 8:30pm"}],"vName":"The Motley Bauhaus"},"type":"Feature"},{"geometry":{"coordinates":[144.9870814,-37.799406],"type":"Point"},"properties":{"events":[{"categories":["Music"],"eDate":"2026-06-26","eName":"celltowers","genre":null,"price":"$15.00","supports":["The Mundaynes"," OPERA",""," Henry Toast"],"ticketUrl":null,"time":" 7:30pm"}],"vName":"The Tote Hotel"},"type":"Feature"},{"geometry":{"coordinates":[144.9984324,-37.7729134],"type":"Point"},"properties":{"events":[{"categories":["Music"],"eDate":"2026-06-26","eName":"Nash Lee Trio","genre":"Jazz","price":"Free","supports":["Chris Pappas"],"ticketUrl":null,"time":" 6pm"},{"categories":["Music"],"eDate":"2026-06-26","eName":"Stu Larsen","genre":"Country/Folk","price":"$34.20","supports":[],"ticketUrl":null,"time":" 8pm"}],"vName":"Wesley Anne"},"type":"Feature"}],"type":"FeatureCollection"}