{"features":[{"geometry":{"coordinates":[144.99828116650363,-37.7713296],"type":"Point"},"properties":{"events":[{"categories":["Music"],"eDate":"2023-12-07","eName":"King Canoe","genre":"Jazz","price":"$20.00","supports":[],"ticketUrl":null,"time":" 9pm"}],"vName":"Bar 303"},"type":"Feature"},{"geometry":{"coordinates":[144.978425,-37.79773],"type":"Point"},"properties":{"events":[{"categories":["Music"],"eDate":"2023-12-07","eName":"Bloody Orange Juice","genre":"Jazz","price":"$17.35","supports":["Caleb Elbourne Quartet"],"ticketUrl":null,"time":" 8pm"}],"vName":"Bar Open"},"type":"Feature"},{"geometry":{"coordinates":[144.9607158,-37.776327],"type":"Point"},"properties":{"events":[{"categories":["Music"],"eDate":"2023-12-07","eName":"Sidney","genre":"Indie","price":"$16.85","supports":["Kat Edwards"," Saint Victorie"],"ticketUrl":null,"time":" 7:30pm"}],"vName":"Bergy Bandroom"},"type":"Feature"},{"geometry":{"coordinates":[144.9945274,-37.8001115],"type":"Point"},"properties":{"events":[{"categories":["Free","Music","Other \"Food & Drink\""],"eDate":"2023-12-07","eName":"Elon Bust Trio","genre":null,"price":"Free","supports":[],"ticketUrl":null,"time":" 7:30pm"}],"vName":"Bodriggy Brewing Company"},"type":"Feature"},{"geometry":{"coordinates":[144.9617018,-37.7704566],"type":"Point"},"properties":{"events":[{"categories":["Free","Music"],"eDate":"2023-12-07","eName":"The Afrobiotics","genre":"Global","price":"Free","supports":[],"ticketUrl":null,"time":" 8:30pm"}],"vName":"Brunswick Artists' Bar"},"type":"Feature"},{"geometry":{"coordinates":[144.9617018,-37.7704566],"type":"Point"},"properties":{"events":[{"categories":["Music"],"eDate":"2023-12-07","eName":"30/70 Collective Presents: Allysha Joy","genre":"Jazz","price":"$28.15","supports":["Special Feelings"," 30/70 DJs"],"ticketUrl":null,"time":" 8pm"}],"vName":"Brunswick Ballroom"},"type":"Feature"},{"geometry":{"coordinates":[145.00041662186553,-37.76125825],"type":"Point"},"properties":{"events":[{"categories":["Music"],"eDate":"2023-12-07","eName":"The Man From Atlantis","genre":"Rock","price":"$10.00","supports":["Secret Birds"," U.R.G."],"ticketUrl":null,"time":" 7pm"}],"vName":"Cactus Room"},"type":"Feature"},{"geometry":{"coordinates":[144.9628440552175,-37.76100605],"type":"Point"},"properties":{"events":[{"categories":["Music"],"eDate":"2023-12-07","eName":"The Snippers","genre":"Jazz","price":"Free","supports":[],"ticketUrl":null,"time":" 6pm"}],"vName":"Edinburgh Castle Hotel"},"type":"Feature"},{"geometry":{"coordinates":[144.9875917,-37.7963837],"type":"Point"},"properties":{"events":[{"categories":["Free","Music"],"eDate":"2023-12-07","eName":"The Unknowns + Lice Trays","genre":"Rock","price":"Free","supports":[],"ticketUrl":null,"time":" 8pm"}],"vName":"Gem Bar"},"type":"Feature"},{"geometry":{"coordinates":[144.973013,-37.8640582],"type":"Point"},"properties":{"events":[{"categories":["Music"],"eDate":"2023-12-07","eName":"Courtney Marie Andrews & Her Band","genre":"Country/Folk","price":"$49.50","supports":["Robert Ellis"],"ticketUrl":null,"time":" 7:30pm"}],"vName":"Hotel Esplanade (aka The Espy)"},"type":"Feature"},{"geometry":{"coordinates":[144.9936498,-37.8000264],"type":"Point"},"properties":{"events":[{"categories":["Free","Music"],"eDate":"2023-12-07","eName":"The 6v6s","genre":"Blues","price":"Free","supports":[],"ticketUrl":null,"time":"10pm"}],"vName":"Lulie Tavern"},"type":"Feature"},{"geometry":{"coordinates":[144.8971518,-37.8054274],"type":"Point"},"properties":{"events":[{"categories":["Music"],"eDate":"2023-12-07","eName":"Tou-Can","genre":null,"price":"$10.00 - 15.00","supports":["Complainer"," Mundane Jane"],"ticketUrl":null,"time":" 6pm"}],"vName":"Mamma Chen's"},"type":"Feature"},{"geometry":{"coordinates":[144.99295304614787,-37.80245],"type":"Point"},"properties":{"events":[{"categories":["Music"],"eDate":"2023-12-07","eName":"Zeitgeist Riders","genre":null,"price":"$10.00","supports":["David Goding"],"ticketUrl":null,"time":" 6pm"}],"vName":"Mr Boogie Man BAR"},"type":"Feature"},{"geometry":{"coordinates":[144.9977626,-37.7755001],"type":"Point"},"properties":{"events":[{"categories":["Music"],"eDate":"2023-12-07","eName":"Methyl Ethel","genre":"Rock","price":"$46.00","supports":["Armlock"],"ticketUrl":null,"time":" 7:30pm"}],"vName":"Northcote Theatre"},"type":"Feature"},{"geometry":{"coordinates":[145.0142411,-37.7310367],"type":"Point"},"properties":{"events":[{"categories":["Free","Music"],"eDate":"2023-12-07","eName":"Ragtime Tavern Open Piano","genre":"Acoustic","price":"Free","supports":[],"ticketUrl":null,"time":" 6pm"}],"vName":"Ragtime Tavern"},"type":"Feature"},{"geometry":{"coordinates":[144.9631913,-37.7617818],"type":"Point"},"properties":{"events":[{"categories":["Free","Music"],"eDate":"2023-12-07","eName":"Open Mic Thursdays @ Ringo Barr","genre":"Acoustic","price":"Free","supports":[],"ticketUrl":null,"time":" 7pm"}],"vName":"Ringo Barr"},"type":"Feature"},{"geometry":{"coordinates":[144.9585654,-37.8059962],"type":"Point"},"properties":{"events":[{"categories":["Music"],"eDate":"2023-12-07","eName":"Heartbreaker","genre":null,"price":"$15.00","supports":["Vida Fox"," The Bluntts"],"ticketUrl":null,"time":" 7:30pm"}],"vName":"The Last Chance Rock & Roll Bar"},"type":"Feature"},{"geometry":{"coordinates":[144.9708437,-37.7973184],"type":"Point"},"properties":{"events":[{"categories":["Music"],"eDate":"2023-12-07","eName":"Indigo King","genre":"Soul/Funk","price":"Free","supports":[],"ticketUrl":null,"time":" 6pm"},{"categories":["Music"],"eDate":"2023-12-07","eName":"Uncomfortable Science","genre":"Jazz","price":"$15.00","supports":[],"ticketUrl":null,"time":" 8:30pm"}],"vName":"The Motley Bauhaus"},"type":"Feature"},{"geometry":{"coordinates":[144.9830837,-37.7988316],"type":"Point"},"properties":{"events":[{"categories":["Music"],"eDate":"2023-12-07","eName":"Ali","genre":null,"price":"$34.56","supports":["DJ Adam Halliwell"," Immy Owusu"],"ticketUrl":null,"time":" 7:30pm"}],"vName":"The Night Cat"},"type":"Feature"}],"type":"FeatureCollection"}