{"features":[{"geometry":{"coordinates":[144.99828116650363,-37.7713296],"type":"Point"},"properties":{"events":[{"categories":["Music"],"eDate":"2024-11-23","eName":"Little Bands 1979-1980 Launch","genre":null,"price":"$10.00","supports":[],"ticketUrl":null,"time":" 3pm"},{"categories":["Music"],"eDate":"2024-11-23","eName":"Lost Canoe","genre":null,"price":"$15.00","supports":["The Devil's Own Circus"," Icky Sitch"," Ymago"],"ticketUrl":null,"time":" 8:30pm"}],"vName":"Bar 303"},"type":"Feature"},{"geometry":{"coordinates":[144.978425,-37.79773],"type":"Point"},"properties":{"events":[{"categories":["Music"],"eDate":"2024-11-23","eName":"Supervibe","genre":"Soul/Funk","price":"$20.00","supports":["Tom Riccioni"," more"],"ticketUrl":null,"time":" 8:30pm"},{"categories":["Free","Music"],"eDate":"2024-11-23","eName":"Midnight Circuitry / Synaptic Dreams","genre":"Electronic","price":"Free","supports":[],"ticketUrl":null,"time":"11pm"}],"vName":"Bar Open"},"type":"Feature"},{"geometry":{"coordinates":[144.978682,-37.7981225],"type":"Point"},"properties":{"events":[{"categories":["Free","Music"],"eDate":"2024-11-23","eName":"Lewis C","genre":null,"price":"Free","supports":[],"ticketUrl":null,"time":" 9pm"},{"categories":["Music"],"eDate":"2024-11-23","eName":"DJ Damien Mack","genre":"Electronic","price":"Free","supports":[],"ticketUrl":null,"time":"10pm"}],"vName":"Baxter's Lot"},"type":"Feature"},{"geometry":{"coordinates":[144.98911674151407,-37.79964875],"type":"Point"},"properties":{"events":[{"categories":["Music"],"eDate":"2024-11-23","eName":"New Delica","genre":"Rock","price":"$15.00","supports":["James McQ"," Felix Leuning & The Looming Feelings"],"ticketUrl":null,"time":" 8pm"}],"vName":"Bendigo Hotel"},"type":"Feature"},{"geometry":{"coordinates":[144.9607158,-37.776327],"type":"Point"},"properties":{"events":[{"categories":["Music"],"eDate":"2024-11-23","eName":"Poison Fish: The Return Show","genre":"Punk","price":"$11.75","supports":["Ze Wisenheimer"," RQTBL"],"ticketUrl":null,"time":" 1:30pm"},{"categories":["Music"],"eDate":"2024-11-23","eName":"KHAN","genre":"Rock","price":"$28.05","supports":["The Black Heart Death Cult"," Heinous Crimes"," Foot"],"ticketUrl":null,"time":" 7:30pm"}],"vName":"Bergy Bandroom"},"type":"Feature"},{"geometry":{"coordinates":[144.9567859,-37.8111049],"type":"Point"},"properties":{"events":[{"categories":["Music"],"eDate":"2024-11-23","eName":"Songs from Smyrne","genre":"Jazz","price":"$40.00","supports":[],"ticketUrl":null,"time":" 6pm"}],"vName":"Bird's Basement"},"type":"Feature"},{"geometry":{"coordinates":[144.9617018,-37.7704566],"type":"Point"},"properties":{"events":[{"categories":["Music"],"eDate":"2024-11-23","eName":"Eclectica: A Showcase Of Live Electronic Music","genre":"Electronic","price":"Free","supports":[],"ticketUrl":null,"time":" 8pm"}],"vName":"Brunswick Artists' Bar"},"type":"Feature"},{"geometry":{"coordinates":[144.9617018,-37.7704566],"type":"Point"},"properties":{"events":[{"categories":["Music"],"eDate":"2024-11-23","eName":"Belmar Records Top 10 #7 Launch Party","genre":null,"price":"$33.76","supports":[],"ticketUrl":null,"time":"12:30pm"}],"vName":"Brunswick Ballroom"},"type":"Feature"},{"geometry":{"coordinates":[145.00025846036164,-37.7592368],"type":"Point"},"properties":{"events":[{"categories":["Music"],"eDate":"2024-11-23","eName":"k00l00z","genre":"Electronic","price":"$15.00","supports":["Zuzu Petals"," Caustic Grip"," Blood In The Champagne"],"ticketUrl":null,"time":" 6pm"}],"vName":"Cafe Gummo"},"type":"Feature"},{"geometry":{"coordinates":[144.9713425,-37.8128595],"type":"Point"},"properties":{"events":[{"categories":["Music"],"eDate":"2024-11-23","eName":"Spy V Spy","genre":"Rock","price":"$38.91","supports":[],"ticketUrl":null,"time":" 8pm"}],"vName":"Cherry Bar"},"type":"Feature"},{"geometry":{"coordinates":[144.99266639479475,-37.82488935],"type":"Point"},"properties":{"events":[{"categories":["Music"],"eDate":"2024-11-23","eName":"Electric Mary","genre":"Rock","price":"$35.30","supports":[],"ticketUrl":null,"time":" 8:30pm"}],"vName":"Corner Hotel"},"type":"Feature"},{"geometry":{"coordinates":[144.94638741677488,-37.84329175],"type":"Point"},"properties":{"events":[{"categories":["Music"],"eDate":"2024-11-23","eName":"Concerts In The Park: Kiran Rajasingam & Genevieve Kingsford","genre":"Classical","price":"$40.00","supports":[],"ticketUrl":null,"time":" 5pm"}],"vName":"Gasworks Arts Park"},"type":"Feature"},{"geometry":{"coordinates":[144.9875917,-37.7963837],"type":"Point"},"properties":{"events":[{"categories":["Free","Music"],"eDate":"2024-11-23","eName":"Wild Dog Mountains + Bin Night Bandits","genre":"Country/Folk","price":"Free","supports":[],"ticketUrl":null,"time":" 8pm"}],"vName":"Gem Bar"},"type":"Feature"},{"geometry":{"coordinates":[144.973013,-37.8640582],"type":"Point"},"properties":{"events":[{"categories":["Music"],"eDate":"2024-11-23","eName":"Sanny Veloo","genre":"Rock","price":"$25.00","supports":["The Clever References"," Mike Abdel"],"ticketUrl":null,"time":" 6pm"}],"vName":"Hotel Esplanade (aka The Espy)"},"type":"Feature"},{"geometry":{"coordinates":[145.0008148,-37.8107158],"type":"Point"},"properties":{"events":[{"categories":["Music"],"eDate":"2024-11-23","eName":"Honeypot Mini-Fest","genre":"Rock","price":"$28.85 - 34.70","supports":[],"ticketUrl":null,"time":" 4pm"}],"vName":"Leadbeater Hotel"},"type":"Feature"},{"geometry":{"coordinates":[144.8971518,-37.8054274],"type":"Point"},"properties":{"events":[{"categories":["Free","Music"],"eDate":"2024-11-23","eName":"Gnometivities","genre":null,"price":"Free","supports":["Grevillea Hedge"," Ribjaw"],"ticketUrl":null,"time":" 7:45pm"}],"vName":"Mamma Chen's"},"type":"Feature"},{"geometry":{"coordinates":[144.9659879,-37.8147557],"type":"Point"},"properties":{"events":[{"categories":["Music"],"eDate":"2024-11-23","eName":"Bingo Loco presents Day Shift","genre":"Electronic","price":"$35.20 - 43.90","supports":[],"ticketUrl":null,"time":" 4pm"}],"vName":"Max Watt's (Melbourne)"},"type":"Feature"},{"geometry":{"coordinates":[144.96741062735794,-37.82454855],"type":"Point"},"properties":{"events":[{"categories":["Music"],"eDate":"2024-11-23","eName":"Musica Viva Australia: Musica Alchemica","genre":"Classical","price":"$62.00","supports":[],"ticketUrl":null,"time":" 5pm"}],"vName":"Melbourne Recital Centre"},"type":"Feature"},{"geometry":{"coordinates":[144.9786817,-37.8671902],"type":"Point"},"properties":{"events":[{"categories":["Music"],"eDate":"2024-11-23","eName":"Troy Cassar-Daley","genre":"Country/Folk","price":"$50.00 - 65.00","supports":[],"ticketUrl":null,"time":" 7pm"}],"vName":"Memo Music Hall"},"type":"Feature"},{"geometry":{"coordinates":[144.9712356,-37.812902],"type":"Point"},"properties":{"events":[{"categories":["Comedy"],"eDate":"2024-11-23","eName":"Basement Comedy Club","genre":null,"price":"$25.00","supports":["more"],"ticketUrl":null,"time":" 8pm"}],"vName":"Morris House"},"type":"Feature"},{"geometry":{"coordinates":[144.998414,-37.771471],"type":"Point"},"properties":{"events":[{"categories":["Music"],"eDate":"2024-11-23","eName":"Henry Wagons & The Only Children","genre":"Country/Folk","price":"$46.00","supports":[],"ticketUrl":null,"time":" 8:30pm"}],"vName":"Northcote Social Club"},"type":"Feature"},{"geometry":{"coordinates":[144.9977626,-37.7755001],"type":"Point"},"properties":{"events":[{"categories":["Dance"],"eDate":"2024-11-23","eName":"Body Electric Dance Studios Presents HOT GOSSIP","genre":null,"price":"$60.00","supports":[],"ticketUrl":null,"time":" 7pm"}],"vName":"Northcote Theatre"},"type":"Feature"},{"geometry":{"coordinates":[144.97711,-37.79833],"type":"Point"},"properties":{"events":[{"categories":["Free","Music"],"eDate":"2024-11-23","eName":"Relays + The Mundaynes","genre":"Indie","price":"Free","supports":[],"ticketUrl":null,"time":" 3:30pm"},{"categories":["Free","Music"],"eDate":"2024-11-23","eName":"Relays","genre":"Punk","price":"Free","supports":["The Mundaynes"],"ticketUrl":null,"time":" 4pm"}],"vName":"Old Bar"},"type":"Feature"},{"geometry":{"coordinates":[144.9981771,-37.7742773],"type":"Point"},"properties":{"events":[{"categories":["Music"],"eDate":"2024-11-23","eName":"Django Swing Party: Peter Baylor's 'Trio Manouche'","genre":"Jazz","price":"$10.00 - 15.00","supports":[],"ticketUrl":null,"time":" 9pm"}],"vName":"Open Studio"},"type":"Feature"},{"geometry":{"coordinates":[144.9605705,-37.8132486],"type":"Point"},"properties":{"events":[{"categories":["Music"],"eDate":"2024-11-23","eName":"A Norah Jones Tribute: Georgie Aué Band","genre":"Jazz","price":"$45.00","supports":[],"ticketUrl":null,"time":" 6pm"},{"categories":["Music"],"eDate":"2024-11-23","eName":"Feelin' Groovy: The Simon & Garfunkel Project","genre":"Jazz","price":"$45.00","supports":[],"ticketUrl":null,"time":" 6:30pm"},{"categories":["Music"],"eDate":"2024-11-23","eName":"Not So Big Band: An Evening In La La Land with Amelia Evans","genre":"R&B","price":"$48.00","supports":[],"ticketUrl":null,"time":" 9pm"},{"categories":["Music"],"eDate":"2024-11-23","eName":"Nardia Presents: The Women Of Jazz And Soul with Iseula","genre":"Jazz","price":"$45.00","supports":[],"ticketUrl":null,"time":" 9:30pm"}],"vName":"Paris Cat Jazz Club"},"type":"Feature"},{"geometry":{"coordinates":[144.90239079583333,-37.79990865],"type":"Point"},"properties":{"events":[{"categories":["Dance","Other \"Cabaret\""],"eDate":"2024-11-23","eName":"Night Of A Thousand Annies: Gender Affirming Fundraiser","genre":null,"price":"$15.00","supports":[],"ticketUrl":null,"time":" 7pm"}],"vName":"Pride Of Our Footscray Community Bar"},"type":"Feature"},{"geometry":{"coordinates":[144.9828155,-37.8567825],"type":"Point"},"properties":{"events":[{"categories":["Music"],"eDate":"2024-11-23","eName":"Sanny Veloo","genre":"Rock","price":"$20.00","supports":["The Clever References"," Mike Abdel"],"ticketUrl":null,"time":" 7pm"},{"categories":["Music"],"eDate":"2024-11-23","eName":"Pixel","genre":"Electronic","price":"$20.00 - 30.00","supports":[],"ticketUrl":null,"time":" 9pm"}],"vName":"Prince Bandroom"},"type":"Feature"},{"geometry":{"coordinates":[145.0142411,-37.7310367],"type":"Point"},"properties":{"events":[{"categories":["Music"],"eDate":"2024-11-23","eName":"Johnny Can’t Dance Cajun Band","genre":"Jazz","price":"Free","supports":[],"ticketUrl":null,"time":" 8pm"},{"categories":["Free","Music"],"eDate":"2024-11-23","eName":"James Lockwood & His Beboppers","genre":"Jazz","price":"Free","supports":[],"ticketUrl":null,"time":" 8pm"}],"vName":"Ragtime Tavern"},"type":"Feature"},{"geometry":{"coordinates":[144.993413,-37.8506652],"type":"Point"},"properties":{"events":[{"categories":["Music"],"eDate":"2024-11-23","eName":"Toadstool","genre":null,"price":"$11.22","supports":[],"ticketUrl":null,"time":" 7pm"}],"vName":"Revolver Upstairs"},"type":"Feature"},{"geometry":{"coordinates":[144.9631913,-37.7617818],"type":"Point"},"properties":{"events":[{"categories":["Music"],"eDate":"2024-11-23","eName":"Pet Therapy + Lucy Paterson","genre":"Rock","price":"$20.00","supports":[],"ticketUrl":null,"time":" 8pm"}],"vName":"Ringo Barr"},"type":"Feature"},{"geometry":{"coordinates":[144.9607481,-37.7702892],"type":"Point"},"properties":{"events":[{"categories":["Music"],"eDate":"2024-11-23","eName":"Legends: Volume 2","genre":"Hip Hop","price":"$22.49","supports":["DJ Mizhap"," DJ Rellik"],"ticketUrl":null,"time":" 7pm"}],"vName":"Rubix Warehouse"},"type":"Feature"},{"geometry":{"coordinates":[145.001392343033,-37.75592655],"type":"Point"},"properties":{"events":[{"categories":["Music"],"eDate":"2024-11-23","eName":"Louis TM","genre":null,"price":"$28.80","supports":["Fulton Street"," Oscar Ladell"," DJ Miss Goldie"],"ticketUrl":null,"time":" 8pm"}],"vName":"Shotkickers"},"type":"Feature"},{"geometry":{"coordinates":[144.9607404,-37.7743469],"type":"Point"},"properties":{"events":[{"categories":["Music","Other \"Wrestling\""],"eDate":"2024-11-23","eName":"Wrestle Rager: A Wrestling Themed Nightclub","genre":"Rock","price":"$19.99 - 29.99","supports":[],"ticketUrl":null,"time":" 7pm"},{"categories":["Music"],"eDate":"2024-11-23","eName":"Pitbull Party","genre":null,"price":"$13.80 - 22.00","supports":[],"ticketUrl":null,"time":"11pm"}],"vName":"Stay Gold"},"type":"Feature"},{"geometry":{"coordinates":[144.9657057,-37.8061581],"type":"Point"},"properties":{"events":[{"categories":["Music"],"eDate":"2024-11-23","eName":"Strawbz","genre":"Rock","price":"$12.00 - 20.00","supports":["The Opals"," Pretty Moi"],"ticketUrl":null,"time":" 8pm"}],"vName":"The Curtin"},"type":"Feature"},{"geometry":{"coordinates":[144.958676,-37.7669571],"type":"Point"},"properties":{"events":[{"categories":["Music"],"eDate":"2024-11-23","eName":"Hue Blanes Quartet with Alma Zygier","genre":"Jazz","price":"$35.00 - 40.00","supports":[],"ticketUrl":null,"time":" 8pm"}],"vName":"The Jazzlab"},"type":"Feature"},{"geometry":{"coordinates":[144.9585654,-37.8059962],"type":"Point"},"properties":{"events":[{"categories":["Music"],"eDate":"2024-11-23","eName":"The Connection Revue","genre":"Rock","price":"$11.25","supports":["Banjzig"," Someone Else's Wedding Band"],"ticketUrl":null,"time":" 2:30pm"},{"categories":["Music"],"eDate":"2024-11-23","eName":"Scud","genre":"Punk","price":"$16.35","supports":["Bughunt"," The Pinstripes"," Dolls"],"ticketUrl":null,"time":" 8pm"}],"vName":"The Last Chance Rock & Roll Bar"},"type":"Feature"},{"geometry":{"coordinates":[144.9708437,-37.7973184],"type":"Point"},"properties":{"events":[{"categories":["Free","Music"],"eDate":"2024-11-23","eName":"Jazz Arvos","genre":"Jazz","price":"Free","supports":[],"ticketUrl":null,"time":" 5pm"},{"categories":["Music","Theatre"],"eDate":"2024-11-23","eName":"Hidden Tunes 弦外之影 Musical","genre":null,"price":"$25.00 - 40.00","supports":[],"ticketUrl":null,"time":" 7pm"},{"categories":["Music","Theatre"],"eDate":"2024-11-23","eName":"Hidden Tunes 弦外之影 Musical (Late Session)","genre":null,"price":"$25.00 - 40.00","supports":[],"ticketUrl":null,"time":" 8:30pm"},{"categories":["Comedy"],"eDate":"2024-11-23","eName":"The Big HOO HAA!","genre":null,"price":"$30.39","supports":[],"ticketUrl":null,"time":" 8:30pm"}],"vName":"The Motley Bauhaus"},"type":"Feature"},{"geometry":{"coordinates":[144.9830837,-37.7988316],"type":"Point"},"properties":{"events":[{"categories":["Music"],"eDate":"2024-11-23","eName":"Donny Benét Intimate Desires","genre":"Electronic","price":"$49.96","supports":[],"ticketUrl":null,"time":" 7:30pm"},{"categories":["Music"],"eDate":"2024-11-23","eName":"Kuniyuki","genre":"Electronic","price":"$28.54 - 39.76","supports":[],"ticketUrl":null,"time":"11pm"}],"vName":"The Night Cat"},"type":"Feature"},{"geometry":{"coordinates":[144.9830837,-37.7988316],"type":"Point"},"properties":{"events":[{"categories":["Music"],"eDate":"2024-11-23","eName":"Hybrid Man","genre":"Electronic","price":"$20.00","supports":[],"ticketUrl":null,"time":"11pm"}],"vName":"The Rochester"},"type":"Feature"},{"geometry":{"coordinates":[144.9846126,-37.7989941],"type":"Point"},"properties":{"events":[{"categories":["Music"],"eDate":"2024-11-23","eName":"Poison Ruin","genre":"Punk","price":"$34.20","supports":["Body Maintenance"," Vampire"," Phantasm"," Armour"],"ticketUrl":null,"time":" 8pm"},{"categories":["Music"],"eDate":"2024-11-23","eName":"Mr. Industry","genre":"Rock","price":"$16.35","supports":["Swapmeet"," Local the Neighbour"],"ticketUrl":null,"time":" 8pm"}],"vName":"The Tote Hotel"},"type":"Feature"},{"geometry":{"coordinates":[144.9769450659087,-37.8055776],"type":"Point"},"properties":{"events":[{"categories":["Music"],"eDate":"2024-11-23","eName":"The 1980s","genre":"Indie","price":"$12.75","supports":["Runners & The Young"," more"],"ticketUrl":null,"time":" 1pm"},{"categories":["Music"],"eDate":"2024-11-23","eName":"Dreamworm","genre":"Metal","price":"$17.85","supports":["Katana Cartel"," Rawtizm"," Replacement Busses"," Rhinosaur"],"ticketUrl":null,"time":" 7pm"}],"vName":"The Workers Club"},"type":"Feature"},{"geometry":{"coordinates":[144.9983987,-37.7729204],"type":"Point"},"properties":{"events":[{"categories":["Music"],"eDate":"2024-11-23","eName":"The Beatnik Preachers","genre":"Jazz","price":"$23.50","supports":[],"ticketUrl":null,"time":" 8pm"}],"vName":"Wesley Anne"},"type":"Feature"},{"geometry":{"coordinates":[144.9827552,-37.8041303],"type":"Point"},"properties":{"events":[{"categories":["Music"],"eDate":"2024-11-23","eName":"Saturday Night Party","genre":"Electronic","price":"$0.00 - 15.00","supports":[],"ticketUrl":null,"time":" 9pm"},{"categories":["Music"],"eDate":"2024-11-23","eName":"Planet Bitchy","genre":"Electronic","price":"$15.00","supports":[],"ticketUrl":null,"time":" 9pm"}],"vName":"Yah Yah's"},"type":"Feature"}],"type":"FeatureCollection"}