{"features":[{"geometry":{"coordinates":[144.9715791,-37.8140656],"type":"Point"},"properties":{"events":[{"categories":["Music","Dance","Other \"Cabaret\""],"eDate":"2024-06-01","eName":"Club Vegas","genre":"Pop","price":"$79.00 - 199.00","supports":[],"ticketUrl":null,"time":" 1pm"}],"vName":"Athenaeum Theatre"},"type":"Feature"},{"geometry":{"coordinates":[144.99828116650363,-37.7713296],"type":"Point"},"properties":{"events":[{"categories":["Free","Music"],"eDate":"2024-06-01","eName":"Pinko Collective","genre":"Jazz","price":"Free","supports":[],"ticketUrl":null,"time":" 3pm"},{"categories":["Music"],"eDate":"2024-06-01","eName":"The Jawa Pitu Band","genre":"Soul/Funk","price":"$17.00 - 20.00","supports":["Sanggar Lestari"," The Electrodub Experiment"],"ticketUrl":null,"time":" 8pm"}],"vName":"Bar 303"},"type":"Feature"},{"geometry":{"coordinates":[144.9607158,-37.776327],"type":"Point"},"properties":{"events":[{"categories":["Music"],"eDate":"2024-06-01","eName":"The Ascended","genre":"Metal","price":"$22.95","supports":["Abreact"," Werewolf"," Escarion"],"ticketUrl":null,"time":" 7:30pm"}],"vName":"Bergy Bandroom"},"type":"Feature"},{"geometry":{"coordinates":[144.9617018,-37.7704566],"type":"Point"},"properties":{"events":[{"categories":["Music"],"eDate":"2024-06-01","eName":"Social Disco","genre":"Electronic","price":"$18.87","supports":["Scrub Mummy"," Fee B Squared"," LaPorgretta"],"ticketUrl":null,"time":"10pm"}],"vName":"Brunswick Ballroom"},"type":"Feature"},{"geometry":{"coordinates":[144.9713425,-37.8128595],"type":"Point"},"properties":{"events":[{"categories":["Music"],"eDate":"2024-06-01","eName":"Kissit + Poizon’Us","genre":"Rock","price":"$27.70","supports":[],"ticketUrl":null,"time":" 8pm"}],"vName":"Cherry Bar"},"type":"Feature"},{"geometry":{"coordinates":[144.99266639479475,-37.82488935],"type":"Point"},"properties":{"events":[{"categories":["Music"],"eDate":"2024-06-01","eName":"Cirith Ungol + Night Demon","genre":"Metal","price":"$63.90","supports":["Night Demon"," Tarot"," Aardvark"],"ticketUrl":null,"time":" 7pm"}],"vName":"Corner Hotel"},"type":"Feature"},{"geometry":{"coordinates":[144.9875917,-37.7963837],"type":"Point"},"properties":{"events":[{"categories":["Free","Music"],"eDate":"2024-06-01","eName":"Nervous","genre":"Punk","price":"Free","supports":["Swab"," Sooks"],"ticketUrl":null,"time":" 4pm"},{"categories":["Free","Music","Comedy"],"eDate":"2024-06-01","eName":"The RSAs","genre":"Punk","price":"Free","supports":["Aaron Gocs"," Fuzzsucker"],"ticketUrl":null,"time":" 8pm"}],"vName":"Gem Bar"},"type":"Feature"},{"geometry":{"coordinates":[144.9679835243618,-37.8201575],"type":"Point"},"properties":{"events":[{"categories":["Free","Theatre"],"eDate":"2024-06-01","eName":"Monster High","genre":null,"price":"Free","supports":[],"ticketUrl":null,"time":"12:30pm"}],"vName":"Hamer Hall (Arts Centre Melbourne)"},"type":"Feature"},{"geometry":{"coordinates":[144.96741062735794,-37.82454855],"type":"Point"},"properties":{"events":[{"categories":["Music"],"eDate":"2024-06-01","eName":"Axion Esti","genre":"Classical","price":"$80.00","supports":[],"ticketUrl":null,"time":" 8pm"}],"vName":"Melbourne Recital Centre"},"type":"Feature"},{"geometry":{"coordinates":[145.3553553,-37.9078552],"type":"Point"},"properties":{"events":[{"categories":["Free","Music"],"eDate":"2024-06-01","eName":"Szara Fox & The Midnight Secrets","genre":"Indie","price":"Free","supports":[],"ticketUrl":null,"time":" 8:30pm"}],"vName":"Micawber Tavern"},"type":"Feature"},{"geometry":{"coordinates":[145.1496717,-37.7125259],"type":"Point"},"properties":{"events":[{"categories":["Music"],"eDate":"2024-06-01","eName":"Absolutely 80's Smash Hits Show","genre":"Rock","price":"$50.00","supports":[],"ticketUrl":null,"time":" 8:30pm"}],"vName":"Missing Gorilla"},"type":"Feature"},{"geometry":{"coordinates":[144.998414,-37.771471],"type":"Point"},"properties":{"events":[{"categories":["Music"],"eDate":"2024-06-01","eName":"Rockdogs Supergroup","genre":"Rock","price":"$24.00","supports":["Destrends"," Ash Naylor & Kylie Auldist"],"ticketUrl":null,"time":" 7pm"},{"categories":["Music"],"eDate":"2024-06-01","eName":"The Rockdogs Annual Pie Night Fundraiser","genre":"Rock","price":"$20.00","supports":["Destrends"," Persecution Blues"," DJ Mermaid"],"ticketUrl":null,"time":" 7pm"}],"vName":"Northcote Social Club"},"type":"Feature"},{"geometry":{"coordinates":[144.97711,-37.79833],"type":"Point"},"properties":{"events":[{"categories":["Music"],"eDate":"2024-06-01","eName":"Old Bar Unicorns Fundraiser Karaoke Extravaganza","genre":"Rock","price":"$11.25","supports":[],"ticketUrl":null,"time":" 6pm"}],"vName":"Old Bar"},"type":"Feature"},{"geometry":{"coordinates":[144.9605705,-37.8132486],"type":"Point"},"properties":{"events":[{"categories":["Music"],"eDate":"2024-06-01","eName":"PARTNERS IN JAZZ: A Night of Dex & Slide with Blackman/Rozakeas","genre":"Jazz","price":"$45.00","supports":[],"ticketUrl":null,"time":" 9pm"}],"vName":"Paris Cat Jazz Club"},"type":"Feature"},{"geometry":{"coordinates":[144.9828155,-37.8567825],"type":"Point"},"properties":{"events":[{"categories":["Music","Festival"],"eDate":"2024-06-01","eName":"Matsumura Blues Festival","genre":"Blues","price":"$50.00 - 70.00","supports":["Dalicados"," Doggerel"," George Kamikawa & Noriko Tadano"," Eisa Champroo"," Phil Para Band"],"ticketUrl":null,"time":" 1pm"}],"vName":"Prince Bandroom"},"type":"Feature"},{"geometry":{"coordinates":[144.9631913,-37.7617818],"type":"Point"},"properties":{"events":[{"categories":["Free","Music"],"eDate":"2024-06-01","eName":"LIFEOFTI + DJ Mizhap","genre":"R&B","price":"Free","supports":[],"ticketUrl":null,"time":" 8pm"}],"vName":"Ringo Barr"},"type":"Feature"},{"geometry":{"coordinates":[144.965405,-37.8117457],"type":"Point"},"properties":{"events":[{"categories":["Free","Music"],"eDate":"2024-06-01","eName":"Flying Arts Studio 8th Birthday","genre":null,"price":"Free","supports":[],"ticketUrl":null,"time":" 6pm"}],"vName":"Section 8"},"type":"Feature"},{"geometry":{"coordinates":[144.9607404,-37.7743469],"type":"Point"},"properties":{"events":[{"categories":["Music"],"eDate":"2024-06-01","eName":"Graves","genre":"Metal","price":"$44.90","supports":["Starve"," Sedative"],"ticketUrl":null,"time":" 6pm"},{"categories":["Free","Music"],"eDate":"2024-06-01","eName":"Access All Areas Band Comp: GRAND FINAL","genre":"Rock","price":"Free","supports":[],"ticketUrl":null,"time":" 7pm"},{"categories":["Music"],"eDate":"2024-06-01","eName":"One Direction VS. 5 Seconds of Summer","genre":"Pop","price":"$22.00","supports":[],"ticketUrl":null,"time":"11pm"}],"vName":"Stay Gold"},"type":"Feature"},{"geometry":{"coordinates":[144.9617907,-37.7620426],"type":"Point"},"properties":{"events":[{"categories":["Music"],"eDate":"2024-06-01","eName":"Satellite Fingers - Unplugged","genre":"Classical","price":"$25.00","supports":[],"ticketUrl":null,"time":" 7pm"}],"vName":"Tempo Rubato"},"type":"Feature"},{"geometry":{"coordinates":[144.9706095,-37.7783326],"type":"Point"},"properties":{"events":[{"categories":["Free","Music"],"eDate":"2024-06-01","eName":"Worker & Parasite","genre":"Rock","price":"Free","supports":["Scud"," Leonardo’s Robot"],"ticketUrl":null,"time":" 9pm"}],"vName":"The Beast"},"type":"Feature"},{"geometry":{"coordinates":[144.9622,-37.7679857],"type":"Point"},"properties":{"events":[{"categories":["Music"],"eDate":"2024-06-01","eName":"Big Cat","genre":"Jazz","price":"Free","supports":["Swamp"," Charlotte Bridie"],"ticketUrl":null,"time":" 9pm"}],"vName":"The Penny Black"},"type":"Feature"},{"geometry":{"coordinates":[144.9651425,-37.8119429],"type":"Point"},"properties":{"events":[{"categories":["Music"],"eDate":"2024-06-01","eName":"Teymori Feat. Horatio Luna","genre":"Electronic","price":"$23.46 - 28.56","supports":[],"ticketUrl":null,"time":"10pm"}],"vName":"The Toff In Town"},"type":"Feature"},{"geometry":{"coordinates":[144.9846126,-37.7989941],"type":"Point"},"properties":{"events":[{"categories":["Music"],"eDate":"2024-06-01","eName":"Assteroid","genre":"Rock","price":"$11.25","supports":["Hot Dog"," The Nation Two"],"ticketUrl":null,"time":" 8pm"},{"categories":["Music"],"eDate":"2024-06-01","eName":"Belvedere","genre":"Punk","price":"$44.40","supports":["The Decline"],"ticketUrl":null,"time":" 8pm"},{"categories":["Free","Music"],"eDate":"2024-06-01","eName":"Rare Phenomenon (1am Show)","genre":"Punk","price":"Free","supports":[],"ticketUrl":null,"time":"11:30pm"}],"vName":"The Tote Hotel"},"type":"Feature"},{"geometry":{"coordinates":[144.9618426,-37.8125531],"type":"Point"},"properties":{"events":[{"categories":["Free","Music"],"eDate":"2024-06-01","eName":"Bubble","genre":null,"price":"Free","supports":[],"ticketUrl":null,"time":" 4pm"}],"vName":"Whitehart Bar"},"type":"Feature"}],"type":"FeatureCollection"}