{"features":[{"geometry":{"coordinates":[144.9679835,-37.8201575],"type":"Point"},"properties":{"events":[{"categories":["Comedy","Other \"Cabaret\""],"eDate":"2025-06-22","eName":"Heartbreak Hotel","genre":null,"price":"$44.00 - 49.00","supports":[],"ticketUrl":null,"time":" 5pm"}],"vName":"Arts Centre Melbourne"},"type":"Feature"},{"geometry":{"coordinates":[145.0192156,-37.7562323],"type":"Point"},"properties":{"events":[{"categories":["Music","Theatre"],"eDate":"2025-06-22","eName":"Hedwig & The Angry Inch","genre":"Rock","price":"$69.00 - 159.00","supports":[],"ticketUrl":null,"time":" 5pm"}],"vName":"Athenaeum Theatre"},"type":"Feature"},{"geometry":{"coordinates":[144.978682,-37.7981225],"type":"Point"},"properties":{"events":[{"categories":["Free","Music"],"eDate":"2025-06-22","eName":"Jordan Bakker","genre":null,"price":"Free","supports":[],"ticketUrl":null,"time":" 9pm"}],"vName":"Baxter's Lot"},"type":"Feature"},{"geometry":{"coordinates":[144.9945274,-37.8001115],"type":"Point"},"properties":{"events":[{"categories":["Free","Music","Other \"Food \""],"eDate":"2025-06-22","eName":"Phez","genre":null,"price":"Free","supports":["Slow Band"],"ticketUrl":null,"time":" 3pm"}],"vName":"Bodriggy Brewing Company"},"type":"Feature"},{"geometry":{"coordinates":[145.1232659,-38.1461351],"type":"Point"},"properties":{"events":[{"categories":["Music"],"eDate":"2025-06-22","eName":"Clare Bowditch","genre":"Indie","price":"$62.90","supports":[],"ticketUrl":null,"time":" 4pm"}],"vName":"Frankston Arts Centre"},"type":"Feature"},{"geometry":{"coordinates":[144.9658499,-37.8147453],"type":"Point"},"properties":{"events":[{"categories":["Music"],"eDate":"2025-06-22","eName":"Yours Truly","genre":"Rock","price":"$65.00","supports":["Senses"," Besties"],"ticketUrl":null,"time":" 6:30pm"}],"vName":"Max Watt's (Melbourne)"},"type":"Feature"},{"geometry":{"coordinates":[145.3534507,-37.9100746],"type":"Point"},"properties":{"events":[{"categories":["Music"],"eDate":"2025-06-22","eName":"Black Market Clash + Atomic: The Songs Of Blondie","genre":"Rock","price":"$44.80","supports":[],"ticketUrl":null,"time":" 4pm"}],"vName":"Sooki Lounge"},"type":"Feature"}],"type":"FeatureCollection"}