{"features":[{"geometry":{"coordinates":[144.978682,-37.7981225],"type":"Point"},"properties":{"events":[{"categories":["Free","Music"],"eDate":"2026-05-22","eName":"Woody Samson","genre":null,"price":"Free","supports":[],"ticketUrl":null,"time":" 9pm"}],"vName":"Baxter's Lot"},"type":"Feature"},{"geometry":{"coordinates":[144.9891167,-37.7996488],"type":"Point"},"properties":{"events":[{"categories":["Music"],"eDate":"2026-05-22","eName":"Ungrateful DeadFest: Brutality II","genre":"Metal","price":"$49.50 - 95.40","supports":[],"ticketUrl":null,"time":" 7:30pm"}],"vName":"Bendigo Hotel"},"type":"Feature"},{"geometry":{"coordinates":[144.9568039,-37.8111442],"type":"Point"},"properties":{"events":[{"categories":["Music"],"eDate":"2026-05-22","eName":"Fleetwood Max","genre":"Rock","price":"$50.00","supports":[],"ticketUrl":null,"time":" 7:30pm"}],"vName":"Bird's Basement"},"type":"Feature"},{"geometry":{"coordinates":[144.9617083,-37.7704205],"type":"Point"},"properties":{"events":[{"categories":["Free","Music"],"eDate":"2026-05-22","eName":"The Great Emu War Casualties","genre":"Rock","price":"Free","supports":["HECTICT"," Lostii"," Comedy"],"ticketUrl":null,"time":" 8:30pm"}],"vName":"Brunswick Artists' Bar"},"type":"Feature"},{"geometry":{"coordinates":[145.0004166,-37.7612582],"type":"Point"},"properties":{"events":[{"categories":["Music"],"eDate":"2026-05-22","eName":"ELI","genre":null,"price":"$19.90","supports":["Sydney Miller"," Force Quit"],"ticketUrl":null,"time":" 8pm"}],"vName":"Cactus Room"},"type":"Feature"},{"geometry":{"coordinates":[144.9926664,-37.8248893],"type":"Point"},"properties":{"events":[{"categories":["Music"],"eDate":"2026-05-22","eName":"Kingswood","genre":"Rock","price":"$51.10","supports":[],"ticketUrl":null,"time":" 8pm"}],"vName":"Corner Hotel"},"type":"Feature"},{"geometry":{"coordinates":[144.9627513,-37.760963],"type":"Point"},"properties":{"events":[{"categories":["Music"],"eDate":"2026-05-22","eName":"Georgia Rodgers","genre":"Blues","price":"Free","supports":[],"ticketUrl":null,"time":" 8pm"}],"vName":"Edinburgh Castle Hotel"},"type":"Feature"},{"geometry":{"coordinates":[144.9875792,-37.7963739],"type":"Point"},"properties":{"events":[{"categories":["Free","Music"],"eDate":"2026-05-22","eName":"Mark Campbell & The Ravens","genre":"Country/Folk","price":"Free","supports":[],"ticketUrl":null,"time":" 8pm"}],"vName":"Gem Bar"},"type":"Feature"},{"geometry":{"coordinates":[144.9787378,-37.7954205],"type":"Point"},"properties":{"events":[{"categories":["Music"],"eDate":"2026-05-22","eName":"Interval: SHUFFA + DJ Optimism","genre":"Electronic","price":"$15.00 - 30.00","supports":[],"ticketUrl":null,"time":"10pm"}],"vName":"Glamorama"},"type":"Feature"},{"geometry":{"coordinates":[144.9679835,-37.8201575],"type":"Point"},"properties":{"events":[{"categories":["Music"],"eDate":"2026-05-22","eName":"John Williamson","genre":"Country/Folk","price":"$119.00","supports":[],"ticketUrl":null,"time":" 7pm"}],"vName":"Hamer Hall (Arts Centre Melbourne)"},"type":"Feature"},{"geometry":{"coordinates":[145.0008148,-37.8107158],"type":"Point"},"properties":{"events":[{"categories":["Music"],"eDate":"2026-05-22","eName":"Umbra Moon","genre":null,"price":"$17.85","supports":[],"ticketUrl":null,"time":" 8pm"}],"vName":"Leadbeater Hotel"},"type":"Feature"},{"geometry":{"coordinates":[144.998414,-37.771471],"type":"Point"},"properties":{"events":[{"categories":["Music"],"eDate":"2026-05-22","eName":"Bluebottle Kiss","genre":"Rock","price":"$40.00","supports":["Possible Humans"," Marcus Teague"],"ticketUrl":null,"time":" 8pm"}],"vName":"Northcote Social Club"},"type":"Feature"},{"geometry":{"coordinates":[144.9982706,-37.7737068],"type":"Point"},"properties":{"events":[{"categories":["Music"],"eDate":"2026-05-22","eName":"Public Service Broadcasting","genre":null,"price":"$67.52","supports":[],"ticketUrl":null,"time":" 7:30pm"}],"vName":"Northcote Theatre"},"type":"Feature"},{"geometry":{"coordinates":[145.0015248,-37.8258878],"type":"Point"},"properties":{"events":[{"categories":["Music"],"eDate":"2026-05-22","eName":"Phil Manning & Sarah Carroll","genre":"Blues","price":"$30.00 - 55.00","supports":[],"ticketUrl":null,"time":" 7pm"}],"vName":"Odeon Richmond"},"type":"Feature"},{"geometry":{"coordinates":[144.96084,-37.813514],"type":"Point"},"properties":{"events":[{"categories":["Music"],"eDate":"2026-05-22","eName":"Georga Byrne Presents: Gatsby Jazz With A Twist","genre":"Jazz","price":"$45.00","supports":[],"ticketUrl":null,"time":" 6pm"},{"categories":["Music"],"eDate":"2026-05-22","eName":"Chet Baker Reimagined","genre":"Jazz","price":"$45.00","supports":[],"ticketUrl":null,"time":" 6:30pm"},{"categories":["Music"],"eDate":"2026-05-22","eName":"Chet Baker Reimagined","genre":"Jazz","price":"$45.00","supports":[],"ticketUrl":null,"time":" 7:30pm"},{"categories":["Music"],"eDate":"2026-05-22","eName":"Air Mail Special! The Songs of Ella Fitzgerald with Tiana Young","genre":"Jazz","price":"$45.00","supports":[],"ticketUrl":null,"time":" 9pm"},{"categories":["Music"],"eDate":"2026-05-22","eName":"The Hackney Sacks","genre":"Jazz","price":"$45.00","supports":[],"ticketUrl":null,"time":" 9:30pm"}],"vName":"Paris Cat Jazz Club"},"type":"Feature"},{"geometry":{"coordinates":[144.9741326,-37.8619943],"type":"Point"},"properties":{"events":[{"categories":["Music"],"eDate":"2026-05-22","eName":"HUNGAMA: Pre-Exam Party","genre":"Electronic","price":"$29.09 - 34.69","supports":[],"ticketUrl":null,"time":"10pm"}],"vName":"Prince Bandroom"},"type":"Feature"},{"geometry":{"coordinates":[144.9615882,-37.7711432],"type":"Point"},"properties":{"events":[{"categories":["Music"],"eDate":"2026-05-22","eName":"Cycad","genre":null,"price":"$21.00","supports":["Fiasco"," Dirty Gwen"],"ticketUrl":null,"time":" 7pm"}],"vName":"Retreat Hotel"},"type":"Feature"},{"geometry":{"coordinates":[144.993413,-37.8506652],"type":"Point"},"properties":{"events":[{"categories":["Music"],"eDate":"2026-05-22","eName":"Juice x Revolver Fridays","genre":"Electronic","price":"$21.42","supports":[],"ticketUrl":null,"time":"10pm"}],"vName":"Revolver Upstairs"},"type":"Feature"},{"geometry":{"coordinates":[144.9607404,-37.7743469],"type":"Point"},"properties":{"events":[{"categories":["Music"],"eDate":"2026-05-22","eName":"Love Police Present: Daddy Long Legs","genre":"Rock","price":"$51.26","supports":[],"ticketUrl":null,"time":" 7pm"}],"vName":"Stay Gold"},"type":"Feature"},{"geometry":{"coordinates":[144.9708437,-37.7973184],"type":"Point"},"properties":{"events":[{"categories":["Comedy"],"eDate":"2026-05-22","eName":"The Big HOO-HAA!","genre":null,"price":"$30.00","supports":[],"ticketUrl":null,"time":" 8:30pm"}],"vName":"The Motley Bauhaus"},"type":"Feature"},{"geometry":{"coordinates":[144.9794553,-37.7982653],"type":"Point"},"properties":{"events":[{"categories":["Music"],"eDate":"2026-05-22","eName":"Baths","genre":"Electronic","price":"$54.90","supports":[],"ticketUrl":null,"time":" 8pm"},{"categories":["Music"],"eDate":"2026-05-22","eName":"Baths","genre":"Experimental","price":"$54.90","supports":[],"ticketUrl":null,"time":" 8pm"}],"vName":"The Night Cat"},"type":"Feature"},{"geometry":{"coordinates":[145.0011167,-37.754662],"type":"Point"},"properties":{"events":[{"categories":["Music"],"eDate":"2026-05-22","eName":"Cavs","genre":null,"price":"$50.00","supports":["Glyconic"],"ticketUrl":null,"time":" 8pm"}],"vName":"The Thornbury Theatre"},"type":"Feature"},{"geometry":{"coordinates":[144.9661635,-37.8176298],"type":"Point"},"properties":{"events":[{"categories":["Free","Music"],"eDate":"2026-05-22","eName":"Logan Gibson","genre":"Electronic","price":"Free","supports":[],"ticketUrl":null,"time":" 9pm"}],"vName":"Wax Music Lounge"},"type":"Feature"}],"type":"FeatureCollection"}