{"features":[{"geometry":{"coordinates":[144.978682,-37.7981225],"type":"Point"},"properties":{"events":[{"categories":["Free","Music"],"eDate":"2024-09-22","eName":"HH & Sax Gawn","genre":null,"price":"Free","supports":[],"ticketUrl":null,"time":" 9:30pm"},{"categories":["Free","Music"],"eDate":"2024-09-22","eName":"Lewis C","genre":null,"price":"Free","supports":[],"ticketUrl":null,"time":" 9:30pm"}],"vName":"Baxter's Lot"},"type":"Feature"},{"geometry":{"coordinates":[144.9945274,-37.8001115],"type":"Point"},"properties":{"events":[{"categories":["Free","Music","Festival","Dance","Other \"Food & Drink\""],"eDate":"2024-09-22","eName":"Hasta Pronto!: Forró De Chinela + Love to Forro Dance Classes","genre":null,"price":"Free","supports":[],"ticketUrl":null,"time":" 1:30pm"}],"vName":"Bodriggy Brewing Company"},"type":"Feature"},{"geometry":{"coordinates":[144.9875917,-37.7963837],"type":"Point"},"properties":{"events":[{"categories":["Free","Music"],"eDate":"2024-09-22","eName":"Liam Wright & His Band","genre":null,"price":"Free","supports":["Freya Josephine Hollick"],"ticketUrl":null,"time":" 4pm"}],"vName":"Gem Bar"},"type":"Feature"},{"geometry":{"coordinates":[144.9936498,-37.8000264],"type":"Point"},"properties":{"events":[{"categories":["Comedy"],"eDate":"2024-09-22","eName":"Lulie Comedy Club","genre":null,"price":"$15.00","supports":[],"ticketUrl":null,"time":" 7pm"}],"vName":"Lulie Tavern"},"type":"Feature"},{"geometry":{"coordinates":[144.9786817,-37.8671902],"type":"Point"},"properties":{"events":[{"categories":["Music"],"eDate":"2024-09-22","eName":"Charlie Musselwhite","genre":"Blues","price":"$95.00 - 110.00","supports":[],"ticketUrl":null,"time":" 6pm"}],"vName":"Memo Music Hall"},"type":"Feature"},{"geometry":{"coordinates":[145.3553553,-37.9078552],"type":"Point"},"properties":{"events":[{"categories":["Free","Music"],"eDate":"2024-09-22","eName":"John Crosbie","genre":null,"price":"Free","supports":[],"ticketUrl":null,"time":"12pm"}],"vName":"Micawber Tavern"},"type":"Feature"},{"geometry":{"coordinates":[145.0142411,-37.7310367],"type":"Point"},"properties":{"events":[{"categories":["Free","Music"],"eDate":"2024-09-22","eName":"Sunday Sunset Sessions","genre":"Jazz","price":"Free","supports":[],"ticketUrl":null,"time":" 6pm"}],"vName":"Ragtime Tavern"},"type":"Feature"},{"geometry":{"coordinates":[144.9758032,-37.7930866],"type":"Point"},"properties":{"events":[{"categories":["Music"],"eDate":"2024-09-22","eName":"Don Hillman's Secret Beach","genre":"Rock","price":"Free","supports":[],"ticketUrl":null,"time":" 4pm"}],"vName":"Railway Hotel"},"type":"Feature"},{"geometry":{"coordinates":[144.9615882,-37.7711432],"type":"Point"},"properties":{"events":[{"categories":["Free","Music"],"eDate":"2024-09-22","eName":"Low Down Big Band","genre":"Jazz","price":"Free","supports":[],"ticketUrl":null,"time":" 2:30pm"},{"categories":["Music"],"eDate":"2024-09-22","eName":"Buttered Loaf","genre":null,"price":"Free","supports":[],"ticketUrl":null,"time":" 8pm"}],"vName":"Retreat Hotel"},"type":"Feature"},{"geometry":{"coordinates":[144.9631913,-37.7617818],"type":"Point"},"properties":{"events":[{"categories":["Music"],"eDate":"2024-09-22","eName":"Harry Coulson’s Blue Dogs + Bec Jean","genre":"Blues","price":"Free","supports":[],"ticketUrl":null,"time":" 8pm"}],"vName":"Ringo Barr"},"type":"Feature"},{"geometry":{"coordinates":[145.001392343033,-37.75592655],"type":"Point"},"properties":{"events":[{"categories":["Music"],"eDate":"2024-09-22","eName":"Maquina Peligrosa","genre":"Rock","price":"$13.25","supports":["Plastic Section"," Stu Manchu & His Chosen Few"],"ticketUrl":null,"time":" 4pm"}],"vName":"Shotkickers"},"type":"Feature"},{"geometry":{"coordinates":[144.9828155,-37.8567825],"type":"Point"},"properties":{"events":[{"categories":["Music"],"eDate":"2024-09-22","eName":"The Tonalists","genre":null,"price":"Free","supports":[],"ticketUrl":null,"time":" 5pm"}],"vName":"St Kilda Sports Club"},"type":"Feature"},{"geometry":{"coordinates":[144.9830837,-37.7988316],"type":"Point"},"properties":{"events":[{"categories":["Music"],"eDate":"2024-09-22","eName":"Domingo Latino: La Influencia","genre":"Soul/Funk","price":"$29.57 - 39.76","supports":[],"ticketUrl":null,"time":" 6:45pm"}],"vName":"The Night Cat"},"type":"Feature"}],"type":"FeatureCollection"}