{"features":[{"geometry":{"coordinates":[145.0048929,-37.8035316],"type":"Point"},"properties":{"events":[{"categories":["Music"],"eDate":"2025-11-27","eName":"Harmonies Du Soir: Festival of French Chamber Music – Un Cabaret Sérieux","genre":"Classical","price":"$40.00","supports":[],"ticketUrl":null,"time":" 3pm"},{"categories":["Music"],"eDate":"2025-11-27","eName":"Harmonies Du Soir: Festival of French Chamber Music – Guerrelle des bouffons (Rousseau vs. Rameau)","genre":"Classical","price":"$40.00","supports":[],"ticketUrl":null,"time":" 7pm"}],"vName":"Abbotsford Convent"},"type":"Feature"},{"geometry":{"coordinates":[144.9982812,-37.7713296],"type":"Point"},"properties":{"events":[{"categories":["Music"],"eDate":"2025-11-27","eName":"The Shackmen","genre":"Soul/Funk","price":"$20.00","supports":[],"ticketUrl":null,"time":" 9pm"}],"vName":"Bar 303"},"type":"Feature"},{"geometry":{"coordinates":[144.978682,-37.7981225],"type":"Point"},"properties":{"events":[{"categories":["Free","Music"],"eDate":"2025-11-27","eName":"Lewis Ciavarella","genre":null,"price":"Free","supports":[],"ticketUrl":null,"time":" 9pm"}],"vName":"Baxter's Lot"},"type":"Feature"},{"geometry":{"coordinates":[144.9945274,-37.8001115],"type":"Point"},"properties":{"events":[{"categories":["Comedy","Other \"Food \""],"eDate":"2025-11-27","eName":"On The Gags Comedy","genre":null,"price":"$22.00","supports":["more"],"ticketUrl":null,"time":" 7:30pm"},{"categories":["Free","Music","Other \"Food \""],"eDate":"2025-11-27","eName":"Jerry.","genre":null,"price":"Free","supports":[],"ticketUrl":null,"time":" 7:30pm"}],"vName":"Bodriggy Brewing Company"},"type":"Feature"},{"geometry":{"coordinates":[145.0004166,-37.7612582],"type":"Point"},"properties":{"events":[{"categories":["Free","Music"],"eDate":"2025-11-27","eName":"Succulent Thursday","genre":"Indie","price":"Free","supports":["Sunny Morris"," Molly Jane"],"ticketUrl":null,"time":" 7pm"}],"vName":"Cactus Room"},"type":"Feature"},{"geometry":{"coordinates":[144.9951224,-37.8476521],"type":"Point"},"properties":{"events":[{"categories":["Music"],"eDate":"2025-11-27","eName":"The Weeping Willows","genre":"Country/Folk","price":"$35.00","supports":["The Bayside Brothers"],"ticketUrl":null,"time":" 7:30pm"}],"vName":"Chapel Off Chapel"},"type":"Feature"},{"geometry":{"coordinates":[144.9713425,-37.8128595],"type":"Point"},"properties":{"events":[{"categories":["Music"],"eDate":"2025-11-27","eName":"The Crystal Ship live at Cherry Bar","genre":null,"price":"$15.00","supports":["Mou"],"ticketUrl":null,"time":" 8pm"}],"vName":"Cherry Bar"},"type":"Feature"},{"geometry":{"coordinates":[144.9926664,-37.8248893],"type":"Point"},"properties":{"events":[{"categories":["Music"],"eDate":"2025-11-27","eName":"Country Struts: Line Dancing Class & Party","genre":"Country/Folk","price":"$29.10","supports":[],"ticketUrl":null,"time":" 6pm"},{"categories":["Music"],"eDate":"2025-11-27","eName":"Thirsty Merc","genre":"Rock","price":"$56.80","supports":[],"ticketUrl":null,"time":" 7:30pm"}],"vName":"Corner Hotel"},"type":"Feature"},{"geometry":{"coordinates":[144.96904143685853,-37.81799793179876],"type":"Point"},"properties":{"events":[{"categories":["Free","Music"],"eDate":"2025-11-27","eName":"Fed Square Presents Moodymann + DJ JNETT","genre":"Electronic","price":"Free","supports":[],"ticketUrl":null,"time":" 7pm"}],"vName":"Federation Square"},"type":"Feature"},{"geometry":{"coordinates":[144.9693768,-37.8164414],"type":"Point"},"properties":{"events":[{"categories":["Music"],"eDate":"2025-11-27","eName":"Sebastian Bach","genre":"Metal","price":"Free","supports":[],"ticketUrl":null,"time":" 7:30pm"}],"vName":"Forum Melbourne"},"type":"Feature"},{"geometry":{"coordinates":[144.9777885,-37.8597831],"type":"Point"},"properties":{"events":[{"categories":["Music"],"eDate":"2025-11-27","eName":"Jamie MacDowell","genre":"Acoustic","price":"Free","supports":[],"ticketUrl":null,"time":" 7pm"}],"vName":"Freddie Wimpoles"},"type":"Feature"},{"geometry":{"coordinates":[144.9780305,-37.8599731],"type":"Point"},"properties":{"events":[{"categories":["Music"],"eDate":"2025-11-27","eName":"Paris Wells & Finley François","genre":null,"price":"$30.00","supports":[],"ticketUrl":null,"time":" 8pm"}],"vName":"George Lane"},"type":"Feature"},{"geometry":{"coordinates":[144.973013,-37.8640582],"type":"Point"},"properties":{"events":[{"categories":["Free","Music"],"eDate":"2025-11-27","eName":"Flynn Gurry","genre":"Rock","price":"Free","supports":[],"ticketUrl":null,"time":" 7:30pm"}],"vName":"Hotel Esplanade (aka The Espy)"},"type":"Feature"},{"geometry":{"coordinates":[144.9596527,-37.7720304],"type":"Point"},"properties":{"events":[{"categories":["Music"],"eDate":"2025-11-27","eName":"Georgia Knight","genre":"Indie","price":"$28.56","supports":["Uncle Quentin"],"ticketUrl":null,"time":" 7:30pm"}],"vName":"Howler"},"type":"Feature"},{"geometry":{"coordinates":[144.9658499,-37.8147453],"type":"Point"},"properties":{"events":[{"categories":["Music"],"eDate":"2025-11-27","eName":"DOGMA","genre":"Metal","price":"$65.75","supports":[],"ticketUrl":null,"time":" 8pm"}],"vName":"Max Watt's (Melbourne)"},"type":"Feature"},{"geometry":{"coordinates":[144.9675876,-37.8240849],"type":"Point"},"properties":{"events":[{"categories":["Music"],"eDate":"2025-11-27","eName":"MIRRA: Norwegian Tradition Reimagined","genre":"Country/Folk","price":"$55.00","supports":[],"ticketUrl":null,"time":" 6pm"}],"vName":"Melbourne Recital Centre"},"type":"Feature"},{"geometry":{"coordinates":[144.998414,-37.771471],"type":"Point"},"properties":{"events":[{"categories":["Music"],"eDate":"2025-11-27","eName":"Famili Presents: Bloodfire","genre":"Metal","price":"$35.30","supports":["more"],"ticketUrl":null,"time":" 8pm"}],"vName":"Northcote Social Club"},"type":"Feature"},{"geometry":{"coordinates":[144.97711,-37.79833],"type":"Point"},"properties":{"events":[{"categories":["Music"],"eDate":"2025-11-27","eName":"DJ Badger","genre":"Electronic","price":"Free","supports":[],"ticketUrl":null,"time":" 1am"},{"categories":["Music"],"eDate":"2025-11-27","eName":"Good Music presents Cigarettes & Alcohol","genre":"Rock","price":"Free","supports":[],"ticketUrl":null,"time":" 7:30pm"}],"vName":"Old Bar"},"type":"Feature"},{"geometry":{"coordinates":[144.96084,-37.813514],"type":"Point"},"properties":{"events":[{"categories":["Music"],"eDate":"2025-11-27","eName":"Nina Ferro & The Gold Standard","genre":"Jazz","price":"$45.00","supports":[],"ticketUrl":null,"time":" 7:30pm"},{"categories":["Music"],"eDate":"2025-11-27","eName":"Cristina Serafy presents Este Sentimiento: A Night of Latin Jazz","genre":"Jazz","price":"$45.00","supports":[],"ticketUrl":null,"time":" 8pm"}],"vName":"Paris Cat Jazz Club"},"type":"Feature"},{"geometry":{"coordinates":[144.9583409,-37.7664168],"type":"Point"},"properties":{"events":[{"categories":["Music","Other \"Dance \""],"eDate":"2025-11-27","eName":"Country Struts: Line Dancing Class & Party","genre":"Country/Folk","price":"$16.50","supports":[],"ticketUrl":null,"time":" 6pm"}],"vName":"Quadraphonic Club"},"type":"Feature"},{"geometry":{"coordinates":[144.9607404,-37.7743469],"type":"Point"},"properties":{"events":[{"categories":["Music"],"eDate":"2025-11-27","eName":"Temperate","genre":"Rock","price":"$13.98","supports":["Cass Aware"," Laura & The HELL CUTZ"," Star Jock"],"ticketUrl":null,"time":" 7pm"}],"vName":"Stay Gold"},"type":"Feature"},{"geometry":{"coordinates":[144.9770425,-37.8588717],"type":"Point"},"properties":{"events":[{"categories":["Music"],"eDate":"2025-11-27","eName":"Dan & Cyril","genre":"Acoustic","price":"Free","supports":[],"ticketUrl":null,"time":" 8pm"}],"vName":"The Fifth Province"},"type":"Feature"},{"geometry":{"coordinates":[144.9651425,-37.8119429],"type":"Point"},"properties":{"events":[{"categories":["Music"],"eDate":"2025-11-27","eName":"Lotte Gallagher","genre":"Indie","price":"$23.46 - 28.56","supports":[],"ticketUrl":null,"time":" 7:30pm"}],"vName":"The Toff In Town"},"type":"Feature"},{"geometry":{"coordinates":[144.9870814,-37.799406],"type":"Point"},"properties":{"events":[{"categories":["Music"],"eDate":"2025-11-27","eName":"Romanie","genre":null,"price":"$20.00","supports":["Norwood"," Hassall"],"ticketUrl":null,"time":" 7pm"}],"vName":"The Tote Hotel"},"type":"Feature"},{"geometry":{"coordinates":[144.9769451,-37.8055776],"type":"Point"},"properties":{"events":[{"categories":["Music"],"eDate":"2025-11-27","eName":"Lab Rat + Mailey","genre":"Rock","price":"$17.85","supports":["A Study in Red"],"ticketUrl":null,"time":" 7pm"}],"vName":"The Workers Club"},"type":"Feature"},{"geometry":{"coordinates":[144.9984324,-37.7729134],"type":"Point"},"properties":{"events":[{"categories":["Free","Music"],"eDate":"2025-11-27","eName":"Suzie So Blue","genre":null,"price":"Free","supports":[],"ticketUrl":null,"time":" 6pm"},{"categories":["Music"],"eDate":"2025-11-27","eName":"Helen Ryder","genre":"Blues","price":"$23.20","supports":[],"ticketUrl":null,"time":" 8pm"}],"vName":"Wesley Anne"},"type":"Feature"},{"geometry":{"coordinates":[144.9618781,-37.8126316],"type":"Point"},"properties":{"events":[{"categories":["Free","Music"],"eDate":"2025-11-27","eName":"Inner Sanctuary FEAT: DJ JNETT + Jimmy James","genre":null,"price":"Free","supports":[],"ticketUrl":null,"time":" 3pm"}],"vName":"Whitehart Bar"},"type":"Feature"}],"type":"FeatureCollection"}