{"features":[{"geometry":{"coordinates":[144.9679835243618,-37.8201575],"type":"Point"},"properties":{"events":[{"categories":["Music"],"eDate":"2024-01-06","eName":"The Choir of Man (Matinee Session)","genre":"Acoustic","price":"$89.90","supports":[],"ticketUrl":null,"time":" 3:30pm"}],"vName":"Arts Centre Melbourne"},"type":"Feature"},{"geometry":{"coordinates":[144.978425,-37.79773],"type":"Point"},"properties":{"events":[{"categories":["Music"],"eDate":"2024-01-06","eName":"Zen Monkee","genre":"Rock","price":"$20.00","supports":["The Refuge"," Tax Evaders"],"ticketUrl":null,"time":" 8:30pm"}],"vName":"Bar Open"},"type":"Feature"},{"geometry":{"coordinates":[144.9617018,-37.7704566],"type":"Point"},"properties":{"events":[{"categories":["Music"],"eDate":"2024-01-06","eName":"Brave New World","genre":"Rock","price":"$38.86","supports":["Cass Brock"," Uncle Umma"],"ticketUrl":null,"time":" 6:30pm"}],"vName":"Brunswick Ballroom"},"type":"Feature"},{"geometry":{"coordinates":[144.9875917,-37.7963837],"type":"Point"},"properties":{"events":[{"categories":["Free","Music"],"eDate":"2024-01-06","eName":"FELONY.","genre":"Pop","price":"Free","supports":[],"ticketUrl":null,"time":" 4pm"},{"categories":["Free","Music"],"eDate":"2024-01-06","eName":"Hank Williams Tribute","genre":"Country/Folk","price":"Free","supports":[],"ticketUrl":null,"time":" 8pm"}],"vName":"Gem Bar"},"type":"Feature"},{"geometry":{"coordinates":[144.9712356,-37.812902],"type":"Point"},"properties":{"events":[{"categories":["Comedy"],"eDate":"2024-01-06","eName":"Basement Comedy Club Saturdays","genre":null,"price":"$23.00","supports":[],"ticketUrl":null,"time":" 8pm"}],"vName":"Morris House"},"type":"Feature"},{"geometry":{"coordinates":[144.998414,-37.771471],"type":"Point"},"properties":{"events":[{"categories":["Music"],"eDate":"2024-01-06","eName":"Willie J & The Bad Books","genre":"Country/Folk","price":"$24.00","supports":["The Stripp"," Bill Barber & The Holding Cell"," Entertainment Unit"],"ticketUrl":null,"time":" 8pm"}],"vName":"Northcote Social Club"},"type":"Feature"},{"geometry":{"coordinates":[144.9706095,-37.7783326],"type":"Point"},"properties":{"events":[{"categories":["Free","Music"],"eDate":"2024-01-06","eName":"Sin City","genre":"Country/Folk","price":"Free","supports":["Wild Mountain Dogs"," Dillon Feeney"],"ticketUrl":null,"time":" 8pm"}],"vName":"The Beast"},"type":"Feature"},{"geometry":{"coordinates":[144.960725,-37.7762687],"type":"Point"},"properties":{"events":[{"categories":["Music"],"eDate":"2024-01-06","eName":"Nicholas Ellerby","genre":null,"price":"Free","supports":["Cammi Kol"," Daisy Kilbourne"],"ticketUrl":null,"time":" 5pm"}],"vName":"The Bergy Seltzer"},"type":"Feature"},{"geometry":{"coordinates":[144.9657057,-37.8061581],"type":"Point"},"properties":{"events":[{"categories":["Music"],"eDate":"2024-01-06","eName":"Gee Tee","genre":null,"price":"$27.95","supports":["Alien Nosejob"," Autobahns"],"ticketUrl":null,"time":" 8:30pm"}],"vName":"The Curtin"},"type":"Feature"},{"geometry":{"coordinates":[144.9830837,-37.7988316],"type":"Point"},"properties":{"events":[{"categories":["Music"],"eDate":"2024-01-06","eName":"Beyonce Renaissance Album Party","genre":"Pop","price":"$23.25","supports":[],"ticketUrl":null,"time":"11pm"}],"vName":"The Night Cat"},"type":"Feature"},{"geometry":{"coordinates":[144.9846126,-37.7989941],"type":"Point"},"properties":{"events":[{"categories":["Free","Music"],"eDate":"2024-01-06","eName":"Bodies + Affordable Payments","genre":"Rock","price":"Free","supports":[],"ticketUrl":null,"time":" 3pm"},{"categories":["Music"],"eDate":"2024-01-06","eName":"Full Flower Moon Band","genre":"Rock","price":"$34.20","supports":["Jeane"," Goutlaw"],"ticketUrl":null,"time":" 8pm"},{"categories":["Music"],"eDate":"2024-01-06","eName":"Altars","genre":"Metal","price":"$11.25","supports":["Diploid"," Bitumen"," Too Birds"],"ticketUrl":null,"time":" 8:30pm"}],"vName":"The Tote Hotel"},"type":"Feature"}],"type":"FeatureCollection"}