{"features":[{"geometry":{"coordinates":[144.9715791,-37.8140656],"type":"Point"},"properties":{"events":[{"categories":["Music","Theatre"],"eDate":"2024-01-21","eName":"Dog Man: The Musical","genre":null,"price":"$39.50","supports":[],"ticketUrl":null,"time":" 1pm"},{"categories":["Music","Theatre"],"eDate":"2024-01-21","eName":"Dog Man: The Musical","genre":null,"price":"$39.50","supports":[],"ticketUrl":null,"time":" 4pm"}],"vName":"Athenaeum Theatre"},"type":"Feature"},{"geometry":{"coordinates":[144.978425,-37.79773],"type":"Point"},"properties":{"events":[{"categories":["Free","Music"],"eDate":"2024-01-21","eName":"Evan Carydakis","genre":"Jazz","price":"Free","supports":[],"ticketUrl":null,"time":" 5:30pm"}],"vName":"Bar Open"},"type":"Feature"},{"geometry":{"coordinates":[144.9945274,-37.8001115],"type":"Point"},"properties":{"events":[{"categories":["Free","Music","Other \"Food & Drink\""],"eDate":"2024-01-21","eName":"Ausecuma Beats: Sundays In January Residency","genre":"Electronic","price":"Free","supports":["Kgomotso"," Asha Franco"],"ticketUrl":null,"time":" 2pm"}],"vName":"Bodriggy Brewing Company"},"type":"Feature"},{"geometry":{"coordinates":[144.9617018,-37.7704566],"type":"Point"},"properties":{"events":[{"categories":["Free","Music"],"eDate":"2024-01-21","eName":"chEEsEs + Denim Owl","genre":"Indie","price":"Free","supports":[],"ticketUrl":null,"time":" 4:30pm"}],"vName":"Brunswick Artists' Bar"},"type":"Feature"},{"geometry":{"coordinates":[144.9617018,-37.7704566],"type":"Point"},"properties":{"events":[{"categories":["Music"],"eDate":"2024-01-21","eName":"Brunswick Beach Party 2","genre":null,"price":"$41.92","supports":[],"ticketUrl":null,"time":" 4:30pm"}],"vName":"Brunswick Ballroom"},"type":"Feature"},{"geometry":{"coordinates":[144.9745581,-37.7694446],"type":"Point"},"properties":{"events":[{"categories":["Music"],"eDate":"2024-01-21","eName":"Moreland City Soul Revue","genre":null,"price":"$25.00 - 30.00","supports":["Buttered Loaf"," King Canoe"],"ticketUrl":null,"time":" 4pm"}],"vName":"Cross Street Music Hall"},"type":"Feature"},{"geometry":{"coordinates":[144.9628440552175,-37.76100605],"type":"Point"},"properties":{"events":[{"categories":["Music"],"eDate":"2024-01-21","eName":"Christine Manetta Trio","genre":"Jazz","price":"Free","supports":[],"ticketUrl":null,"time":" 4pm"}],"vName":"Edinburgh Castle Hotel"},"type":"Feature"},{"geometry":{"coordinates":[144.9875917,-37.7963837],"type":"Point"},"properties":{"events":[{"categories":["Free","Music"],"eDate":"2024-01-21","eName":"Ghoulies","genre":"Punk","price":"Free","supports":["The Brakes"," Lothario"," Pleasants"],"ticketUrl":null,"time":" 4pm"}],"vName":"Gem Bar"},"type":"Feature"},{"geometry":{"coordinates":[144.9936498,-37.8000264],"type":"Point"},"properties":{"events":[{"categories":["Free","Music"],"eDate":"2024-01-21","eName":"Baby Velvet","genre":"Indie","price":"Free","supports":[],"ticketUrl":null,"time":" 5pm"}],"vName":"Lulie Tavern"},"type":"Feature"},{"geometry":{"coordinates":[144.8971518,-37.8054274],"type":"Point"},"properties":{"events":[{"categories":["Free","Music"],"eDate":"2024-01-21","eName":"Melbourne Chiptune Academy: Meet-Up & Open Mic","genre":null,"price":"Free","supports":[],"ticketUrl":null,"time":" 6pm"}],"vName":"Mamma Chen's"},"type":"Feature"},{"geometry":{"coordinates":[145.3553553,-37.9078552],"type":"Point"},"properties":{"events":[{"categories":["Free","Music"],"eDate":"2024-01-21","eName":"Shea Laoise","genre":null,"price":"Free","supports":[],"ticketUrl":null,"time":" 1pm"}],"vName":"Micawber Tavern"},"type":"Feature"},{"geometry":{"coordinates":[144.96892412239615,-37.82266345],"type":"Point"},"properties":{"events":[{"categories":["Free","Music"],"eDate":"2024-01-21","eName":"NGV Triennial: Adriana (DJ Set)","genre":"Electronic","price":"Free","supports":[],"ticketUrl":null,"time":" 9pm"}],"vName":"NGV - National Gallery of Victoria"},"type":"Feature"},{"geometry":{"coordinates":[145.0142411,-37.7310367],"type":"Point"},"properties":{"events":[{"categories":["Free","Music"],"eDate":"2024-01-21","eName":"Sunday Sunset Sessions","genre":"Jazz","price":"Free","supports":[],"ticketUrl":null,"time":" 6pm"}],"vName":"Ragtime Tavern"},"type":"Feature"},{"geometry":{"coordinates":[144.9615882,-37.7711432],"type":"Point"},"properties":{"events":[{"categories":["Free","Music"],"eDate":"2024-01-21","eName":"Duncan Graham & Jan Palethorpe","genre":"Acoustic","price":"Free","supports":[],"ticketUrl":null,"time":" 2:30pm"}],"vName":"Retreat Hotel"},"type":"Feature"},{"geometry":{"coordinates":[144.9631913,-37.7617818],"type":"Point"},"properties":{"events":[{"categories":["Free","Music"],"eDate":"2024-01-21","eName":"State of Affairs + Bradlee Jay","genre":"Indie","price":"Free","supports":[],"ticketUrl":null,"time":" 2:30pm"},{"categories":["Music"],"eDate":"2024-01-21","eName":"Bad News Gospel + Izzy Summers + Molly McKew","genre":"Indie","price":"$10.00","supports":[],"ticketUrl":null,"time":" 8pm"}],"vName":"Ringo Barr"},"type":"Feature"},{"geometry":{"coordinates":[144.9830837,-37.7988316],"type":"Point"},"properties":{"events":[{"categories":["Music"],"eDate":"2024-01-21","eName":"Domingo Latino: El Bembe Orchestra","genre":"Soul/Funk","price":"$34.56","supports":[],"ticketUrl":null,"time":" 6:45pm"}],"vName":"The Night Cat"},"type":"Feature"},{"geometry":{"coordinates":[144.99987967655426,-37.76165125],"type":"Point"},"properties":{"events":[{"categories":["Music"],"eDate":"2024-01-21","eName":"Keynes Brothers","genre":"Acoustic","price":"Free","supports":[],"ticketUrl":null,"time":" 5pm"}],"vName":"The Thornbury Local"},"type":"Feature"},{"geometry":{"coordinates":[144.9846126,-37.7989941],"type":"Point"},"properties":{"events":[{"categories":["Music"],"eDate":"2024-01-21","eName":"ZEKE","genre":"Jazz","price":"$44.40","supports":["Batpiss"," Vicious Blonde"],"ticketUrl":null,"time":" 6pm"}],"vName":"The Tote Hotel"},"type":"Feature"},{"geometry":{"coordinates":[144.9618426,-37.8125531],"type":"Point"},"properties":{"events":[{"categories":["Free","Music","Other \"Food & Drink\""],"eDate":"2024-01-21","eName":"Tropicombo","genre":null,"price":"Free","supports":[],"ticketUrl":null,"time":" 3pm"}],"vName":"Whitehart Bar"},"type":"Feature"}],"type":"FeatureCollection"}