{"features":[{"geometry":{"coordinates":[144.9679835243618,-37.8201575],"type":"Point"},"properties":{"events":[{"categories":["Theatre"],"eDate":"2024-04-28","eName":"A Midsummer Night's Dream","genre":null,"price":"$40.00 - 110.00","supports":[],"ticketUrl":null,"time":" 4pm"}],"vName":"Arts Centre Melbourne"},"type":"Feature"},{"geometry":{"coordinates":[144.9763781,-37.7983136],"type":"Point"},"properties":{"events":[{"categories":["Music"],"eDate":"2024-04-28","eName":"Sunday Comedown","genre":null,"price":"$11.36","supports":[],"ticketUrl":null,"time":" 7:30pm"}],"vName":"Bad Decisions Bar"},"type":"Feature"},{"geometry":{"coordinates":[144.978425,-37.79773],"type":"Point"},"properties":{"events":[{"categories":["Free","Music"],"eDate":"2024-04-28","eName":"Szara Fox & The Midnight Secret","genre":"Jazz","price":"Free","supports":[],"ticketUrl":null,"time":" 5:30pm"}],"vName":"Bar Open"},"type":"Feature"},{"geometry":{"coordinates":[144.9607158,-37.776327],"type":"Point"},"properties":{"events":[{"categories":["Music"],"eDate":"2024-04-28","eName":"Elle Murphy & Hattie Oates","genre":"Pop","price":"$16.85","supports":["Ally Rendall"],"ticketUrl":null,"time":" 7pm"}],"vName":"Bergy Bandroom"},"type":"Feature"},{"geometry":{"coordinates":[144.9945274,-37.8001115],"type":"Point"},"properties":{"events":[{"categories":["Free","Music","Other \"Food & Drink\""],"eDate":"2024-04-28","eName":"Bodriggy Bootscootin' with The Country & Western Ramblers","genre":null,"price":"Free","supports":[],"ticketUrl":null,"time":" 6pm"}],"vName":"Bodriggy Brewing Company"},"type":"Feature"},{"geometry":{"coordinates":[145.299149,-38.0198687],"type":"Point"},"properties":{"events":[{"categories":["Theatre"],"eDate":"2024-04-28","eName":"Spellbound","genre":null,"price":"$59.90 - 79.90","supports":[],"ticketUrl":null,"time":" 7:30pm"}],"vName":"Bunjil Place"},"type":"Feature"},{"geometry":{"coordinates":[144.9980448484126,-37.74553004870929],"type":"Point"},"properties":{"events":[{"categories":["Theatre"],"eDate":"2024-04-28","eName":"Peacemongers by The People","genre":null,"price":"$53.00","supports":[],"ticketUrl":null,"time":" 5pm"}],"vName":"Darebin Arts & Entertainment Centre"},"type":"Feature"},{"geometry":{"coordinates":[144.9764962,-37.7983139],"type":"Point"},"properties":{"events":[{"categories":["Music"],"eDate":"2024-04-28","eName":"Lil Lotus","genre":null,"price":"$26.55","supports":["Besties"],"ticketUrl":null,"time":" 7pm"}],"vName":"Laundry Bar"},"type":"Feature"},{"geometry":{"coordinates":[145.3553553,-37.9078552],"type":"Point"},"properties":{"events":[{"categories":["Free","Music"],"eDate":"2024-04-28","eName":"James Harvey","genre":null,"price":"Free","supports":[],"ticketUrl":null,"time":" 1pm"}],"vName":"Micawber Tavern"},"type":"Feature"},{"geometry":{"coordinates":[144.998414,-37.771471],"type":"Point"},"properties":{"events":[{"categories":["Music"],"eDate":"2024-04-28","eName":"Super Terrific Happy Hour Festival (Matinee)","genre":"Punk","price":"$55.00","supports":["more"],"ticketUrl":null,"time":" 1:30pm"}],"vName":"Northcote Social Club"},"type":"Feature"},{"geometry":{"coordinates":[144.97711,-37.79833],"type":"Point"},"properties":{"events":[{"categories":["Music"],"eDate":"2024-04-28","eName":"Maxine Gillon: Old Bar Residency","genre":"Indie","price":"$10.00","supports":["Ricky Albeck"],"ticketUrl":null,"time":" 7pm"}],"vName":"Old Bar"},"type":"Feature"},{"geometry":{"coordinates":[145.0142411,-37.7310367],"type":"Point"},"properties":{"events":[{"categories":["Free","Music"],"eDate":"2024-04-28","eName":"Sunday Sunset Sessions","genre":"Jazz","price":"Free","supports":[],"ticketUrl":null,"time":" 6pm"}],"vName":"Ragtime Tavern"},"type":"Feature"},{"geometry":{"coordinates":[144.9968036,-37.7794807],"type":"Point"},"properties":{"events":[{"categories":["Music"],"eDate":"2024-04-28","eName":"BATTS: April Residency","genre":"Indie","price":"$15.00","supports":["Jim Lawrie"],"ticketUrl":null,"time":" 5pm"}],"vName":"The Merri Creek Tavern"},"type":"Feature"},{"geometry":{"coordinates":[144.9846126,-37.7989941],"type":"Point"},"properties":{"events":[{"categories":["Music"],"eDate":"2024-04-28","eName":"THE BIG BIRTHDAY BASH (Vol. 2): Punk + Live Reptiles","genre":"Punk","price":"$23.50","supports":["more"],"ticketUrl":null,"time":" 6pm"}],"vName":"The Tote Hotel"},"type":"Feature"},{"geometry":{"coordinates":[144.9983987,-37.7729204],"type":"Point"},"properties":{"events":[{"categories":["Music"],"eDate":"2024-04-28","eName":"The Michael J Brady Trio","genre":null,"price":"$20.00 - 25.00","supports":["Stella Anning"],"ticketUrl":null,"time":" 3pm"}],"vName":"Wesley Anne"},"type":"Feature"}],"type":"FeatureCollection"}