{"features":[{"geometry":{"coordinates":[144.353924,-38.1629265],"type":"Point"},"properties":{"events":[{"categories":["Music"],"eDate":"2026-06-07","eName":"Pie Night","genre":"Rock","price":"$25.00","supports":["Blood Sucking Freaks"," Poppin Mommas"," Sacramento Sweaters"],"ticketUrl":null,"time":" 4pm"}],"vName":"Barwon Club Hotel"},"type":"Feature"},{"geometry":{"coordinates":[144.978682,-37.7981225],"type":"Point"},"properties":{"events":[{"categories":["Music","Free"],"eDate":"2026-06-07","eName":"Baxter’s Open Mic","genre":null,"price":"Free","supports":[],"ticketUrl":null,"time":" 6pm"},{"categories":["Free","Music"],"eDate":"2026-06-07","eName":"Sunday Service","genre":null,"price":"Free","supports":[],"ticketUrl":null,"time":" 9pm"}],"vName":"Baxter's Lot"},"type":"Feature"},{"geometry":{"coordinates":[144.9501312,-37.8042459],"type":"Point"},"properties":{"events":[{"categories":["Comedy"],"eDate":"2026-06-07","eName":"Sunday Night Comedy","genre":null,"price":"$10.00","supports":[],"ticketUrl":null,"time":" 7:30pm"}],"vName":"Club Voltaire"},"type":"Feature"},{"geometry":{"coordinates":[144.9655685,-37.7459437],"type":"Point"},"properties":{"events":[{"categories":["Music"],"eDate":"2026-06-07","eName":"Sunday Sesh with Sticky Carpet","genre":"Rock","price":"Free","supports":[],"ticketUrl":null,"time":" 3pm"}],"vName":"Coburg RSL Club"},"type":"Feature"},{"geometry":{"coordinates":[144.9895284,-37.7993224],"type":"Point"},"properties":{"events":[{"categories":["Music"],"eDate":"2026-06-07","eName":"HUGERNAUT","genre":null,"price":"$15.00","supports":["Ruby & The Tuesdays"," Tirzah Vision"],"ticketUrl":null,"time":" 4pm"}],"vName":"Nighthawks"},"type":"Feature"},{"geometry":{"coordinates":[144.9463641,-37.8047757],"type":"Point"},"properties":{"events":[{"categories":["Music"],"eDate":"2026-06-07","eName":"Sunday Roast: The Bennies","genre":"Punk","price":"$28.60","supports":["The Maggie Pills"," Dole Manchild"],"ticketUrl":null,"time":" 7pm"}],"vName":"The Last Chance Rock & Roll Bar"},"type":"Feature"},{"geometry":{"coordinates":[144.996838,-37.7794356],"type":"Point"},"properties":{"events":[{"categories":["Music"],"eDate":"2026-06-07","eName":"The Droptails + Sunshine Tip","genre":null,"price":"$15.00","supports":[],"ticketUrl":null,"time":" 5pm"}],"vName":"The Merri Creek Tavern"},"type":"Feature"}],"type":"FeatureCollection"}