{"features":[{"geometry":{"coordinates":[145.0048929,-37.8035316],"type":"Point"},"properties":{"events":[{"categories":["Music"],"eDate":"2026-07-12","eName":"WinterLIVE: Lucrecia Dalt","genre":"Experimental","price":"$30.00 - 49.00","supports":[],"ticketUrl":null,"time":" 5pm"}],"vName":"Abbotsford Convent"},"type":"Feature"},{"geometry":{"coordinates":[144.9679835,-37.8201575],"type":"Point"},"properties":{"events":[{"categories":["Theatre"],"eDate":"2026-07-12","eName":"Eddie Izzard performs Shakespeare’s Hamlet","genre":null,"price":"$79.90","supports":[],"ticketUrl":null,"time":" 4pm"}],"vName":"Arts Centre Melbourne"},"type":"Feature"},{"geometry":{"coordinates":[144.978682,-37.7981225],"type":"Point"},"properties":{"events":[{"categories":["Music","Free"],"eDate":"2026-07-12","eName":"Finn Shine","genre":null,"price":"Free","supports":[],"ticketUrl":null,"time":" 9pm"}],"vName":"Baxter's Lot"},"type":"Feature"},{"geometry":{"coordinates":[144.9945274,-37.8001115],"type":"Point"},"properties":{"events":[{"categories":["Other \"Food \"","Music","Free"],"eDate":"2026-07-12","eName":"Sweet Coco Quintet","genre":null,"price":"Free","supports":["Kunataki"," Karina Lehman"," DJ Par-Cé"],"ticketUrl":null,"time":" 3pm"}],"vName":"Bodriggy Brewing Company"},"type":"Feature"},{"geometry":{"coordinates":[144.9617083,-37.7704205],"type":"Point"},"properties":{"events":[{"categories":["Music"],"eDate":"2026-07-12","eName":"Xmas In July: Lucy Gale & The LG Project","genre":"Soul/Funk","price":"$57.63","supports":[],"ticketUrl":null,"time":" 1pm"}],"vName":"Brunswick Artists' Bar"},"type":"Feature"},{"geometry":{"coordinates":[144.9926664,-37.8248893],"type":"Point"},"properties":{"events":[{"categories":["Music"],"eDate":"2026-07-12","eName":"Ben Kweller","genre":"Indie","price":"$74.90","supports":["Super Hotel"],"ticketUrl":null,"time":" 7pm"}],"vName":"Corner Hotel"},"type":"Feature"},{"geometry":{"coordinates":[144.9627513,-37.760963],"type":"Point"},"properties":{"events":[{"categories":["Music"],"eDate":"2026-07-12","eName":"Gabriel Vargas","genre":"Indie","price":"Free","supports":[],"ticketUrl":null,"time":" 4pm"}],"vName":"Edinburgh Castle Hotel"},"type":"Feature"},{"geometry":{"coordinates":[144.9777885,-37.8597831],"type":"Point"},"properties":{"events":[{"categories":["Music"],"eDate":"2026-07-12","eName":"Cliff Raux","genre":"Acoustic","price":"Free","supports":[],"ticketUrl":null,"time":" 6pm"}],"vName":"Freddie Wimpoles"},"type":"Feature"},{"geometry":{"coordinates":[144.9875792,-37.7963739],"type":"Point"},"properties":{"events":[{"categories":["Free","Music"],"eDate":"2026-07-12","eName":"Another Rotting Corpse","genre":"Punk","price":"Free","supports":["Vague Rituals"," Snub"," Impostering"],"ticketUrl":null,"time":" 3pm"}],"vName":"Gem Bar"},"type":"Feature"},{"geometry":{"coordinates":[144.97609011199125,-37.867583041643705],"type":"Point"},"properties":{"events":[{"categories":["Other \"Spoken Word, Poetry \"","Comedy"],"eDate":"2026-07-12","eName":"Abbie Chatfield: Abbie Chatfield Loves Men","genre":null,"price":"Free","supports":[],"ticketUrl":null,"time":" 7pm"}],"vName":"Palais Theatre"},"type":"Feature"},{"geometry":{"coordinates":[145.1818891,-37.8163371],"type":"Point"},"properties":{"events":[{"categories":["Music"],"eDate":"2026-07-12","eName":"Vika & Linda: Where Do You Come From?","genre":"Soul/Funk","price":"$89.00","supports":[],"ticketUrl":null,"time":" 4pm"}],"vName":"The Round"},"type":"Feature"},{"geometry":{"coordinates":[144.9998797,-37.7616512],"type":"Point"},"properties":{"events":[{"categories":["Music"],"eDate":"2026-07-12","eName":"Thom Johnston","genre":"Indie","price":"Free","supports":[],"ticketUrl":null,"time":" 5pm"}],"vName":"The Thornbury Local"},"type":"Feature"},{"geometry":{"coordinates":[144.9661635,-37.8176298],"type":"Point"},"properties":{"events":[{"categories":["Music","Free"],"eDate":"2026-07-12","eName":"Brainwaves: Laisa","genre":"Jazz","price":"$16.45","supports":["DJ El Fuentes"],"ticketUrl":null,"time":" 7pm"}],"vName":"Wax Music Lounge"},"type":"Feature"}],"type":"FeatureCollection"}