{"features":[{"geometry":{"coordinates":[144.978425,-37.79773],"type":"Point"},"properties":{"events":[{"categories":["Music"],"eDate":"2024-04-24","eName":"Anocht & Mvrk SVD","genre":null,"price":"$13.80","supports":["Alloxylon"," Caustic Grip"," Muddy Lawrence"],"ticketUrl":null,"time":" 8:30pm"}],"vName":"Bar Open"},"type":"Feature"},{"geometry":{"coordinates":[144.9607158,-37.776327],"type":"Point"},"properties":{"events":[{"categories":["Music"],"eDate":"2024-04-24","eName":"Karina Lehman Quartet","genre":null,"price":"$20.00","supports":["G_Tano"," DJ Coterra"],"ticketUrl":null,"time":" 8pm"}],"vName":"Bergy Bandroom"},"type":"Feature"},{"geometry":{"coordinates":[145.00041662186553,-37.76125825],"type":"Point"},"properties":{"events":[{"categories":["Music"],"eDate":"2024-04-24","eName":"PSI PHI","genre":null,"price":"$10.00 - 15.00","supports":["The Sun Is A Deadly Laser"," Fabulous Contraption"," Skin Thief"],"ticketUrl":null,"time":" 7pm"}],"vName":"Cactus Room"},"type":"Feature"},{"geometry":{"coordinates":[144.9980448484126,-37.74553004870929],"type":"Point"},"properties":{"events":[{"categories":["Theatre"],"eDate":"2024-04-24","eName":"Peacemongers by The People","genre":null,"price":"$53.00","supports":[],"ticketUrl":null,"time":" 7pm"}],"vName":"Darebin Arts & Entertainment Centre"},"type":"Feature"},{"geometry":{"coordinates":[144.998414,-37.771471],"type":"Point"},"properties":{"events":[{"categories":["Music"],"eDate":"2024-04-24","eName":"Seth Sentry","genre":"Hip Hop","price":"$56.80","supports":[],"ticketUrl":null,"time":" 7:30pm"}],"vName":"Northcote Social Club"},"type":"Feature"},{"geometry":{"coordinates":[145.13337431967784,-37.91372355],"type":"Point"},"properties":{"events":[{"categories":["Music"],"eDate":"2024-04-24","eName":"Live at The Counts: Three Shadows of Blue: Doug deVries & Diana Clark","genre":"Jazz","price":"$10.00 - 25.00","supports":[],"ticketUrl":null,"time":" 7:30pm"}],"vName":"The Ian Potter Centre for Performing Arts"},"type":"Feature"},{"geometry":{"coordinates":[144.9846126,-37.7989941],"type":"Point"},"properties":{"events":[{"categories":["Music"],"eDate":"2024-04-24","eName":"Jet Boys","genre":"Punk","price":"$39.30","supports":[],"ticketUrl":null,"time":" 7pm"},{"categories":["Music"],"eDate":"2024-04-24","eName":"Coolabah Kings","genre":"Rock","price":"$13.80","supports":["Bitch Eyes"," Scud"," World's Best Neighbours"],"ticketUrl":null,"time":" 7:30pm"}],"vName":"The Tote Hotel"},"type":"Feature"}],"type":"FeatureCollection"}