{"features":[{"geometry":{"coordinates":[144.9715791,-37.8140656],"type":"Point"},"properties":{"events":[{"categories":["Theatre"],"eDate":"2024-06-29","eName":"The Woman in Black (Matinee)","genre":null,"price":"$55.00 - 129.00","supports":[],"ticketUrl":null,"time":" 2pm"},{"categories":["Theatre"],"eDate":"2024-06-29","eName":"The Woman in Black","genre":null,"price":"$55.00 - 129.00","supports":[],"ticketUrl":null,"time":" 7:30pm"}],"vName":"Athenaeum Theatre"},"type":"Feature"},{"geometry":{"coordinates":[144.978425,-37.79773],"type":"Point"},"properties":{"events":[{"categories":["Music"],"eDate":"2024-06-29","eName":"Slow Grind 70s","genre":"Soul/Funk","price":"$15.00","supports":["Indigo Blue"],"ticketUrl":null,"time":" 9pm"}],"vName":"Bar Open"},"type":"Feature"},{"geometry":{"coordinates":[144.9617018,-37.7704566],"type":"Point"},"properties":{"events":[{"categories":["Music"],"eDate":"2024-06-29","eName":"Neil Young's 'On The Beach' 50th Anniversary Celebration (Matinee)","genre":"Rock","price":"$43.96","supports":[],"ticketUrl":null,"time":" 3pm"},{"categories":["Music"],"eDate":"2024-06-29","eName":"Neil Young's 'On The Beach' 50th Anniversary Celebration","genre":"Rock","price":"$43.96","supports":[],"ticketUrl":null,"time":" 8pm"}],"vName":"Brunswick Ballroom"},"type":"Feature"},{"geometry":{"coordinates":[144.9248037207342,-37.7656716],"type":"Point"},"properties":{"events":[{"categories":["Theatre"],"eDate":"2024-06-29","eName":"The 13-Storey Treehouse","genre":null,"price":"$40.00","supports":[],"ticketUrl":null,"time":" 3pm"}],"vName":"Clocktower Centre"},"type":"Feature"},{"geometry":{"coordinates":[144.99266639479475,-37.82488935],"type":"Point"},"properties":{"events":[{"categories":["Music"],"eDate":"2024-06-29","eName":"Good Neighbours","genre":"Rock","price":"$45.80","supports":[],"ticketUrl":null,"time":" 8:30pm"}],"vName":"Corner Hotel"},"type":"Feature"},{"geometry":{"coordinates":[144.96947,-37.816565],"type":"Point"},"properties":{"events":[{"categories":["Music"],"eDate":"2024-06-29","eName":"The Dreggs","genre":"Country/Folk","price":"$59.90","supports":["Graace"," This New Light"],"ticketUrl":null,"time":" 7pm"}],"vName":"Forum Melbourne"},"type":"Feature"},{"geometry":{"coordinates":[144.8971518,-37.8054274],"type":"Point"},"properties":{"events":[{"categories":["Free","Music","Comedy","Dance","Other \"Spoken Word\"","Other \"Poetry & Forums\"","Other \"Cabaret\""],"eDate":"2024-06-29","eName":"CARABINERS XL: Fundraiser for Ruaa & Her Family Fleeing Gaza","genre":"Pop","price":"$0.00 - 50.00","supports":[],"ticketUrl":null,"time":" 6pm"}],"vName":"Mamma Chen's"},"type":"Feature"},{"geometry":{"coordinates":[144.9659879,-37.8147557],"type":"Point"},"properties":{"events":[{"categories":["Music"],"eDate":"2024-06-29","eName":"Absolute Bowie","genre":"Rock","price":"$59.90","supports":[],"ticketUrl":null,"time":" 8pm"}],"vName":"Max Watt's (Melbourne)"},"type":"Feature"},{"geometry":{"coordinates":[144.9605705,-37.8132486],"type":"Point"},"properties":{"events":[{"categories":["Music"],"eDate":"2024-06-29","eName":"Georgia Brooks Swingtet","genre":"Jazz","price":"$45.00","supports":[],"ticketUrl":null,"time":" 8:30pm"}],"vName":"Paris Cat Jazz Club"},"type":"Feature"},{"geometry":{"coordinates":[144.9615882,-37.7711432],"type":"Point"},"properties":{"events":[{"categories":["Free","Music"],"eDate":"2024-06-29","eName":"Girl Friday & The Sepia Tones","genre":"Indie","price":"Free","supports":["Samara Cullen"],"ticketUrl":null,"time":" 2:30pm"},{"categories":["Music"],"eDate":"2024-06-29","eName":"Topnovil + No Idea","genre":"Punk","price":"$17.50 - 22.50","supports":["Strawberry Fist Cake"," Radio Rejects"],"ticketUrl":null,"time":" 7:30pm"}],"vName":"Retreat Hotel"},"type":"Feature"},{"geometry":{"coordinates":[144.9631913,-37.7617818],"type":"Point"},"properties":{"events":[{"categories":["Music"],"eDate":"2024-06-29","eName":"Vinnyrn + Demo Disk","genre":"Indie","price":"$15.00","supports":[],"ticketUrl":null,"time":" 8pm"}],"vName":"Ringo Barr"},"type":"Feature"},{"geometry":{"coordinates":[145.001392343033,-37.75592655],"type":"Point"},"properties":{"events":[{"categories":["Music"],"eDate":"2024-06-29","eName":"Bob Log III","genre":"Rock","price":"$18.35","supports":["The Salmon Sisters"," Bob Brat"],"ticketUrl":null,"time":" 7:30pm"}],"vName":"Shotkickers"},"type":"Feature"},{"geometry":{"coordinates":[144.9607404,-37.7743469],"type":"Point"},"properties":{"events":[{"categories":["Music"],"eDate":"2024-06-29","eName":"No Money Enterprise","genre":"Hip Hop","price":"$39.79","supports":["Heists"," Crave Death"," Bitter Kind"],"ticketUrl":null,"time":" 7pm"},{"categories":["Music"],"eDate":"2024-06-29","eName":"On Repeat: Twenty One Pilots Night","genre":"Indie","price":"$14.30 - 22.00","supports":[],"ticketUrl":null,"time":"11pm"}],"vName":"Stay Gold"},"type":"Feature"},{"geometry":{"coordinates":[144.9706095,-37.7783326],"type":"Point"},"properties":{"events":[{"categories":["Free","Music"],"eDate":"2024-06-29","eName":"Slim Krusty","genre":"Rock","price":"Free","supports":[],"ticketUrl":null,"time":" 9:30pm"}],"vName":"The Beast"},"type":"Feature"},{"geometry":{"coordinates":[144.99959550357977,-37.762376950000004],"type":"Point"},"properties":{"events":[{"categories":["Music"],"eDate":"2024-06-29","eName":"The Angels: 50 Not Out","genre":"Rock","price":"$59.00","supports":["Mi-Sex"," Dial"],"ticketUrl":null,"time":" 7:30pm"}],"vName":"The Croxton"},"type":"Feature"},{"geometry":{"coordinates":[144.9846126,-37.7989941],"type":"Point"},"properties":{"events":[{"categories":["Music"],"eDate":"2024-06-29","eName":"Psychotic Turnbuckles: 40 Years Undefeated","genre":"Rock","price":"$34.20","supports":["Starcrazy"," The Vibrajets"],"ticketUrl":null,"time":" 8pm"},{"categories":["Music"],"eDate":"2024-06-29","eName":"Miruthan","genre":"Metal","price":"$16.35","supports":[],"ticketUrl":null,"time":" 8pm"}],"vName":"The Tote Hotel"},"type":"Feature"},{"geometry":{"coordinates":[144.9769450659087,-37.8055776],"type":"Point"},"properties":{"events":[{"categories":["Music"],"eDate":"2024-06-29","eName":"Chasing Lana","genre":"Rock","price":"$23.50","supports":["Verona Lights"," The Reasons Why"," Awaking Tyler"," Manic Temple"],"ticketUrl":null,"time":" 7pm"}],"vName":"The Workers Club"},"type":"Feature"},{"geometry":{"coordinates":[144.9618426,-37.8125531],"type":"Point"},"properties":{"events":[{"categories":["Free","Music"],"eDate":"2024-06-29","eName":"Liminal Horizons: Carl OS + Jethro","genre":null,"price":"Free","supports":[],"ticketUrl":null,"time":" 4pm"}],"vName":"Whitehart Bar"},"type":"Feature"}],"type":"FeatureCollection"}