{"features":[{"geometry":{"coordinates":[144.99828116650363,-37.7713296],"type":"Point"},"properties":{"events":[{"categories":["Music"],"eDate":"2024-12-15","eName":"The Tonalists","genre":"Soul/Funk","price":"$15.00","supports":[],"ticketUrl":null,"time":" 5pm"}],"vName":"Bar 303"},"type":"Feature"},{"geometry":{"coordinates":[144.978682,-37.7981225],"type":"Point"},"properties":{"events":[{"categories":["Free","Music"],"eDate":"2024-12-15","eName":"Tejo D'Cruz","genre":null,"price":"Free","supports":[],"ticketUrl":null,"time":" 9pm"}],"vName":"Baxter's Lot"},"type":"Feature"},{"geometry":{"coordinates":[144.9607158,-37.776327],"type":"Point"},"properties":{"events":[{"categories":["Music"],"eDate":"2024-12-15","eName":"Sunday School","genre":"Rock","price":"$16.85","supports":[],"ticketUrl":null,"time":" 4pm"}],"vName":"Bergy Bandroom"},"type":"Feature"},{"geometry":{"coordinates":[144.9679835243618,-37.8201575],"type":"Point"},"properties":{"events":[{"categories":["Music"],"eDate":"2024-12-15","eName":"Handel's Messiah","genre":"Classical","price":"$81.00 - 139.00","supports":[],"ticketUrl":null,"time":" 5pm"}],"vName":"Hamer Hall (Arts Centre Melbourne)"},"type":"Feature"},{"geometry":{"coordinates":[145.0008148,-37.8107158],"type":"Point"},"properties":{"events":[{"categories":["Music"],"eDate":"2024-12-15","eName":"Lyric","genre":"Pop","price":"$35.00","supports":[],"ticketUrl":null,"time":" 1pm"}],"vName":"Leadbeater Hotel"},"type":"Feature"},{"geometry":{"coordinates":[144.9936498,-37.8000264],"type":"Point"},"properties":{"events":[{"categories":["Music"],"eDate":"2024-12-15","eName":"Ally Hocking Howe + Ragged Blossom","genre":"Electronic","price":"Free","supports":[],"ticketUrl":null,"time":" 4pm"}],"vName":"Lulie Tavern"},"type":"Feature"},{"geometry":{"coordinates":[144.8971518,-37.8054274],"type":"Point"},"properties":{"events":[{"categories":["Free","Music"],"eDate":"2024-12-15","eName":"The Moops","genre":null,"price":"Free","supports":["The Bartons"," Telesonics"],"ticketUrl":null,"time":" 2pm"},{"categories":["Free","Music"],"eDate":"2024-12-15","eName":"Turn Down Service","genre":null,"price":"$20.00 - 25.00","supports":["Olivia Bolmat"," DJ Game Face"],"ticketUrl":null,"time":" 7pm"}],"vName":"Mamma Chen's"},"type":"Feature"},{"geometry":{"coordinates":[144.9659879,-37.8147557],"type":"Point"},"properties":{"events":[{"categories":["Music","Theatre","Dance","Other \"Cabaret\""],"eDate":"2024-12-15","eName":"Maison Burlesque: Cherry Poppers Showcase (Early Show)","genre":"Jazz","price":"$24.50 - 35.20","supports":[],"ticketUrl":null,"time":" 5pm"},{"categories":["Music","Theatre","Dance","Other \"Cabaret\""],"eDate":"2024-12-15","eName":"Maison Burlesque: Cherry Poppers Showcase","genre":"Jazz","price":"$24.50 - 35.20","supports":[],"ticketUrl":null,"time":" 7:30pm"}],"vName":"Max Watt's (Melbourne)"},"type":"Feature"},{"geometry":{"coordinates":[144.97711,-37.79833],"type":"Point"},"properties":{"events":[{"categories":["Free","Music"],"eDate":"2024-12-15","eName":"Dave Johnstone Band + Cyclone Mavis","genre":"Acoustic","price":"Free","supports":[],"ticketUrl":null,"time":" 3:30pm"},{"categories":["Music"],"eDate":"2024-12-15","eName":"Jack Davies","genre":"Acoustic","price":"$23.50","supports":["Anna Schneider"," Billy Barker"],"ticketUrl":null,"time":" 7:30pm"}],"vName":"Old Bar"},"type":"Feature"},{"geometry":{"coordinates":[145.0142411,-37.7310367],"type":"Point"},"properties":{"events":[{"categories":["Free","Music"],"eDate":"2024-12-15","eName":"Sunday Sunset Sessions","genre":"Jazz","price":"Free","supports":[],"ticketUrl":null,"time":" 6pm"}],"vName":"Ragtime Tavern"},"type":"Feature"},{"geometry":{"coordinates":[144.9615882,-37.7711432],"type":"Point"},"properties":{"events":[{"categories":["Free","Music"],"eDate":"2024-12-15","eName":"Northern Voice Choir","genre":"Rock","price":"Free","supports":["Rayna"],"ticketUrl":null,"time":" 2:30pm"},{"categories":["Free","Music"],"eDate":"2024-12-15","eName":"Wren Bellette & The Restless Few","genre":"Country/Folk","price":"Free","supports":["Katie May & The Mystics"],"ticketUrl":null,"time":" 7pm"}],"vName":"Retreat Hotel"},"type":"Feature"},{"geometry":{"coordinates":[144.9631913,-37.7617818],"type":"Point"},"properties":{"events":[{"categories":["Music"],"eDate":"2024-12-15","eName":"Adam Cole + Matt Malone","genre":null,"price":"$15.00","supports":[],"ticketUrl":null,"time":" 8pm"}],"vName":"Ringo Barr"},"type":"Feature"},{"geometry":{"coordinates":[144.9585654,-37.8059962],"type":"Point"},"properties":{"events":[{"categories":["Music"],"eDate":"2024-12-15","eName":"Memory Palace","genre":"Experimental","price":"$11.25","supports":["Ninebarks"," Joy Arcade"],"ticketUrl":null,"time":" 7pm"}],"vName":"The Last Chance Rock & Roll Bar"},"type":"Feature"},{"geometry":{"coordinates":[144.9968036,-37.7794807],"type":"Point"},"properties":{"events":[{"categories":["Music"],"eDate":"2024-12-15","eName":"Barb Waters Trio","genre":"Indie","price":"$20.00","supports":[],"ticketUrl":null,"time":" 5pm"}],"vName":"The Merri Creek Tavern"},"type":"Feature"}],"type":"FeatureCollection"}