{"features":[{"geometry":{"coordinates":[144.9715791,-37.8140656],"type":"Point"},"properties":{"events":[{"categories":["Music","Theatre"],"eDate":"2024-01-19","eName":"Dog Man: The Musical","genre":null,"price":"$39.50","supports":[],"ticketUrl":null,"time":" 1pm"},{"categories":["Music","Theatre"],"eDate":"2024-01-19","eName":"Dog Man: The Musical","genre":null,"price":"$39.50","supports":[],"ticketUrl":null,"time":" 6pm"}],"vName":"Athenaeum Theatre"},"type":"Feature"},{"geometry":{"coordinates":[144.99828116650363,-37.7713296],"type":"Point"},"properties":{"events":[{"categories":["Free","Music"],"eDate":"2024-01-19","eName":"Busted Chops","genre":"Soul/Funk","price":"Free","supports":[],"ticketUrl":null,"time":" 8pm"}],"vName":"Bar 303"},"type":"Feature"},{"geometry":{"coordinates":[144.978425,-37.79773],"type":"Point"},"properties":{"events":[{"categories":["Free","Music"],"eDate":"2024-01-19","eName":"The Four Scoops","genre":"Jazz","price":"Free","supports":[],"ticketUrl":null,"time":" 6pm"},{"categories":["Music"],"eDate":"2024-01-19","eName":"Oceans","genre":"Rock","price":"$17.35","supports":["Ally Mac"," Purrers"],"ticketUrl":null,"time":" 8:30pm"}],"vName":"Bar Open"},"type":"Feature"},{"geometry":{"coordinates":[144.9617018,-37.7704566],"type":"Point"},"properties":{"events":[{"categories":["Music"],"eDate":"2024-01-19","eName":"The Noise","genre":"Rock","price":"$17.95","supports":["Willowbank Grove"," Champ Ruby"],"ticketUrl":null,"time":" 8pm"}],"vName":"Brunswick Ballroom"},"type":"Feature"},{"geometry":{"coordinates":[144.9713425,-37.8128595],"type":"Point"},"properties":{"events":[{"categories":["Music"],"eDate":"2024-01-19","eName":"Mulga Bore Hard Rock","genre":"Rock","price":"$22.59","supports":[],"ticketUrl":null,"time":" 8pm"}],"vName":"Cherry Bar"},"type":"Feature"},{"geometry":{"coordinates":[144.9875917,-37.7963837],"type":"Point"},"properties":{"events":[{"categories":["Free","Music"],"eDate":"2024-01-19","eName":"The Institute For Good Girls + Terra Rouge","genre":"Rock","price":"Free","supports":[],"ticketUrl":null,"time":" 8pm"}],"vName":"Gem Bar"},"type":"Feature"},{"geometry":{"coordinates":[145.0008148,-37.8107158],"type":"Point"},"properties":{"events":[{"categories":["Music"],"eDate":"2024-01-19","eName":"Second Hand High","genre":"Rock","price":"$7.65","supports":["Alternate Avenues"," Vollie"],"ticketUrl":null,"time":" 8pm"}],"vName":"Leadbeater Hotel"},"type":"Feature"},{"geometry":{"coordinates":[145.3553553,-37.9078552],"type":"Point"},"properties":{"events":[{"categories":["Free","Music"],"eDate":"2024-01-19","eName":"Chris Hoffmann","genre":"Acoustic","price":"Free","supports":[],"ticketUrl":null,"time":" 7pm"}],"vName":"Micawber Tavern"},"type":"Feature"},{"geometry":{"coordinates":[144.96892412239615,-37.82266345],"type":"Point"},"properties":{"events":[{"categories":["Free","Music"],"eDate":"2024-01-19","eName":"NGV Triennial: Mindy Meng Wang 王萌 (Early Session)","genre":null,"price":"Free","supports":[],"ticketUrl":null,"time":" 8:30pm"},{"categories":["Free","Music"],"eDate":"2024-01-19","eName":"NGV Triennial: C.FRIM (DJ Set)","genre":"Electronic","price":"Free","supports":[],"ticketUrl":null,"time":" 9pm"},{"categories":["Free","Music"],"eDate":"2024-01-19","eName":"NGV Triennial: Mindy Meng Wang 王萌","genre":null,"price":"Free","supports":[],"ticketUrl":null,"time":" 9:30pm"}],"vName":"NGV - National Gallery of Victoria"},"type":"Feature"},{"geometry":{"coordinates":[144.9631913,-37.7617818],"type":"Point"},"properties":{"events":[{"categories":["Free","Music"],"eDate":"2024-01-19","eName":"Amutha","genre":"Indie","price":"Free","supports":["Phylo"],"ticketUrl":null,"time":" 8pm"}],"vName":"Ringo Barr"},"type":"Feature"},{"geometry":{"coordinates":[144.9706095,-37.7783326],"type":"Point"},"properties":{"events":[{"categories":["Free","Music"],"eDate":"2024-01-19","eName":"Headphone Jones","genre":"Soul/Funk","price":"Free","supports":[],"ticketUrl":null,"time":" 9pm"}],"vName":"The Beast"},"type":"Feature"},{"geometry":{"coordinates":[144.9657057,-37.8061581],"type":"Point"},"properties":{"events":[{"categories":["Free","Music"],"eDate":"2024-01-19","eName":"Swinging Country Party With Karen From Finance Does Dolly On The Decks","genre":"Country/Folk","price":"Free","supports":["King Arthur"," Loretta Miller"],"ticketUrl":null,"time":" 8:30pm"}],"vName":"The Curtin"},"type":"Feature"},{"geometry":{"coordinates":[144.9830837,-37.7988316],"type":"Point"},"properties":{"events":[{"categories":["Music"],"eDate":"2024-01-19","eName":"Mamma Mia! The Musical Party","genre":"Pop","price":"$20.00","supports":[],"ticketUrl":null,"time":"11pm"}],"vName":"The Night Cat"},"type":"Feature"},{"geometry":{"coordinates":[144.9846126,-37.7989941],"type":"Point"},"properties":{"events":[{"categories":["Music"],"eDate":"2024-01-19","eName":"Ghoulies","genre":"Punk","price":"$20.00","supports":["The Vovos"," Pleasants"],"ticketUrl":null,"time":" 7:30pm"},{"categories":["Music"],"eDate":"2024-01-19","eName":"R.M.F.C","genre":"Rock","price":"$23.50","supports":["Cloud Ice 9"," The Toads"],"ticketUrl":null,"time":" 8pm"}],"vName":"The Tote Hotel"},"type":"Feature"},{"geometry":{"coordinates":[144.9769450659087,-37.8055776],"type":"Point"},"properties":{"events":[{"categories":["Music"],"eDate":"2024-01-19","eName":"Tom Nethersole","genre":"Pop","price":"$18.30","supports":["Adam Noviello"," Cynta"],"ticketUrl":null,"time":" 8:30pm"}],"vName":"The Workers Club"},"type":"Feature"},{"geometry":{"coordinates":[144.9827552,-37.8041303],"type":"Point"},"properties":{"events":[{"categories":["Music"],"eDate":"2024-01-19","eName":"Celebrating The 1975 + House Party Bangers!","genre":"Pop","price":"$17.48","supports":[],"ticketUrl":null,"time":" 9pm"},{"categories":["Music"],"eDate":"2024-01-19","eName":"Friday Night Party At Yah's","genre":"Pop","price":"$15.00","supports":[],"ticketUrl":null,"time":" 9pm"}],"vName":"Yah Yah's"},"type":"Feature"}],"type":"FeatureCollection"}