{"features":[{"geometry":{"coordinates":[144.9982812,-37.7713296],"type":"Point"},"properties":{"events":[{"categories":["Music"],"eDate":"2026-02-06","eName":"The Crop Tops","genre":"Punk","price":"$15.00","supports":["Heterophobes"," Sad Bitch Hours"," Hope In The Static"," Microplastics"],"ticketUrl":null,"time":" 7pm"}],"vName":"Bar 303"},"type":"Feature"},{"geometry":{"coordinates":[144.978682,-37.7981225],"type":"Point"},"properties":{"events":[{"categories":["Free","Music"],"eDate":"2026-02-06","eName":"Xander Cuming (with Jay Bruno on the Drums)","genre":null,"price":"Free","supports":[],"ticketUrl":null,"time":" 9pm"}],"vName":"Baxter's Lot"},"type":"Feature"},{"geometry":{"coordinates":[144.9568039,-37.8111442],"type":"Point"},"properties":{"events":[{"categories":["Music"],"eDate":"2026-02-06","eName":"The Beatles Legacy","genre":"Rock","price":"$40.00","supports":[],"ticketUrl":null,"time":" 6pm"}],"vName":"Bird's Basement"},"type":"Feature"},{"geometry":{"coordinates":[144.9617083,-37.7704205],"type":"Point"},"properties":{"events":[{"categories":["Free","Music"],"eDate":"2026-02-06","eName":"Blackjacks","genre":"Blues","price":"Free","supports":["Anna Scionti"],"ticketUrl":null,"time":" 8:30pm"}],"vName":"Brunswick Artists' Bar"},"type":"Feature"},{"geometry":{"coordinates":[145.0004166,-37.7612582],"type":"Point"},"properties":{"events":[{"categories":["Music"],"eDate":"2026-02-06","eName":"Matilda Sutherland","genre":null,"price":"$15.00","supports":["Red Moon Cowboy",""," Brenna O"],"ticketUrl":null,"time":" 8pm"}],"vName":"Cactus Room"},"type":"Feature"},{"geometry":{"coordinates":[144.9501312,-37.8042459],"type":"Point"},"properties":{"events":[{"categories":["Comedy"],"eDate":"2026-02-06","eName":"Mickey Wilson: How Ya Goin","genre":null,"price":"$25.00","supports":[],"ticketUrl":null,"time":" 9:30pm"}],"vName":"Club Voltaire"},"type":"Feature"},{"geometry":{"coordinates":[144.9926664,-37.8248893],"type":"Point"},"properties":{"events":[{"categories":["Music"],"eDate":"2026-02-06","eName":"Mid Youth Crisis","genre":"Punk","price":"Free","supports":[],"ticketUrl":null,"time":" 8pm"}],"vName":"Corner Hotel"},"type":"Feature"},{"geometry":{"coordinates":[144.9693768,-37.8164414],"type":"Point"},"properties":{"events":[{"categories":["Music"],"eDate":"2026-02-06","eName":"Sophie Ellis-Bextor","genre":"Pop","price":"$101.65","supports":["Holiday Sidewinder"],"ticketUrl":null,"time":" 7pm"}],"vName":"Forum Melbourne"},"type":"Feature"},{"geometry":{"coordinates":[144.9875792,-37.7963739],"type":"Point"},"properties":{"events":[{"categories":["Music"],"eDate":"2026-02-06","eName":"Hannie Day","genre":"Indie","price":"$15.05","supports":["The Boatmen"],"ticketUrl":null,"time":" 8pm"}],"vName":"Gem Bar"},"type":"Feature"},{"geometry":{"coordinates":[144.9787378,-37.7954205],"type":"Point"},"properties":{"events":[{"categories":["Music"],"eDate":"2026-02-06","eName":"Interval: Dec Duffy + DJ Optimism + Tr1pod","genre":"Electronic","price":"$15.00 - 30.00","supports":["Bethany"," Char"," Kovach"," Lilian"],"ticketUrl":null,"time":"10pm"}],"vName":"Glamorama"},"type":"Feature"},{"geometry":{"coordinates":[144.983442,-37.804851],"type":"Point"},"properties":{"events":[{"categories":["Music"],"eDate":"2026-02-06","eName":"Robert Baxter","genre":"Pop","price":"$20.00 - 25.00","supports":[],"ticketUrl":null,"time":" 8pm"}],"vName":"Grace Darling Hotel"},"type":"Feature"},{"geometry":{"coordinates":[145.0008148,-37.8107158],"type":"Point"},"properties":{"events":[{"categories":["Music"],"eDate":"2026-02-06","eName":"Jack Harlon & The Dead Crows","genre":"Rock","price":"$23.75","supports":["TTTDC"," Astrofuzz"],"ticketUrl":null,"time":" 8pm"}],"vName":"Leadbeater Hotel"},"type":"Feature"},{"geometry":{"coordinates":[144.998414,-37.771471],"type":"Point"},"properties":{"events":[{"categories":["Music"],"eDate":"2026-02-06","eName":"Surf Hat","genre":"Rock","price":"$35.30","supports":[],"ticketUrl":null,"time":" 8:30pm"}],"vName":"Northcote Social Club"},"type":"Feature"},{"geometry":{"coordinates":[145.0015248,-37.8258878],"type":"Point"},"properties":{"events":[{"categories":["Music"],"eDate":"2026-02-06","eName":"Geoff Achison & Kathleen Halloran","genre":"Acoustic","price":"Free","supports":[],"ticketUrl":null,"time":" 6pm"}],"vName":"Odeon Richmond"},"type":"Feature"},{"geometry":{"coordinates":[144.96084,-37.813514],"type":"Point"},"properties":{"events":[{"categories":["Music"],"eDate":"2026-02-06","eName":"The Little Bourke Big Band Presents SUPER MARIO MAYHEM: The Music of Super Mario","genre":"Jazz","price":"$45.00","supports":[],"ticketUrl":null,"time":" 6pm"},{"categories":["Music"],"eDate":"2026-02-06","eName":"The Music of Mobley","genre":"Jazz","price":"$45.00","supports":[],"ticketUrl":null,"time":" 6:30pm"},{"categories":["Music"],"eDate":"2026-02-06","eName":"RED HOT!! with Sarah Maclaine & Jennifer Salisbury","genre":"Jazz","price":"$45.00","supports":[],"ticketUrl":null,"time":" 9pm"},{"categories":["Music"],"eDate":"2026-02-06","eName":"The Royal Motown Revue: Nardia + Paul Slattery & The Horns of Hip","genre":"Jazz","price":"$48.00","supports":[],"ticketUrl":null,"time":" 9:30pm"}],"vName":"Paris Cat Jazz Club"},"type":"Feature"},{"geometry":{"coordinates":[144.9607404,-37.7743469],"type":"Point"},"properties":{"events":[{"categories":["Music"],"eDate":"2026-02-06","eName":"Dead Congregation + Concrete Winds","genre":"Metal","price":"$69.00","supports":[],"ticketUrl":null,"time":" 7:30pm"}],"vName":"Stay Gold"},"type":"Feature"},{"geometry":{"coordinates":[144.9708437,-37.7973184],"type":"Point"},"properties":{"events":[{"categories":["Other \"Dance \"","Other \"Cabaret\""],"eDate":"2026-02-06","eName":"Electric Oasis Cabaret","genre":"Pop","price":"$35.96","supports":[],"ticketUrl":null,"time":" 8:30pm"}],"vName":"The Motley Bauhaus"},"type":"Feature"},{"geometry":{"coordinates":[145.0141502,-37.8117556],"type":"Point"},"properties":{"events":[{"categories":["Music"],"eDate":"2026-02-06","eName":"Whispering Sky","genre":"Global","price":"$40.00","supports":[],"ticketUrl":null,"time":" 7pm"}],"vName":"The Open Space"},"type":"Feature"},{"geometry":{"coordinates":[144.9790327,-37.7960561],"type":"Point"},"properties":{"events":[{"categories":["Music"],"eDate":"2026-02-06","eName":"Dead Pretty Takeover: Special Guest","genre":"Rock","price":"Free","supports":["The Halves"," Convenience Store"],"ticketUrl":null,"time":"10pm"}],"vName":"The Punters Club"},"type":"Feature"},{"geometry":{"coordinates":[145.1818891,-37.8163371],"type":"Point"},"properties":{"events":[{"categories":["Music","Theatre"],"eDate":"2026-02-06","eName":"TINA: A Tropical Love Story","genre":null,"price":"$49.00","supports":[],"ticketUrl":null,"time":" 8pm"}],"vName":"The Round"},"type":"Feature"},{"geometry":{"coordinates":[144.9651425,-37.8119429],"type":"Point"},"properties":{"events":[{"categories":["Music"],"eDate":"2026-02-06","eName":"Ends in Tragedy","genre":"Metal","price":"$30.00","supports":["As Long As It Bleeds"," Onvoy"," Street Suffer"," Dance"],"ticketUrl":null,"time":" 6:30pm"}],"vName":"The Toff In Town"},"type":"Feature"},{"geometry":{"coordinates":[144.9870814,-37.799406],"type":"Point"},"properties":{"events":[{"categories":["Music"],"eDate":"2026-02-06","eName":"The Many Mangy Mongrels And The Mighty Men Aboard The Monday Express Tour","genre":"Metal","price":"$16.35","supports":["Loose Surface"," All Hope Remains"," A Study in Red"],"ticketUrl":null,"time":" 7pm"}],"vName":"The Tote Hotel"},"type":"Feature"},{"geometry":{"coordinates":[144.9661635,-37.8176298],"type":"Point"},"properties":{"events":[{"categories":["Music"],"eDate":"2026-02-06","eName":"Prequel Vs Cazeaux O.S.L.O","genre":"Electronic","price":"$10.95","supports":["DJ Dem Large"],"ticketUrl":null,"time":" 9pm"}],"vName":"Wax Music Lounge"},"type":"Feature"},{"geometry":{"coordinates":[144.9984324,-37.7729134],"type":"Point"},"properties":{"events":[{"categories":["Music"],"eDate":"2026-02-06","eName":"Yemo Wang","genre":"Jazz","price":"Free","supports":[],"ticketUrl":null,"time":" 6pm"}],"vName":"Wesley Anne"},"type":"Feature"}],"type":"FeatureCollection"}