{"features":[{"geometry":{"coordinates":[144.972501,-37.811331],"type":"Point"},"properties":{"events":[{"categories":["Music"],"eDate":"2025-07-25","eName":"Acid: Edu. Kation Vol. 2","genre":"Electronic","price":"$15.00","supports":["Luna x"," Myelin"," Rosella"],"ticketUrl":null,"time":"10pm"}],"vName":"Angel Music Bar"},"type":"Feature"},{"geometry":{"coordinates":[144.9982812,-37.7713296],"type":"Point"},"properties":{"events":[{"categories":["Music"],"eDate":"2025-07-25","eName":"Belly Savalas","genre":"Jazz","price":"Free","supports":[],"ticketUrl":null,"time":" 8pm"}],"vName":"Bar 303"},"type":"Feature"},{"geometry":{"coordinates":[144.978682,-37.7981225],"type":"Point"},"properties":{"events":[{"categories":["Free","Music"],"eDate":"2025-07-25","eName":"Woody Samson","genre":null,"price":"Free","supports":[],"ticketUrl":null,"time":" 9pm"}],"vName":"Baxter's Lot"},"type":"Feature"},{"geometry":{"coordinates":[144.9568039,-37.8111442],"type":"Point"},"properties":{"events":[{"categories":["Music"],"eDate":"2025-07-25","eName":"Songs of the Soul: Rita Abadzi + Kostas Roukounas","genre":"Soul/Funk","price":"$38.00","supports":[],"ticketUrl":null,"time":" 7:30pm"}],"vName":"Bird's Basement"},"type":"Feature"},{"geometry":{"coordinates":[144.9617083,-37.7704205],"type":"Point"},"properties":{"events":[{"categories":["Music"],"eDate":"2025-07-25","eName":"High Standards","genre":"Jazz","price":"$33.76","supports":["more"],"ticketUrl":null,"time":" 8:30pm"}],"vName":"Brunswick Ballroom"},"type":"Feature"},{"geometry":{"coordinates":[145.0004166,-37.7612582],"type":"Point"},"properties":{"events":[{"categories":["Music"],"eDate":"2025-07-25","eName":"Sands","genre":"Rock","price":"$11.53","supports":["Gull"," Slik Nita"],"ticketUrl":null,"time":" 8pm"}],"vName":"Cactus Room"},"type":"Feature"},{"geometry":{"coordinates":[144.9926664,-37.8248893],"type":"Point"},"properties":{"events":[{"categories":["Music"],"eDate":"2025-07-25","eName":"Cousin Tony’s Brand New Firebird","genre":"Rock","price":"$46.00","supports":["Bonniesongs"," Georgia Mulligan"],"ticketUrl":null,"time":" 7:30pm"}],"vName":"Corner Hotel"},"type":"Feature"},{"geometry":{"coordinates":[144.9693768,-37.8164414],"type":"Point"},"properties":{"events":[{"categories":["Music"],"eDate":"2025-07-25","eName":"Dope Lemon","genre":"Rock","price":"Free","supports":["Pamela"],"ticketUrl":null,"time":" 7pm"}],"vName":"Forum Melbourne"},"type":"Feature"},{"geometry":{"coordinates":[144.973013,-37.8640582],"type":"Point"},"properties":{"events":[{"categories":["Music"],"eDate":"2025-07-25","eName":"Recession Pop Party!","genre":"Pop","price":"$14.80 - 22.95","supports":[],"ticketUrl":null,"time":" 9pm"}],"vName":"Hotel Esplanade (aka The Espy)"},"type":"Feature"},{"geometry":{"coordinates":[145.0314658,-37.8067273],"type":"Point"},"properties":{"events":[{"categories":["Music"],"eDate":"2025-07-25","eName":"Kew Court House Live: Koi Kingdom","genre":"Jazz","price":"$20.00","supports":[],"ticketUrl":null,"time":" 7:30pm"}],"vName":"Kew Court House"},"type":"Feature"},{"geometry":{"coordinates":[144.8984802,-37.8111559],"type":"Point"},"properties":{"events":[{"categories":["Music"],"eDate":"2025-07-25","eName":"Meg Washington","genre":"Jazz","price":"$52.00","supports":[],"ticketUrl":null,"time":" 7:30pm"}],"vName":"Kindred Bandroom"},"type":"Feature"},{"geometry":{"coordinates":[145.0358258,-37.9334203],"type":"Point"},"properties":{"events":[{"categories":["Comedy"],"eDate":"2025-07-25","eName":"Lehmo: Camper Van Go","genre":null,"price":"$35.00","supports":[],"ticketUrl":null,"time":" 7:30pm"}],"vName":"Kingston City Hall"},"type":"Feature"},{"geometry":{"coordinates":[145.0355738,-37.8205529],"type":"Point"},"properties":{"events":[{"categories":["Music"],"eDate":"2025-07-25","eName":"The Connie Lansberg Quartet","genre":"Jazz","price":"$25.00 - 30.00","supports":[],"ticketUrl":null,"time":" 8pm"}],"vName":"Lido Jazz Room"},"type":"Feature"},{"geometry":{"coordinates":[144.9936498,-37.8000264],"type":"Point"},"properties":{"events":[{"categories":["Free","Music"],"eDate":"2025-07-25","eName":"OH! Daisy","genre":null,"price":"Free","supports":["Romanie"," Skiptons"],"ticketUrl":null,"time":" 6pm"}],"vName":"Lulie Tavern"},"type":"Feature"},{"geometry":{"coordinates":[144.9675876,-37.8240849],"type":"Point"},"properties":{"events":[{"categories":["Music"],"eDate":"2025-07-25","eName":"Sjaella","genre":"Acoustic","price":"$59.00 - 69.00","supports":[],"ticketUrl":null,"time":" 7:30pm"}],"vName":"Melbourne Recital Centre"},"type":"Feature"},{"geometry":{"coordinates":[144.9790251,-37.8675008],"type":"Point"},"properties":{"events":[{"categories":["Music"],"eDate":"2025-07-25","eName":"The Wilbury Legends Ride Again","genre":"Country/Folk","price":"$45.00 - 65.00","supports":[],"ticketUrl":null,"time":" 7pm"}],"vName":"Memo Music Hall"},"type":"Feature"},{"geometry":{"coordinates":[144.998414,-37.771471],"type":"Point"},"properties":{"events":[{"categories":["Music"],"eDate":"2025-07-25","eName":"Augie March","genre":"Indie","price":"Free","supports":[],"ticketUrl":null,"time":" 8:30pm"}],"vName":"Northcote Social Club"},"type":"Feature"},{"geometry":{"coordinates":[145.0015248,-37.8258878],"type":"Point"},"properties":{"events":[{"categories":["Music"],"eDate":"2025-07-25","eName":"EORTI (Celebration) Greek Festival: Day 1, Live Band","genre":"Global","price":"$44.90","supports":[],"ticketUrl":null,"time":" 7pm"}],"vName":"Odeon Richmond"},"type":"Feature"},{"geometry":{"coordinates":[144.97711,-37.79833],"type":"Point"},"properties":{"events":[{"categories":["Music"],"eDate":"2025-07-25","eName":"Potluck","genre":"Rock","price":"Free","supports":[],"ticketUrl":null,"time":" 8pm"}],"vName":"Old Bar"},"type":"Feature"},{"geometry":{"coordinates":[144.96084,-37.813514],"type":"Point"},"properties":{"events":[{"categories":["Music"],"eDate":"2025-07-25","eName":"All I Ask: Elly Poletti Sings Adele","genre":"Soul/Funk","price":"$48.00","supports":[],"ticketUrl":null,"time":" 6pm"},{"categories":["Music"],"eDate":"2025-07-25","eName":"Phoebe Sena Presents: Pure Obsessions","genre":"R&B","price":"$45.00","supports":[],"ticketUrl":null,"time":" 6:30pm"},{"categories":["Music"],"eDate":"2025-07-25","eName":"RADIOSUCCESSI’s 10th Anniversary","genre":"Jazz","price":"$45.00","supports":[],"ticketUrl":null,"time":" 9pm"},{"categories":["Music"],"eDate":"2025-07-25","eName":"The Shuffle Club","genre":"Jazz","price":"$45.00","supports":[],"ticketUrl":null,"time":" 9:30pm"}],"vName":"Paris Cat Jazz Club"},"type":"Feature"},{"geometry":{"coordinates":[144.993413,-37.8506652],"type":"Point"},"properties":{"events":[{"categories":["Music"],"eDate":"2025-07-25","eName":"Get Hard Records x Revolver Fridays","genre":"Electronic","price":"$21.42","supports":["more"],"ticketUrl":null,"time":" 7pm"}],"vName":"Revolver Upstairs"},"type":"Feature"},{"geometry":{"coordinates":[144.965405,-37.8117457],"type":"Point"},"properties":{"events":[{"categories":["Music"],"eDate":"2025-07-25","eName":"Beat Therapy presents: Original Prints","genre":"Electronic","price":"Free","supports":[],"ticketUrl":null,"time":" 6pm"}],"vName":"Section 8"},"type":"Feature"},{"geometry":{"coordinates":[145.0013923,-37.7559265],"type":"Point"},"properties":{"events":[{"categories":["Music"],"eDate":"2025-07-25","eName":"The Maggie Pills","genre":"Punk","price":"$23.45","supports":["The Stripp"," Louts"," Hail Mary Jane"],"ticketUrl":null,"time":" 7:30pm"}],"vName":"Shotkickers"},"type":"Feature"},{"geometry":{"coordinates":[144.9617907,-37.7620474],"type":"Point"},"properties":{"events":[{"categories":["Music"],"eDate":"2025-07-25","eName":"Abi Lee/Sam Anning/Ava McDermott","genre":null,"price":"$25.00","supports":[],"ticketUrl":null,"time":" 8pm"}],"vName":"Tempo Rubato, Brunswick"},"type":"Feature"},{"geometry":{"coordinates":[144.9521683,-37.7319597],"type":"Point"},"properties":{"events":[{"categories":["Music","Festival"],"eDate":"2025-07-25","eName":"TENPENCHII 天変地異","genre":null,"price":"$15.00 - 20.00","supports":["Etherdream"," Barker & Michailidis"," Eves"," Alekmaya"," Kokuryu"],"ticketUrl":null,"time":" 9pm"}],"vName":"The Industrique"},"type":"Feature"},{"geometry":{"coordinates":[144.9708437,-37.7973184],"type":"Point"},"properties":{"events":[{"categories":["Music","Other \"Cabaret\""],"eDate":"2025-07-25","eName":"Lucid Lounge Cabaret","genre":"Jazz","price":"$35.46","supports":[],"ticketUrl":null,"time":" 8pm"},{"categories":["Free","Comedy"],"eDate":"2025-07-25","eName":"Script Jam","genre":null,"price":"Free","supports":[],"ticketUrl":null,"time":" 9:45pm"}],"vName":"The Motley Bauhaus"},"type":"Feature"},{"geometry":{"coordinates":[144.9621651,-37.7679775],"type":"Point"},"properties":{"events":[{"categories":["Music","Theatre","Other \"Dance \"","Other \"Cabaret\""],"eDate":"2025-07-25","eName":"Jingle In July","genre":"Pop","price":"$15.00","supports":[],"ticketUrl":null,"time":" 6:30pm"}],"vName":"The Penny Black"},"type":"Feature"},{"geometry":{"coordinates":[144.9870814,-37.799406],"type":"Point"},"properties":{"events":[{"categories":["Music"],"eDate":"2025-07-25","eName":"Ghostsmoker","genre":"Metal","price":"$20.00","supports":["Frankenbok"," Scaphis"," Wallet Inspector"," Rat Tomb"],"ticketUrl":null,"time":" 7:30pm"}],"vName":"The Tote Hotel"},"type":"Feature"},{"geometry":{"coordinates":[144.9984324,-37.7729134],"type":"Point"},"properties":{"events":[{"categories":["Music"],"eDate":"2025-07-25","eName":"Lotte Gallagher","genre":"Indie","price":"Free","supports":[],"ticketUrl":null,"time":" 8pm"}],"vName":"Wesley Anne"},"type":"Feature"}],"type":"FeatureCollection"}