{"features":[{"geometry":{"coordinates":[144.9679835,-37.8201575],"type":"Point"},"properties":{"events":[{"categories":["Comedy"],"eDate":"2026-04-19","eName":"Murder Village: An Improvised Whodunnit","genre":null,"price":"$32.00 - 37.00","supports":[],"ticketUrl":null,"time":" 8:15pm"}],"vName":"Arts Centre Melbourne"},"type":"Feature"},{"geometry":{"coordinates":[144.9684781,-37.8120553],"type":"Point"},"properties":{"events":[{"categories":["Comedy"],"eDate":"2026-04-19","eName":"Maitreyi Karanth: Maitriarchy","genre":null,"price":"$22.00 - 32.00","supports":[],"ticketUrl":null,"time":" 6pm"},{"categories":["Comedy"],"eDate":"2026-04-19","eName":"Maitreyi Karanth: Maitriarchy","genre":null,"price":"$22.00 - 28.00","supports":[],"ticketUrl":null,"time":" 6pm"}],"vName":"Ballers Clubhouse"},"type":"Feature"},{"geometry":{"coordinates":[144.978682,-37.7981225],"type":"Point"},"properties":{"events":[{"categories":["Free","Music"],"eDate":"2026-04-19","eName":"Mya Roger & Tejo D’Cruz","genre":null,"price":"Free","supports":[],"ticketUrl":null,"time":" 9pm"}],"vName":"Baxter's Lot"},"type":"Feature"},{"geometry":{"coordinates":[144.9945274,-37.8001115],"type":"Point"},"properties":{"events":[{"categories":["Free","Music","Festival","Other \"Food \""],"eDate":"2026-04-19","eName":"The Offtopics","genre":null,"price":"Free","supports":[],"ticketUrl":null,"time":" 4pm"},{"categories":["Festival","Comedy","Other \"Food \""],"eDate":"2026-04-19","eName":"On The Gags: Comedy Fest Extravaganza","genre":null,"price":"$20.00 - 25.00","supports":[],"ticketUrl":null,"time":" 4:20pm"}],"vName":"Bodriggy Brewing Company"},"type":"Feature"},{"geometry":{"coordinates":[144.9501312,-37.8042459],"type":"Point"},"properties":{"events":[{"categories":["Comedy"],"eDate":"2026-04-19","eName":"Sunday Night Comedy","genre":null,"price":"$10.00","supports":[],"ticketUrl":null,"time":" 7:30pm"}],"vName":"Club Voltaire"},"type":"Feature"},{"geometry":{"coordinates":[145.0358258,-37.9334203],"type":"Point"},"properties":{"events":[{"categories":["Free","Music"],"eDate":"2026-04-19","eName":"Live at City Hall: Sunday Sounds","genre":"Jazz","price":"Free","supports":["Joshua Batten"," DJ Helen Jennings OAM"],"ticketUrl":null,"time":" 2pm"}],"vName":"Kingston City Hall"},"type":"Feature"},{"geometry":{"coordinates":[144.9615882,-37.7711432],"type":"Point"},"properties":{"events":[{"categories":["Free","Music"],"eDate":"2026-04-19","eName":"Stirr (Naarm Debut)","genre":null,"price":"Free","supports":["The Halves"," Tameem"],"ticketUrl":null,"time":" 7pm"}],"vName":"Retreat Hotel"},"type":"Feature"},{"geometry":{"coordinates":[144.9879283,-37.7505509],"type":"Point"},"properties":{"events":[{"categories":["Music"],"eDate":"2026-04-19","eName":"Brendon Siemsen Trio","genre":null,"price":"Free","supports":[],"ticketUrl":null,"time":" 4pm"}],"vName":"The Merri Bar"},"type":"Feature"},{"geometry":{"coordinates":[144.9661635,-37.8176298],"type":"Point"},"properties":{"events":[{"categories":["Music"],"eDate":"2026-04-19","eName":"BRAINWAVES","genre":null,"price":"$15.00","supports":[],"ticketUrl":null,"time":" 9pm"}],"vName":"Wax Music Lounge"},"type":"Feature"}],"type":"FeatureCollection"}