{"features":[{"geometry":{"coordinates":[145.0049159,-37.8035366],"type":"Point"},"properties":{"events":[{"categories":["Music","Festival","Other \"Food & Drink\""],"eDate":"2023-12-09","eName":"Yo City Connect: Afro Future","genre":null,"price":"$40.00","supports":[],"ticketUrl":null,"time":"11am"}],"vName":"Abbotsford Convent"},"type":"Feature"},{"geometry":{"coordinates":[144.99828116650363,-37.7713296],"type":"Point"},"properties":{"events":[{"categories":["Music"],"eDate":"2023-12-09","eName":"The Seduceaphones","genre":"Jazz","price":"$20.00 - 25.00","supports":["The PirateSka Rebellion"],"ticketUrl":null,"time":" 8pm"}],"vName":"Bar 303"},"type":"Feature"},{"geometry":{"coordinates":[144.978425,-37.79773],"type":"Point"},"properties":{"events":[{"categories":["Music"],"eDate":"2023-12-09","eName":"ANA","genre":null,"price":"$17.35","supports":["The Sun Is A Deadly Laser"," Circle The Sun"," Animelodies"],"ticketUrl":null,"time":" 8:30pm"}],"vName":"Bar Open"},"type":"Feature"},{"geometry":{"coordinates":[144.9617018,-37.7704566],"type":"Point"},"properties":{"events":[{"categories":["Music","Trivia"],"eDate":"2023-12-09","eName":"A Night At The Leaky Cauldron","genre":"Rock","price":"$14.99","supports":[],"ticketUrl":null,"time":" 7:30pm"}],"vName":"Brunswick Artists' Bar"},"type":"Feature"},{"geometry":{"coordinates":[144.9617018,-37.7704566],"type":"Point"},"properties":{"events":[{"categories":["Music"],"eDate":"2023-12-09","eName":"The Orbweavers","genre":"Indie","price":"$24.07","supports":["Zena Cumpston"," Andrew Tuttle"],"ticketUrl":null,"time":" 1pm"},{"categories":["Music"],"eDate":"2023-12-09","eName":"Beatles Legacy","genre":"Rock","price":"$38.86","supports":[],"ticketUrl":null,"time":" 8pm"}],"vName":"Brunswick Ballroom"},"type":"Feature"},{"geometry":{"coordinates":[144.9713425,-37.8128595],"type":"Point"},"properties":{"events":[{"categories":["Music"],"eDate":"2023-12-09","eName":"LOUTS","genre":"Punk","price":"$15.43","supports":[],"ticketUrl":null,"time":" 8pm"}],"vName":"Cherry Bar"},"type":"Feature"},{"geometry":{"coordinates":[144.9628440552175,-37.76100605],"type":"Point"},"properties":{"events":[{"categories":["Music"],"eDate":"2023-12-09","eName":"Georgia Rodgers","genre":"Blues","price":"Free","supports":[],"ticketUrl":null,"time":" 6pm"},{"categories":["Music"],"eDate":"2023-12-09","eName":"Superstar DJ's","genre":"Electronic","price":"Free","supports":[],"ticketUrl":null,"time":" 9pm"}],"vName":"Edinburgh Castle Hotel"},"type":"Feature"},{"geometry":{"coordinates":[144.9875917,-37.7963837],"type":"Point"},"properties":{"events":[{"categories":["Free","Music"],"eDate":"2023-12-09","eName":"Wild City + Servo","genre":"Rock","price":"Free","supports":[],"ticketUrl":null,"time":" 4pm"},{"categories":["Free","Music"],"eDate":"2023-12-09","eName":"Songs The Detroit Cobras Taught Us","genre":"Rock","price":"Free","supports":["DJ Orange Rat"],"ticketUrl":null,"time":" 8pm"}],"vName":"Gem Bar"},"type":"Feature"},{"geometry":{"coordinates":[144.9679835243618,-37.8201575],"type":"Point"},"properties":{"events":[{"categories":["Music"],"eDate":"2023-12-09","eName":"Melbourne Symphony Orchestra presents Handel's Messiah","genre":"Classical","price":"$75.00","supports":[],"ticketUrl":null,"time":" 7pm"}],"vName":"Hamer Hall (Arts Centre Melbourne)"},"type":"Feature"},{"geometry":{"coordinates":[144.9712356,-37.812902],"type":"Point"},"properties":{"events":[{"categories":["Comedy"],"eDate":"2023-12-09","eName":"Basement Comedy Club Saturdays (Early Show)","genre":null,"price":"$25.00","supports":["He Huang"],"ticketUrl":null,"time":" 7:15pm"},{"categories":["Comedy"],"eDate":"2023-12-09","eName":"Basement Comedy Club Saturdays","genre":null,"price":"$25.00","supports":["He Huang"],"ticketUrl":null,"time":" 8:40pm"}],"vName":"Morris House"},"type":"Feature"},{"geometry":{"coordinates":[144.9615882,-37.7711432],"type":"Point"},"properties":{"events":[{"categories":["Music"],"eDate":"2023-12-09","eName":"The Planet Bitchy Party Vol.2","genre":"Electronic","price":"$12.50","supports":["Claire Knight"," Parlour"," Luka the DJ"," Baz Ravish"],"ticketUrl":null,"time":" 7:30pm"}],"vName":"Retreat Hotel"},"type":"Feature"},{"geometry":{"coordinates":[144.9631913,-37.7617818],"type":"Point"},"properties":{"events":[{"categories":["Free","Music"],"eDate":"2023-12-09","eName":"Sixpence","genre":"Hip Hop","price":"Free","supports":["Scrammer"," Isa AC"],"ticketUrl":null,"time":" 8pm"}],"vName":"Ringo Barr"},"type":"Feature"},{"geometry":{"coordinates":[144.9706095,-37.7783326],"type":"Point"},"properties":{"events":[{"categories":["Free","Music"],"eDate":"2023-12-09","eName":"Dangertone Christmas Party","genre":"Metal","price":"Free","supports":[],"ticketUrl":null,"time":" 1pm"}],"vName":"The Beast"},"type":"Feature"},{"geometry":{"coordinates":[144.9968036,-37.7794807],"type":"Point"},"properties":{"events":[{"categories":["Music"],"eDate":"2023-12-09","eName":"Shaky Stills","genre":"Country/Folk","price":"Free","supports":[],"ticketUrl":null,"time":" 8pm"}],"vName":"The Merri Creek Tavern"},"type":"Feature"},{"geometry":{"coordinates":[144.9708437,-37.7973184],"type":"Point"},"properties":{"events":[{"categories":["Free","Music"],"eDate":"2023-12-09","eName":"Motley Jazz","genre":"Jazz","price":"Free","supports":[],"ticketUrl":null,"time":" 5pm"}],"vName":"The Motley Bauhaus"},"type":"Feature"},{"geometry":{"coordinates":[144.9807148,-37.7801461],"type":"Point"},"properties":{"events":[{"categories":["Free","Music"],"eDate":"2023-12-09","eName":"Parsnip + LOU","genre":"Rock","price":"Free","supports":[],"ticketUrl":null,"time":" 4pm"}],"vName":"Tramway Hotel"},"type":"Feature"},{"geometry":{"coordinates":[144.9618426,-37.8125531],"type":"Point"},"properties":{"events":[{"categories":["Free","Music","Other \"Food & Drink\""],"eDate":"2023-12-09","eName":"Spaghetti Funk","genre":null,"price":"Free","supports":[],"ticketUrl":null,"time":" 5pm"}],"vName":"Whitehart Bar"},"type":"Feature"},{"geometry":{"coordinates":[144.9706095,-37.7783326],"type":"Point"},"properties":{"events":[{"categories":["Music"],"eDate":"2023-12-09","eName":"Bentham's Head","genre":"Metal","price":"$22.49","supports":["Black Sea of Trees"," Rare Olives"],"ticketUrl":null,"time":" 7:30pm"}],"vName":"Whole Lotta Love"},"type":"Feature"},{"geometry":{"coordinates":[144.9827552,-37.8041303],"type":"Point"},"properties":{"events":[{"categories":["Music"],"eDate":"2023-12-09","eName":"The Butlers","genre":"Rock","price":"$15.00","supports":[],"ticketUrl":null,"time":" 9pm"},{"categories":["Music"],"eDate":"2023-12-09","eName":"Saturday Night Party At Yah's","genre":"Pop","price":"$15.00","supports":[],"ticketUrl":null,"time":" 9pm"}],"vName":"Yah Yah's"},"type":"Feature"}],"type":"FeatureCollection"}