{"features":[{"geometry":{"coordinates":[144.9679369,-37.8120109],"type":"Point"},"properties":{"events":[{"categories":["Music"],"eDate":"2025-04-24","eName":"MK (Marc Kinchen)","genre":"Electronic","price":"$79.90 - 89.90","supports":[],"ticketUrl":null,"time":" 6:30pm"}],"vName":"170 Russell"},"type":"Feature"},{"geometry":{"coordinates":[144.9982812,-37.7713296],"type":"Point"},"properties":{"events":[{"categories":["Music"],"eDate":"2025-04-24","eName":"The Shackmen","genre":"Jazz","price":"$20.00","supports":[],"ticketUrl":null,"time":" 8pm"}],"vName":"Bar 303"},"type":"Feature"},{"geometry":{"coordinates":[144.978682,-37.7981225],"type":"Point"},"properties":{"events":[{"categories":["Free","Music"],"eDate":"2025-04-24","eName":"Harrisen Hughes","genre":null,"price":"Free","supports":[],"ticketUrl":null,"time":" 9pm"}],"vName":"Baxter's Lot"},"type":"Feature"},{"geometry":{"coordinates":[144.9891167,-37.7996488],"type":"Point"},"properties":{"events":[{"categories":["Music"],"eDate":"2025-04-24","eName":"Earthbong","genre":"Metal","price":"$33.70","supports":["Goatshaman"," Giant"],"ticketUrl":null,"time":" 9pm"}],"vName":"Bendigo Hotel"},"type":"Feature"},{"geometry":{"coordinates":[144.9607158,-37.776327],"type":"Point"},"properties":{"events":[{"categories":["Music"],"eDate":"2025-04-24","eName":"Leroy Macqueen & The Family Cult Band","genre":"Rock","price":"Free","supports":["Jaded"," Jay Addinsall"],"ticketUrl":null,"time":" 8pm"}],"vName":"Bergy Bandroom"},"type":"Feature"},{"geometry":{"coordinates":[144.9617083,-37.7704205],"type":"Point"},"properties":{"events":[{"categories":["Music"],"eDate":"2025-04-24","eName":"Pseudo Echo","genre":"Pop","price":"$55.00","supports":[],"ticketUrl":null,"time":" 8:30pm"}],"vName":"Brunswick Ballroom"},"type":"Feature"},{"geometry":{"coordinates":[144.9926664,-37.8248893],"type":"Point"},"properties":{"events":[{"categories":["Music"],"eDate":"2025-04-24","eName":"Mia Wray","genre":"Pop","price":"$29.10","supports":["Flynn Gurry"],"ticketUrl":null,"time":" 8pm"}],"vName":"Corner Hotel"},"type":"Feature"},{"geometry":{"coordinates":[144.9785611,-37.7965465],"type":"Point"},"properties":{"events":[{"categories":["Music"],"eDate":"2025-04-24","eName":"Cousin Tony’s Brand New Firebird","genre":"Rock","price":"$35.20","supports":[],"ticketUrl":null,"time":" 8pm"}],"vName":"Evelyn Hotel"},"type":"Feature"},{"geometry":{"coordinates":[144.983442,-37.804851],"type":"Point"},"properties":{"events":[{"categories":["Music"],"eDate":"2025-04-24","eName":"UGLIEBOY","genre":"Indie","price":"$10.00 - 20.00","supports":["Olza"," DJ NOV3L"," DJ UrPerfectFriend"],"ticketUrl":null,"time":" 7:30pm"},{"categories":["Music","Other \"Art \""],"eDate":"2025-04-24","eName":"Sightings x Nice Music","genre":"Experimental","price":"$10.00 - 15.00","supports":["Plastic Loaves"],"ticketUrl":null,"time":" 7:30pm"},{"categories":["Music"],"eDate":"2025-04-24","eName":"A Night In Celebration Of Something Moody","genre":null,"price":"$10.00 - 20.00","supports":["Olza"," N0V3L"," UrPerfectFriend"],"ticketUrl":null,"time":" 7:30pm"}],"vName":"Grace Darling Hotel"},"type":"Feature"},{"geometry":{"coordinates":[144.9596527,-37.7720304],"type":"Point"},"properties":{"events":[{"categories":["Music"],"eDate":"2025-04-24","eName":"Crooked Colours","genre":"Electronic","price":"$33.66 - 38.76","supports":[],"ticketUrl":null,"time":" 8pm"}],"vName":"Howler"},"type":"Feature"},{"geometry":{"coordinates":[144.8984802,-37.8111559],"type":"Point"},"properties":{"events":[{"categories":["Music"],"eDate":"2025-04-24","eName":"Robbie Bundle","genre":"Electronic","price":"Free","supports":[],"ticketUrl":null,"time":" 2pm"}],"vName":"Kindred Bandroom"},"type":"Feature"},{"geometry":{"coordinates":[144.9936498,-37.8000264],"type":"Point"},"properties":{"events":[{"categories":["Music"],"eDate":"2025-04-24","eName":"Tom Petty Tribute","genre":"Rock","price":"Free","supports":[],"ticketUrl":null,"time":" 8pm"}],"vName":"Lulie Tavern"},"type":"Feature"},{"geometry":{"coordinates":[144.9658499,-37.8147453],"type":"Point"},"properties":{"events":[{"categories":["Music"],"eDate":"2025-04-24","eName":"OPIUO","genre":"Electronic","price":"$54.10 - 65.80","supports":[],"ticketUrl":null,"time":" 9pm"}],"vName":"Max Watt's (Melbourne)"},"type":"Feature"},{"geometry":{"coordinates":[144.9675876,-37.8240849],"type":"Point"},"properties":{"events":[{"categories":["Music"],"eDate":"2025-04-24","eName":"RY X","genre":"Indie","price":"$69.00 - 89.00","supports":["Indigo Sparke"],"ticketUrl":null,"time":" 7:30pm"}],"vName":"Melbourne Recital Centre"},"type":"Feature"},{"geometry":{"coordinates":[144.9790251,-37.8675008],"type":"Point"},"properties":{"events":[{"categories":["Music"],"eDate":"2025-04-24","eName":"Hermosa Sounds: An Evening of Female Voices","genre":"Indie","price":"$20.00 - 30.00","supports":[],"ticketUrl":null,"time":" 7pm"},{"categories":["Music"],"eDate":"2025-04-24","eName":"Into The Mystic: The Music Of Van Morrison","genre":"Soul/Funk","price":"$59.00 - 79.00","supports":["Lindsay Field"," Steve Wade"," Brett Garsed"],"ticketUrl":null,"time":" 7pm"}],"vName":"Memo Music Hall"},"type":"Feature"},{"geometry":{"coordinates":[144.998414,-37.771471],"type":"Point"},"properties":{"events":[{"categories":["Music"],"eDate":"2025-04-24","eName":"Tentendo","genre":"Electronic","price":"$29.10","supports":[],"ticketUrl":null,"time":" 8pm"}],"vName":"Northcote Social Club"},"type":"Feature"},{"geometry":{"coordinates":[145.0015248,-37.8258878],"type":"Point"},"properties":{"events":[{"categories":["Music"],"eDate":"2025-04-24","eName":"Surrounded By Sound: Kraftwerk","genre":"Electronic","price":"$12.25","supports":[],"ticketUrl":null,"time":" 7pm"}],"vName":"Odeon Richmond"},"type":"Feature"},{"geometry":{"coordinates":[144.96084,-37.813514],"type":"Point"},"properties":{"events":[{"categories":["Music"],"eDate":"2025-04-24","eName":"The Daryl McKenzie Jazz Orchestra with Nina Ferro","genre":"Jazz","price":"$45.00","supports":[],"ticketUrl":null,"time":" 7:30pm"},{"categories":["Music"],"eDate":"2025-04-24","eName":"Johnstone/Neal/Spicer featuring Tim Stocker: The Organ Cookbook","genre":"Blues","price":"$45.00","supports":[],"ticketUrl":null,"time":" 8pm"}],"vName":"Paris Cat Jazz Club"},"type":"Feature"},{"geometry":{"coordinates":[144.9583409,-37.7664168],"type":"Point"},"properties":{"events":[{"categories":["Music","Other \"Dance \""],"eDate":"2025-04-24","eName":"Country Struts – Brunswick Thursdays","genre":"Country/Folk","price":"$16.50","supports":[],"ticketUrl":null,"time":" 6pm"}],"vName":"Quadraphonic Club"},"type":"Feature"},{"geometry":{"coordinates":[145.0142411,-37.7310367],"type":"Point"},"properties":{"events":[{"categories":["Free","Music"],"eDate":"2025-04-24","eName":"Open Mic @ Ragtime Tavern","genre":"Acoustic","price":"Free","supports":[],"ticketUrl":null,"time":" 7pm"}],"vName":"Ragtime Tavern"},"type":"Feature"},{"geometry":{"coordinates":[144.9615882,-37.7711432],"type":"Point"},"properties":{"events":[{"categories":["Music"],"eDate":"2025-04-24","eName":"Live Slug Reaction","genre":"Rock","price":"$20.00","supports":["Operation:"," Sponge"],"ticketUrl":null,"time":" 7:30pm"}],"vName":"Retreat Hotel"},"type":"Feature"},{"geometry":{"coordinates":[144.993413,-37.8506652],"type":"Point"},"properties":{"events":[{"categories":["Music"],"eDate":"2025-04-24","eName":"PBS 106.7FM presents Midnight Driver","genre":"Electronic","price":"$26.52","supports":[],"ticketUrl":null,"time":" 9pm"}],"vName":"Revolver Upstairs"},"type":"Feature"},{"geometry":{"coordinates":[145.0013923,-37.7559265],"type":"Point"},"properties":{"events":[{"categories":["Free","Music"],"eDate":"2025-04-24","eName":"The Seven Ups","genre":"Rock","price":"Free","supports":["Brown Spirits"],"ticketUrl":null,"time":" 8pm"}],"vName":"Shotkickers"},"type":"Feature"},{"geometry":{"coordinates":[145.3534507,-37.9100746],"type":"Point"},"properties":{"events":[{"categories":["Music"],"eDate":"2025-04-24","eName":"The Audreys","genre":"Country/Folk","price":"$47.95","supports":["Anya Alchemy"],"ticketUrl":null,"time":" 7pm"}],"vName":"Sooki Lounge"},"type":"Feature"},{"geometry":{"coordinates":[144.9607404,-37.7743469],"type":"Point"},"properties":{"events":[{"categories":["Music"],"eDate":"2025-04-24","eName":"Kevin Silvester: Live","genre":"Pop","price":"$19.99","supports":["Terra Rouge"," GetJaxxed"],"ticketUrl":null,"time":" 7pm"}],"vName":"Stay Gold"},"type":"Feature"},{"geometry":{"coordinates":[144.9706211,-37.778276],"type":"Point"},"properties":{"events":[{"categories":["Music"],"eDate":"2025-04-24","eName":"Outlaws & Troubadours: Elly McK & The Unbelievers","genre":"Country/Folk","price":"Free","supports":["No Sleep Till Texas"," Nathan Seeckts"],"ticketUrl":null,"time":" 8:30pm"}],"vName":"The Beast"},"type":"Feature"},{"geometry":{"coordinates":[144.9555612,-37.8066759],"type":"Point"},"properties":{"events":[{"categories":["Free","Music"],"eDate":"2025-04-24","eName":"Moreland City Soul Review","genre":"Soul/Funk","price":"Free","supports":[],"ticketUrl":null,"time":" 8pm"}],"vName":"The Drunken Poet"},"type":"Feature"},{"geometry":{"coordinates":[144.9586498,-37.766903],"type":"Point"},"properties":{"events":[{"categories":["Music"],"eDate":"2025-04-24","eName":"UNFORESEEN by Barney McAll","genre":"Jazz","price":"$25.00 - 30.00","supports":[],"ticketUrl":null,"time":" 7:30pm"}],"vName":"The Jazzlab"},"type":"Feature"},{"geometry":{"coordinates":[144.9463641,-37.8047757],"type":"Point"},"properties":{"events":[{"categories":["Music"],"eDate":"2025-04-24","eName":"ANTIPODE Presents: Emo Music 001","genre":"Indie","price":"$16.35","supports":[],"ticketUrl":null,"time":" 8pm"}],"vName":"The Last Chance Rock & Roll Bar"},"type":"Feature"},{"geometry":{"coordinates":[144.9800067,-37.76712],"type":"Point"},"properties":{"events":[{"categories":["Music"],"eDate":"2025-04-24","eName":"Lowie Live Presents Brooklyn ’86","genre":"Jazz","price":"$15.00","supports":[],"ticketUrl":null,"time":" 8:30pm"}],"vName":"The Lomond Hotel"},"type":"Feature"},{"geometry":{"coordinates":[144.9794553,-37.7982653],"type":"Point"},"properties":{"events":[{"categories":["Music"],"eDate":"2025-04-24","eName":"FUKHED","genre":"Electronic","price":"$39.90","supports":["Claire O'Brien"," Dondy"," Romiindahouse"],"ticketUrl":null,"time":"10pm"}],"vName":"The Night Cat"},"type":"Feature"},{"geometry":{"coordinates":[145.1818891,-37.8163371],"type":"Point"},"properties":{"events":[{"categories":["Music"],"eDate":"2025-04-24","eName":"Jazz After Dark: Blackburn High School","genre":"Jazz","price":"$25.00","supports":[],"ticketUrl":null,"time":" 6pm"}],"vName":"The Round"},"type":"Feature"},{"geometry":{"coordinates":[144.9870814,-37.799406],"type":"Point"},"properties":{"events":[{"categories":["Music"],"eDate":"2025-04-24","eName":"Porpoise Spit","genre":"Rock","price":"$28.60","supports":["Simona Castricum"," Michael Beach/Units of Measurement"],"ticketUrl":null,"time":" 8pm"},{"categories":["Music"],"eDate":"2025-04-24","eName":"Brian El Dorado & The Tuesday People","genre":"Rock","price":"$16.35","supports":["Those Tremblin Hands"," The Bartons"],"ticketUrl":null,"time":" 8pm"}],"vName":"The Tote Hotel"},"type":"Feature"},{"geometry":{"coordinates":[144.9769451,-37.8055776],"type":"Point"},"properties":{"events":[{"categories":["Music"],"eDate":"2025-04-24","eName":"Break Point!: Seven Pound Halo","genre":"Rock","price":"$17.85","supports":["Cass Aware"," Star Jock"],"ticketUrl":null,"time":" 7pm"}],"vName":"The Workers Club"},"type":"Feature"},{"geometry":{"coordinates":[144.9618781,-37.8126316],"type":"Point"},"properties":{"events":[{"categories":["Free","Music"],"eDate":"2025-04-24","eName":"Inner Sanctuary FEAT: DJ JNETT + Jimmy James","genre":null,"price":"Free","supports":[],"ticketUrl":null,"time":" 3pm"}],"vName":"Whitehart Bar"},"type":"Feature"}],"type":"FeatureCollection"}