{"features":[{"geometry":{"coordinates":[144.99828116650363,-37.7713296],"type":"Point"},"properties":{"events":[{"categories":["Free","Music"],"eDate":"2025-03-08","eName":"The Clunk Orchestra","genre":"Jazz","price":"Free","supports":[],"ticketUrl":null,"time":" 4:30pm"},{"categories":["Music"],"eDate":"2025-03-08","eName":"Wobbygong","genre":"Rock","price":"$20.00","supports":["Walls & Waves"," Empirical Prey"],"ticketUrl":null,"time":" 8pm"}],"vName":"Bar 303"},"type":"Feature"},{"geometry":{"coordinates":[144.978682,-37.7981225],"type":"Point"},"properties":{"events":[{"categories":["Free","Music"],"eDate":"2025-03-08","eName":"Tejo D'Cruz","genre":null,"price":"Free","supports":[],"ticketUrl":null,"time":" 9pm"},{"categories":["Music"],"eDate":"2025-03-08","eName":"DJ Gerry Murphy","genre":"Electronic","price":"Free","supports":[],"ticketUrl":null,"time":"10pm"}],"vName":"Baxter's Lot"},"type":"Feature"},{"geometry":{"coordinates":[144.98911674151407,-37.79964875],"type":"Point"},"properties":{"events":[{"categories":["Music"],"eDate":"2025-03-08","eName":"Her Trash","genre":"Punk","price":"$12.25","supports":["Eddy St"," Powder Blue"],"ticketUrl":null,"time":" 8:30pm"},{"categories":["Music"],"eDate":"2025-03-08","eName":"Ironstone","genre":"Metal","price":"$17.35","supports":["Druid"," Roswell Deathsquad"," Tiger Driver"],"ticketUrl":null,"time":" 8:30pm"}],"vName":"Bendigo Hotel"},"type":"Feature"},{"geometry":{"coordinates":[144.9607158,-37.776327],"type":"Point"},"properties":{"events":[{"categories":["Music"],"eDate":"2025-03-08","eName":"Soft Focus","genre":"Rock","price":"$15.00","supports":[],"ticketUrl":null,"time":" 7pm"}],"vName":"Bergy Bandroom"},"type":"Feature"},{"geometry":{"coordinates":[144.9567859,-37.8111049],"type":"Point"},"properties":{"events":[{"categories":["Music"],"eDate":"2025-03-08","eName":"Alma Zygier","genre":"Jazz","price":"$38.00","supports":[],"ticketUrl":null,"time":" 6pm"}],"vName":"Bird's Basement"},"type":"Feature"},{"geometry":{"coordinates":[144.9617018,-37.7704566],"type":"Point"},"properties":{"events":[{"categories":["Music"],"eDate":"2025-03-08","eName":"Sweethearts: International Womens Day","genre":"Soul/Funk","price":"$17.95","supports":["Patrick Wilson"," Liam Wright"," Ruby Jones"],"ticketUrl":null,"time":" 2pm"},{"categories":["Music"],"eDate":"2025-03-08","eName":"Yacht Rock Revival","genre":"Soul/Funk","price":"$54.67","supports":[],"ticketUrl":null,"time":" 8:30pm"}],"vName":"Brunswick Ballroom"},"type":"Feature"},{"geometry":{"coordinates":[144.9713425,-37.8128595],"type":"Point"},"properties":{"events":[{"categories":["Music"],"eDate":"2025-03-08","eName":"Large Mirage","genre":"Rock","price":"$17.48","supports":["Holiday Mystics"],"ticketUrl":null,"time":" 8pm"},{"categories":["Free","Music"],"eDate":"2025-03-08","eName":"Fontaines DC: DJ Set & After Show Party","genre":"Rock","price":"Free","supports":[],"ticketUrl":null,"time":"11pm"}],"vName":"Cherry Bar"},"type":"Feature"},{"geometry":{"coordinates":[145.0006024,-37.8837941],"type":"Point"},"properties":{"events":[{"categories":["Music"],"eDate":"2025-03-08","eName":"Peter Baylor's Ultrafox Quartet","genre":"Jazz","price":"$25.00 - 30.00","supports":[],"ticketUrl":null,"time":" 8pm"}],"vName":"Classic Southside"},"type":"Feature"},{"geometry":{"coordinates":[144.99266639479475,-37.82488935],"type":"Point"},"properties":{"events":[{"categories":["Music"],"eDate":"2025-03-08","eName":"Daily J","genre":"Rock","price":"$39.90","supports":["Flaxxies"],"ticketUrl":null,"time":" 8:30pm"}],"vName":"Corner Hotel"},"type":"Feature"},{"geometry":{"coordinates":[144.96947,-37.816565],"type":"Point"},"properties":{"events":[{"categories":["Music"],"eDate":"2025-03-08","eName":"Durand Jones & The Indications","genre":"R&B","price":"$79.90","supports":[],"ticketUrl":null,"time":" 8pm"}],"vName":"Forum Melbourne"},"type":"Feature"},{"geometry":{"coordinates":[144.98535244416098,-37.79426315],"type":"Point"},"properties":{"events":[{"categories":["Music"],"eDate":"2025-03-08","eName":"Dear Matilda","genre":"Punk","price":"$14.30","supports":["Tiarnie"," Get Jaxxed"],"ticketUrl":null,"time":" 8pm"}],"vName":"Gasometer Hotel"},"type":"Feature"},{"geometry":{"coordinates":[144.9679835243618,-37.8201575],"type":"Point"},"properties":{"events":[{"categories":["Music"],"eDate":"2025-03-08","eName":"Joined with Gold","genre":"Classical","price":"$75.00","supports":[],"ticketUrl":null,"time":" 7:30pm"}],"vName":"Hamer Hall (Arts Centre Melbourne)"},"type":"Feature"},{"geometry":{"coordinates":[144.973013,-37.8640582],"type":"Point"},"properties":{"events":[{"categories":["Music"],"eDate":"2025-03-08","eName":"Felipe Baldomir","genre":"Indie","price":"$34.90","supports":[],"ticketUrl":null,"time":" 5pm"}],"vName":"Hotel Esplanade (aka The Espy)"},"type":"Feature"},{"geometry":{"coordinates":[144.9596527,-37.7720304],"type":"Point"},"properties":{"events":[{"categories":["Music"],"eDate":"2025-03-08","eName":"Buck Meek & His Band","genre":"Indie","price":"$53.55","supports":["Germaine Dunes"],"ticketUrl":null,"time":" 8pm"}],"vName":"Howler"},"type":"Feature"},{"geometry":{"coordinates":[145.0355738,-37.8205529],"type":"Point"},"properties":{"events":[{"categories":["Music"],"eDate":"2025-03-08","eName":"Debra La Velle Quartet","genre":"Jazz","price":"$25.00 - 30.00","supports":[],"ticketUrl":null,"time":" 8pm"}],"vName":"Lido Jazz Room"},"type":"Feature"},{"geometry":{"coordinates":[144.8971518,-37.8054274],"type":"Point"},"properties":{"events":[{"categories":["Music"],"eDate":"2025-03-08","eName":"Bella Deer","genre":null,"price":"$20.00 - 25.00","supports":[],"ticketUrl":null,"time":" 7:30pm"}],"vName":"Mamma Chen's"},"type":"Feature"},{"geometry":{"coordinates":[144.9659879,-37.8147557],"type":"Point"},"properties":{"events":[{"categories":["Music"],"eDate":"2025-03-08","eName":"Day Shift","genre":"Pop","price":"$35.20 - 43.90","supports":[],"ticketUrl":null,"time":" 4pm"},{"categories":["Music"],"eDate":"2025-03-08","eName":"Best Of Both Worlds Presents High School Musical Party","genre":"Pop","price":"$13.30 - 22.00","supports":[],"ticketUrl":null,"time":"10pm"}],"vName":"Max Watt's (Melbourne)"},"type":"Feature"},{"geometry":{"coordinates":[144.9786817,-37.8671902],"type":"Point"},"properties":{"events":[{"categories":["Music"],"eDate":"2025-03-08","eName":"Chain: A Celebration of 57 Years","genre":"Blues","price":"$35.00 - 55.00","supports":[],"ticketUrl":null,"time":" 7pm"}],"vName":"Memo Music Hall"},"type":"Feature"},{"geometry":{"coordinates":[144.9712356,-37.812902],"type":"Point"},"properties":{"events":[{"categories":["Comedy"],"eDate":"2025-03-08","eName":"Basement Comedy Club","genre":null,"price":"$25.00","supports":[],"ticketUrl":null,"time":" 8pm"}],"vName":"Morris House"},"type":"Feature"},{"geometry":{"coordinates":[144.9977626,-37.7755001],"type":"Point"},"properties":{"events":[{"categories":["Music"],"eDate":"2025-03-08","eName":"Digable Planets: Blowout Comb 30th Anniversary Tour","genre":"Hip Hop","price":"$79.90","supports":[],"ticketUrl":null,"time":" 7:30pm"}],"vName":"Northcote Theatre"},"type":"Feature"},{"geometry":{"coordinates":[144.97711,-37.79833],"type":"Point"},"properties":{"events":[{"categories":["Free","Music"],"eDate":"2025-03-08","eName":"Charlie & The Enablers + Pepper La Floyd","genre":"Rock","price":"Free","supports":[],"ticketUrl":null,"time":" 3:30pm"}],"vName":"Old Bar"},"type":"Feature"},{"geometry":{"coordinates":[144.9605705,-37.8132486],"type":"Point"},"properties":{"events":[{"categories":["Music"],"eDate":"2025-03-08","eName":"Not So Big Band: An Evening In La La Land with Amelia Evans","genre":"Jazz","price":"$48.00","supports":[],"ticketUrl":null,"time":" 6pm"},{"categories":["Music"],"eDate":"2025-03-08","eName":"Emma Gilmartin Quartet with James Sherlock","genre":"Jazz","price":"$45.00","supports":[],"ticketUrl":null,"time":" 6:30pm"},{"categories":["Music"],"eDate":"2025-03-08","eName":"Not So Big Band: An Evening In La La Land with Amelia Evans","genre":"Jazz","price":"$48.00","supports":[],"ticketUrl":null,"time":" 9pm"},{"categories":["Music"],"eDate":"2025-03-08","eName":"The Shuffle Club","genre":"Jazz","price":"$45.00","supports":[],"ticketUrl":null,"time":" 9:30pm"}],"vName":"Paris Cat Jazz Club"},"type":"Feature"},{"geometry":{"coordinates":[144.90239079583333,-37.79990865],"type":"Point"},"properties":{"events":[{"categories":["Free","Music"],"eDate":"2025-03-08","eName":"Saturday Night Party","genre":"Electronic","price":"Free","supports":[],"ticketUrl":null,"time":"10pm"}],"vName":"Pride Of Our Footscray Community Bar"},"type":"Feature"},{"geometry":{"coordinates":[144.9615882,-37.7711432],"type":"Point"},"properties":{"events":[{"categories":["Music"],"eDate":"2025-03-08","eName":"International Women's Day at The Retreat","genre":"Indie","price":"$12.25","supports":[],"ticketUrl":null,"time":" 2pm"}],"vName":"Retreat Hotel"},"type":"Feature"},{"geometry":{"coordinates":[144.9607404,-37.7743469],"type":"Point"},"properties":{"events":[{"categories":["Music"],"eDate":"2025-03-08","eName":"Emo AF: Still Not A Phase","genre":"Punk","price":"$11.65","supports":["As A Rival"],"ticketUrl":null,"time":" 8pm"},{"categories":["Music"],"eDate":"2025-03-08","eName":"Taking Back Saturday: 9th Birthday","genre":"Punk","price":"$13.80 - 22.00","supports":[],"ticketUrl":null,"time":"11pm"}],"vName":"Stay Gold"},"type":"Feature"},{"geometry":{"coordinates":[144.9706095,-37.7783326],"type":"Point"},"properties":{"events":[{"categories":["Music"],"eDate":"2025-03-08","eName":"Ben Mastwyk & His Millions","genre":"Country/Folk","price":"Free","supports":["Misty Harlowe"," Disco Rodeo Boot Scooting"],"ticketUrl":null,"time":" 7pm"}],"vName":"The Beast"},"type":"Feature"},{"geometry":{"coordinates":[144.958676,-37.7669571],"type":"Point"},"properties":{"events":[{"categories":["Music"],"eDate":"2025-03-08","eName":"Josean Jacobo","genre":"Jazz","price":"$45.00","supports":[],"ticketUrl":null,"time":" 8pm"}],"vName":"The Jazzlab"},"type":"Feature"},{"geometry":{"coordinates":[144.9708437,-37.7973184],"type":"Point"},"properties":{"events":[{"categories":["Free","Music"],"eDate":"2025-03-08","eName":"Jazz Arvos","genre":"Jazz","price":"Free","supports":[],"ticketUrl":null,"time":" 5pm"},{"categories":["Comedy"],"eDate":"2025-03-08","eName":"The Big HOO HAA!","genre":null,"price":"$30.39","supports":[],"ticketUrl":null,"time":" 8:30pm"}],"vName":"The Motley Bauhaus"},"type":"Feature"},{"geometry":{"coordinates":[144.9830837,-37.7988316],"type":"Point"},"properties":{"events":[{"categories":["Music"],"eDate":"2025-03-08","eName":"Chillinit","genre":"Hip Hop","price":"$54.90","supports":[],"ticketUrl":null,"time":" 7:30pm"},{"categories":["Music"],"eDate":"2025-03-08","eName":"Lady Gaga: Mayhem Party","genre":"Pop","price":"$14.27 - 22.00","supports":[],"ticketUrl":null,"time":"11pm"}],"vName":"The Night Cat"},"type":"Feature"},{"geometry":{"coordinates":[144.9651425,-37.8119429],"type":"Point"},"properties":{"events":[{"categories":["Free","Music"],"eDate":"2025-03-08","eName":"Hot Tropics","genre":"Jazz","price":"Free","supports":[],"ticketUrl":null,"time":" 9pm"}],"vName":"The Toff In Town"},"type":"Feature"},{"geometry":{"coordinates":[144.9846126,-37.7989941],"type":"Point"},"properties":{"events":[{"categories":["Music"],"eDate":"2025-03-08","eName":"Bek's Birthday Blowout","genre":null,"price":"Free","supports":[],"ticketUrl":null,"time":" 2:30pm"},{"categories":["Music"],"eDate":"2025-03-08","eName":"The Gems","genre":"Rock","price":"$24.50","supports":["The 1980s"," Harminia"],"ticketUrl":null,"time":" 7:30pm"},{"categories":["Music"],"eDate":"2025-03-08","eName":"VOIID","genre":null,"price":"$23.50","supports":["Post Heaven"," Gush"," Marionette"],"ticketUrl":null,"time":" 8pm"}],"vName":"The Tote Hotel"},"type":"Feature"},{"geometry":{"coordinates":[144.9769450659087,-37.8055776],"type":"Point"},"properties":{"events":[{"categories":["Music"],"eDate":"2025-03-08","eName":"The Pearlies","genre":"Indie","price":"$17.85","supports":["Midnight Violet"," Antenna"],"ticketUrl":null,"time":" 8pm"}],"vName":"The Workers Club"},"type":"Feature"}],"type":"FeatureCollection"}