{"features":[{"geometry":{"coordinates":[144.9500257,-37.8032773],"type":"Point"},"properties":{"events":[{"categories":["Free","Art"],"eDate":"2024-03-30","eName":"ನಿರೀಕ್ಷಣೆ nireekshane","genre":null,"price":"Free","supports":[],"ticketUrl":null,"time":"11am"}],"vName":"Arts House"},"type":"Feature"},{"geometry":{"coordinates":[144.9763781,-37.7983136],"type":"Point"},"properties":{"events":[{"categories":["Music"],"eDate":"2024-03-30","eName":"YNG MARTYR","genre":"Hip Hop","price":"$23.50","supports":[],"ticketUrl":null,"time":" 7:30pm"},{"categories":["Free","Music"],"eDate":"2024-03-30","eName":"Electric Callboy Party","genre":null,"price":"Free","supports":[],"ticketUrl":null,"time":"10pm"}],"vName":"Bad Decisions Bar"},"type":"Feature"},{"geometry":{"coordinates":[144.98911674151407,-37.79964875],"type":"Point"},"properties":{"events":[{"categories":["Music"],"eDate":"2024-03-30","eName":"The Bendi's Last Gig: The Vultures","genre":"Rock","price":"$18.91","supports":["Bitch Eyes"," The Glamour"],"ticketUrl":null,"time":" 6pm"}],"vName":"Bendigo Hotel"},"type":"Feature"},{"geometry":{"coordinates":[145.00041662186553,-37.76125825],"type":"Point"},"properties":{"events":[{"categories":["Music"],"eDate":"2024-03-30","eName":"Easter Fest","genre":null,"price":"$10.00","supports":["Day Dreamers"," They Might Be Dead Frogs"],"ticketUrl":null,"time":" 8pm"}],"vName":"Cactus Room"},"type":"Feature"},{"geometry":{"coordinates":[144.9713425,-37.8128595],"type":"Point"},"properties":{"events":[{"categories":["Music"],"eDate":"2024-03-30","eName":"Goons Of Doom","genre":"Rock","price":"$27.70","supports":["Doleman Child"," Purple Disturbance"],"ticketUrl":null,"time":" 8pm"}],"vName":"Cherry Bar"},"type":"Feature"},{"geometry":{"coordinates":[144.9628440552175,-37.76100605],"type":"Point"},"properties":{"events":[{"categories":["Music"],"eDate":"2024-03-30","eName":"Superstar DJ's: DJ Crispi","genre":"Electronic","price":"Free","supports":[],"ticketUrl":null,"time":" 9pm"}],"vName":"Edinburgh Castle Hotel"},"type":"Feature"},{"geometry":{"coordinates":[144.9875917,-37.7963837],"type":"Point"},"properties":{"events":[{"categories":["Free","Music"],"eDate":"2024-03-30","eName":"Goldtuth + Submarines","genre":"Rock","price":"Free","supports":[],"ticketUrl":null,"time":" 4pm"},{"categories":["Free","Music"],"eDate":"2024-03-30","eName":"Fandango + DJ Shauna Ceratops","genre":"Rock","price":"Free","supports":[],"ticketUrl":null,"time":" 8pm"}],"vName":"Gem Bar"},"type":"Feature"},{"geometry":{"coordinates":[144.97711,-37.79833],"type":"Point"},"properties":{"events":[{"categories":["Music"],"eDate":"2024-03-30","eName":"FLY!","genre":"Rock","price":"$11.25","supports":["Aardvark"," Persecution Blues"],"ticketUrl":null,"time":" 8pm"}],"vName":"Old Bar"},"type":"Feature"},{"geometry":{"coordinates":[144.9631913,-37.7617818],"type":"Point"},"properties":{"events":[{"categories":["Music"],"eDate":"2024-03-30","eName":"Sweet Nothing","genre":"Indie","price":"$15.00","supports":["Dinosaur Alan"," Mellowtonic"],"ticketUrl":null,"time":" 8pm"}],"vName":"Ringo Barr"},"type":"Feature"},{"geometry":{"coordinates":[144.965405,-37.8117457],"type":"Point"},"properties":{"events":[{"categories":["Free","Music"],"eDate":"2024-03-30","eName":"Natty House Party","genre":"Electronic","price":"Free","supports":[],"ticketUrl":null,"time":" 6pm"}],"vName":"Section 8"},"type":"Feature"},{"geometry":{"coordinates":[145.001392343033,-37.75592655],"type":"Point"},"properties":{"events":[{"categories":["Music","Markets","Art"],"eDate":"2024-03-30","eName":"Hell Fuck Yeah: Artists VS The News","genre":null,"price":"$13.25","supports":[],"ticketUrl":null,"time":" 5pm"}],"vName":"Shotkickers"},"type":"Feature"},{"geometry":{"coordinates":[144.9706095,-37.7783326],"type":"Point"},"properties":{"events":[{"categories":["Free","Music"],"eDate":"2024-03-30","eName":"Susan","genre":"Rock","price":"Free","supports":["ScarnOn"],"ticketUrl":null,"time":" 9pm"}],"vName":"The Beast"},"type":"Feature"},{"geometry":{"coordinates":[144.9651425,-37.8119429],"type":"Point"},"properties":{"events":[{"categories":["Comedy"],"eDate":"2024-03-30","eName":"Comedy & Cocktails","genre":null,"price":"$35.50","supports":[],"ticketUrl":null,"time":" 4pm"},{"categories":["Free","Music"],"eDate":"2024-03-30","eName":"Ballare","genre":"Electronic","price":"Free","supports":["Brother Julian"," Mythtapes"," more"],"ticketUrl":null,"time":"11pm"}],"vName":"The Toff In Town"},"type":"Feature"},{"geometry":{"coordinates":[144.9846126,-37.7989941],"type":"Point"},"properties":{"events":[{"categories":["Music"],"eDate":"2024-03-30","eName":"Grim Rhythm","genre":"Rock","price":"$11.25","supports":["Sweet Nothing"],"ticketUrl":null,"time":" 7:30pm"},{"categories":["Music"],"eDate":"2024-03-30","eName":"GROND","genre":"Punk","price":"$11.25","supports":["Licklash"," Kill Bell"," Maggie Slater"],"ticketUrl":null,"time":" 8pm"},{"categories":["Music"],"eDate":"2024-03-30","eName":"The Judges","genre":"Rock","price":"$16.35","supports":["Red Hell"," The States"],"ticketUrl":null,"time":" 8pm"},{"categories":["Free","Music"],"eDate":"2024-03-30","eName":"Munted Chunts (1am Show)","genre":"Punk","price":"Free","supports":[],"ticketUrl":null,"time":"11:30pm"}],"vName":"The Tote Hotel"},"type":"Feature"},{"geometry":{"coordinates":[144.9769450659087,-37.8055776],"type":"Point"},"properties":{"events":[{"categories":["Music"],"eDate":"2024-03-30","eName":"Unsacred Saturday: Escarion","genre":"Metal","price":"$18.10","supports":["308"," Rise From Ashes"," Roswell Deathsquad"," Pendle Hill"," He Who Seeks Vengeance"," Void Out"],"ticketUrl":null,"time":" 4:30pm"}],"vName":"The Workers Club"},"type":"Feature"},{"geometry":{"coordinates":[144.9618426,-37.8125531],"type":"Point"},"properties":{"events":[{"categories":["Free","Music","Other \"Food & Drink\""],"eDate":"2024-03-30","eName":"Restless: House Edition","genre":"Soul/Funk","price":"Free","supports":["Vibecult"," more"],"ticketUrl":null,"time":" 5pm"}],"vName":"Whitehart Bar"},"type":"Feature"}],"type":"FeatureCollection"}