{"features":[{"geometry":{"coordinates":[144.9679369,-37.8120109],"type":"Point"},"properties":{"events":[{"categories":["Music"],"eDate":"2025-06-21","eName":"Old Mervs (Under 18s Gig)","genre":"Rock","price":"$55.00","supports":[],"ticketUrl":null,"time":"12pm"}],"vName":"170 Russell"},"type":"Feature"},{"geometry":{"coordinates":[144.9982812,-37.7713296],"type":"Point"},"properties":{"events":[{"categories":["Music"],"eDate":"2025-06-21","eName":"FUA DA CHITA","genre":"Global","price":"Free","supports":[],"ticketUrl":null,"time":" 6pm"},{"categories":["Music"],"eDate":"2025-06-21","eName":"Rudi Soundsystem","genre":"Global","price":"Free","supports":[],"ticketUrl":null,"time":" 8pm"}],"vName":"Bar 303"},"type":"Feature"},{"geometry":{"coordinates":[144.978682,-37.7981225],"type":"Point"},"properties":{"events":[{"categories":["Free","Music"],"eDate":"2025-06-21","eName":"Lewis Toms","genre":null,"price":"Free","supports":[],"ticketUrl":null,"time":" 9pm"},{"categories":["Free","Music"],"eDate":"2025-06-21","eName":"DJ Nomar Jr","genre":null,"price":"Free","supports":[],"ticketUrl":null,"time":"10pm"}],"vName":"Baxter's Lot"},"type":"Feature"},{"geometry":{"coordinates":[144.609835,-38.1379811],"type":"Point"},"properties":{"events":[{"categories":["Free","Music"],"eDate":"2025-06-21","eName":"Phil & Denzil Para: Beyond Blues","genre":"Blues","price":"Free","supports":[],"ticketUrl":null,"time":" 7pm"}],"vName":"Bellarine Estate"},"type":"Feature"},{"geometry":{"coordinates":[144.9891167,-37.7996488],"type":"Point"},"properties":{"events":[{"categories":["Music"],"eDate":"2025-06-21","eName":"Paradise Valley","genre":"Rock","price":"$17.35","supports":["Emma Yue"," Skiptons"],"ticketUrl":null,"time":" 8pm"}],"vName":"Bendigo Hotel"},"type":"Feature"},{"geometry":{"coordinates":[144.9568039,-37.8111442],"type":"Point"},"properties":{"events":[{"categories":["Music"],"eDate":"2025-06-21","eName":"Diana Rouvas","genre":"Pop","price":"$40.00","supports":[],"ticketUrl":null,"time":" 7:30pm"}],"vName":"Bird's Basement"},"type":"Feature"},{"geometry":{"coordinates":[145.0004166,-37.7612582],"type":"Point"},"properties":{"events":[{"categories":["Music"],"eDate":"2025-06-21","eName":"Cassells","genre":"Indie","price":"$15.00","supports":["Clover Blue"," Felix Worner"],"ticketUrl":null,"time":" 2pm"},{"categories":["Music"],"eDate":"2025-06-21","eName":"Kyle Brew","genre":"Rock","price":"$18.90","supports":["Headspin"," The Ironbark Brothers"," Jerrold"],"ticketUrl":null,"time":" 8pm"}],"vName":"Cactus Room"},"type":"Feature"},{"geometry":{"coordinates":[144.9693768,-37.8164414],"type":"Point"},"properties":{"events":[{"categories":["Music"],"eDate":"2025-06-21","eName":"Kisschasy","genre":"Punk","price":"Free","supports":["Sly Withers"," Suzi"],"ticketUrl":null,"time":" 7pm"}],"vName":"Forum Melbourne"},"type":"Feature"},{"geometry":{"coordinates":[144.9780305,-37.8599731],"type":"Point"},"properties":{"events":[{"categories":["Music"],"eDate":"2025-06-21","eName":"Maggie Carty","genre":"Country/Folk","price":"$20.00","supports":[],"ticketUrl":null,"time":" 2:30pm"}],"vName":"George Lane"},"type":"Feature"},{"geometry":{"coordinates":[144.9679835,-37.8201575],"type":"Point"},"properties":{"events":[{"categories":["Music"],"eDate":"2025-06-21","eName":"Classic 100 in Concert","genre":"Classical","price":"$64.00","supports":[],"ticketUrl":null,"time":" 2pm"}],"vName":"Hamer Hall (Arts Centre Melbourne)"},"type":"Feature"},{"geometry":{"coordinates":[144.973013,-37.8640582],"type":"Point"},"properties":{"events":[{"categories":["Music"],"eDate":"2025-06-21","eName":"Squid The Kid","genre":"Hip Hop","price":"$20.00","supports":[],"ticketUrl":null,"time":" 7:30pm"}],"vName":"Hotel Esplanade (aka The Espy)"},"type":"Feature"},{"geometry":{"coordinates":[144.8975289,-37.8022392],"type":"Point"},"properties":{"events":[{"categories":["Free","Music"],"eDate":"2025-06-21","eName":"Selene Mathews","genre":null,"price":"Free","supports":["Edward Roussac"," Rhysics"],"ticketUrl":null,"time":" 2:30pm"},{"categories":["Music"],"eDate":"2025-06-21","eName":"Winter Solstice Party","genre":null,"price":"$15.00","supports":["Erin Will Be Mad"," Norwood"],"ticketUrl":null,"time":" 7pm"}],"vName":"Mamma Chen's"},"type":"Feature"},{"geometry":{"coordinates":[144.9658499,-37.8147453],"type":"Point"},"properties":{"events":[{"categories":["Music"],"eDate":"2025-06-21","eName":"Royale With Cheese: The Ultimate 90’s Rock Show","genre":"Rock","price":"$38.25","supports":[],"ticketUrl":null,"time":" 7:30pm"}],"vName":"Max Watt's (Melbourne)"},"type":"Feature"},{"geometry":{"coordinates":[144.9675876,-37.8240849],"type":"Point"},"properties":{"events":[{"categories":["Music"],"eDate":"2025-06-21","eName":"Shahin Najafi","genre":"Indie","price":"$130.00","supports":[],"ticketUrl":null,"time":" 8pm"}],"vName":"Melbourne Recital Centre"},"type":"Feature"},{"geometry":{"coordinates":[144.96084,-37.813514],"type":"Point"},"properties":{"events":[{"categories":["Music"],"eDate":"2025-06-21","eName":"No Regrets: The Edith Piaf Story with Nikki Nouveau","genre":"Jazz","price":"$48.00","supports":[],"ticketUrl":null,"time":" 6pm"},{"categories":["Music"],"eDate":"2025-06-21","eName":"The Music of Django Reinhardt with The Annwen Roberts Quartet","genre":"Jazz","price":"$45.00","supports":[],"ticketUrl":null,"time":" 6:30pm"},{"categories":["Music"],"eDate":"2025-06-21","eName":"We May Never Meet Again: The Music Of Amy Winehouse with Elly Poletti","genre":"Jazz","price":"$48.00","supports":[],"ticketUrl":null,"time":" 9pm"},{"categories":["Music"],"eDate":"2025-06-21","eName":"Chris Johnstone Quartet presents The Music of Miles Davis","genre":"Jazz","price":"$45.00","supports":[],"ticketUrl":null,"time":" 9:30pm"}],"vName":"Paris Cat Jazz Club"},"type":"Feature"},{"geometry":{"coordinates":[144.9741326,-37.8619943],"type":"Point"},"properties":{"events":[{"categories":["Music"],"eDate":"2025-06-21","eName":"DhunLAB: AFTERALL Edition","genre":"Electronic","price":"$24.90 - 29.90","supports":[],"ticketUrl":null,"time":" 9pm"}],"vName":"Prince Bandroom"},"type":"Feature"},{"geometry":{"coordinates":[144.9615882,-37.7711432],"type":"Point"},"properties":{"events":[{"categories":["Free","Music"],"eDate":"2025-06-21","eName":"Ratfink!","genre":null,"price":"Free","supports":["Ben Danks & The Bandits"],"ticketUrl":null,"time":" 2pm"},{"categories":["Music"],"eDate":"2025-06-21","eName":"Michael’s Cane","genre":null,"price":"$12.25","supports":["Ellen James"," Aeriquah"],"ticketUrl":null,"time":" 7pm"}],"vName":"Retreat Hotel"},"type":"Feature"},{"geometry":{"coordinates":[144.993413,-37.8506652],"type":"Point"},"properties":{"events":[{"categories":["Music"],"eDate":"2025-06-21","eName":"Frantastic!","genre":"Electronic","price":"$26.52 - 31.61","supports":[],"ticketUrl":null,"time":" 7pm"}],"vName":"Revolver Upstairs"},"type":"Feature"},{"geometry":{"coordinates":[145.0013923,-37.7559265],"type":"Point"},"properties":{"events":[{"categories":["Music"],"eDate":"2025-06-21","eName":"Thorne","genre":"R&B","price":"$23.45","supports":["Sim"," Isadora"],"ticketUrl":null,"time":" 8pm"}],"vName":"Shotkickers"},"type":"Feature"},{"geometry":{"coordinates":[144.9607404,-37.7743469],"type":"Point"},"properties":{"events":[{"categories":["Music","Other \"Cabaret\""],"eDate":"2025-06-21","eName":"The Soft Machine Presents: Rites Of Winter, Flesh Rituals + Siren Songs","genre":"Indie","price":"$25.00 - 60.00","supports":[],"ticketUrl":null,"time":" 7pm"},{"categories":["Music"],"eDate":"2025-06-21","eName":"TAKING BRAT SATURDAY: Emo vs Pop Night","genre":null,"price":"$16.85 - 23.50","supports":[],"ticketUrl":null,"time":"11pm"}],"vName":"Stay Gold"},"type":"Feature"},{"geometry":{"coordinates":[144.32141,-37.38866],"type":"Point"},"properties":{"events":[{"categories":["Free","Music"],"eDate":"2025-06-21","eName":"Luke Watt","genre":"Country/Folk","price":"Free","supports":[],"ticketUrl":null,"time":" 3pm"}],"vName":"The Cosmopolitan Hotel"},"type":"Feature"},{"geometry":{"coordinates":[144.9657057,-37.8061581],"type":"Point"},"properties":{"events":[{"categories":["Free","Music"],"eDate":"2025-06-21","eName":"Favoured State","genre":"Rock","price":"Free","supports":["Speccy"],"ticketUrl":null,"time":" 7:30pm"}],"vName":"The Curtin"},"type":"Feature"},{"geometry":{"coordinates":[144.9586498,-37.766903],"type":"Point"},"properties":{"events":[{"categories":["Music"],"eDate":"2025-06-21","eName":"Checkerboard Lounge with Shenzo Gregorio","genre":"Jazz","price":"$35.00 - 40.00","supports":[],"ticketUrl":null,"time":" 8pm"}],"vName":"The Jazzlab"},"type":"Feature"},{"geometry":{"coordinates":[144.9463641,-37.8047757],"type":"Point"},"properties":{"events":[{"categories":["Free","Music"],"eDate":"2025-06-21","eName":"The Jalopies + Howl","genre":"Rock","price":"Free","supports":[],"ticketUrl":null,"time":" 3pm"},{"categories":["Music"],"eDate":"2025-06-21","eName":"Ghoulies","genre":"Rock","price":"$23.50","supports":["Pleasants"," The Unknowns"],"ticketUrl":null,"time":" 8:30pm"}],"vName":"The Last Chance Rock & Roll Bar"},"type":"Feature"},{"geometry":{"coordinates":[144.9708437,-37.7973184],"type":"Point"},"properties":{"events":[{"categories":["Music"],"eDate":"2025-06-21","eName":"Motley Music: Abbey & Hunter","genre":"Jazz","price":"Free","supports":[],"ticketUrl":null,"time":" 5pm"},{"categories":["Music"],"eDate":"2025-06-21","eName":"Motley Jazz Jam","genre":"Jazz","price":"Free","supports":[],"ticketUrl":null,"time":" 7:30pm"},{"categories":["Comedy","Theatre"],"eDate":"2025-06-21","eName":"The Big HOO-HAA!","genre":null,"price":"$32.00","supports":[],"ticketUrl":null,"time":" 8:30pm"}],"vName":"The Motley Bauhaus"},"type":"Feature"},{"geometry":{"coordinates":[145.0141502,-37.8117556],"type":"Point"},"properties":{"events":[{"categories":["Free","Music"],"eDate":"2025-06-21","eName":"The Open Heart Kirtan Ensemble","genre":"Global","price":"Free","supports":[],"ticketUrl":null,"time":" 6:30pm"}],"vName":"The Open Space"},"type":"Feature"},{"geometry":{"coordinates":[145.1818891,-37.8163371],"type":"Point"},"properties":{"events":[{"categories":["Theatre"],"eDate":"2025-06-21","eName":"Monument (Matinee Session)","genre":null,"price":"$46.00","supports":[],"ticketUrl":null,"time":" 2pm"},{"categories":["Music"],"eDate":"2025-06-21","eName":"The Australian Children’s Choir in Concert","genre":"Acoustic","price":"$36.00","supports":[],"ticketUrl":null,"time":" 2:30pm"},{"categories":["Theatre"],"eDate":"2025-06-21","eName":"Monument","genre":null,"price":"$46.00","supports":[],"ticketUrl":null,"time":" 8pm"}],"vName":"The Round"},"type":"Feature"},{"geometry":{"coordinates":[144.9651425,-37.8119429],"type":"Point"},"properties":{"events":[{"categories":["Music"],"eDate":"2025-06-21","eName":"Triple Charm","genre":"Pop","price":"Free","supports":[],"ticketUrl":null,"time":" 2pm"},{"categories":["Free","Music"],"eDate":"2025-06-21","eName":"Closure","genre":"Electronic","price":"Free","supports":[],"ticketUrl":null,"time":"11pm"}],"vName":"The Toff In Town"},"type":"Feature"},{"geometry":{"coordinates":[144.9870814,-37.799406],"type":"Point"},"properties":{"events":[{"categories":["Music"],"eDate":"2025-06-21","eName":"Kidskin","genre":"Punk","price":"$13.30","supports":["Clit Split"," Uberwench"],"ticketUrl":null,"time":" 8pm"},{"categories":["Free","Music"],"eDate":"2025-06-21","eName":"Tongue Dissolver","genre":"Punk","price":"Free","supports":[],"ticketUrl":null,"time":"10:30pm"}],"vName":"The Tote Hotel"},"type":"Feature"}],"type":"FeatureCollection"}