{"features":[{"geometry":{"coordinates":[144.9617083,-37.7704205],"type":"Point"},"properties":{"events":[{"categories":["Music","Free"],"eDate":"2026-03-06","eName":"Snailgun","genre":null,"price":"Free","supports":["Sweatshop"," Frons"],"ticketUrl":null,"time":" 7pm"}],"vName":"Brunswick Artists' Bar"},"type":"Feature"},{"geometry":{"coordinates":[145.0004166,-37.7612582],"type":"Point"},"properties":{"events":[{"categories":["Music"],"eDate":"2026-03-06","eName":"Jakson","genre":null,"price":"$13.80","supports":["Little Bored"," Kotlas Begemot"],"ticketUrl":null,"time":" 8pm"}],"vName":"Cactus Room"},"type":"Feature"},{"geometry":{"coordinates":[144.9713425,-37.8128595],"type":"Point"},"properties":{"events":[{"categories":["Music"],"eDate":"2026-03-06","eName":"Big Red Fire Truck","genre":"Rock","price":"$15.43","supports":["King's Vengeance"," Love Bite"],"ticketUrl":null,"time":" 8pm"},{"categories":["Free","Music"],"eDate":"2026-03-06","eName":"Disco Inferno","genre":"Soul/Funk","price":"Free","supports":[],"ticketUrl":null,"time":"11pm"}],"vName":"Cherry Bar"},"type":"Feature"},{"geometry":{"coordinates":[144.9785611,-37.7965465],"type":"Point"},"properties":{"events":[{"categories":["Music"],"eDate":"2026-03-06","eName":"Gusto Gusto","genre":"Soul/Funk","price":"$30.00","supports":["Bromham"," Malcura"],"ticketUrl":null,"time":" 8pm"},{"categories":["Music"],"eDate":"2026-03-06","eName":"Gusto Gusto","genre":"Jazz","price":"$22.94","supports":[],"ticketUrl":null,"time":" 8pm"}],"vName":"Evelyn Hotel"},"type":"Feature"},{"geometry":{"coordinates":[144.973013,-37.8640582],"type":"Point"},"properties":{"events":[{"categories":["Free","Music"],"eDate":"2026-03-06","eName":"Jack’s Garage: Slowly, Slowly","genre":"Punk","price":"Free","supports":[],"ticketUrl":null,"time":" 7:30pm"}],"vName":"Hotel Esplanade (aka The Espy)"},"type":"Feature"},{"geometry":{"coordinates":[144.9794553,-37.7982653],"type":"Point"},"properties":{"events":[{"categories":["Music"],"eDate":"2026-03-06","eName":"Frost Children","genre":"Electronic","price":"$71.14","supports":[],"ticketUrl":null,"time":" 7:30pm"}],"vName":"The Night Cat"},"type":"Feature"},{"geometry":{"coordinates":[144.9785414,-37.8674567],"type":"Point"},"properties":{"events":[{"categories":["Music"],"eDate":"2026-03-06","eName":"The Dums","genre":null,"price":"$10.00","supports":["Tellerwood"],"ticketUrl":null,"time":" 9pm"}],"vName":"The Vineyard Restaurant & Bar"},"type":"Feature"}],"type":"FeatureCollection"}