{"features":[{"geometry":{"coordinates":[144.978682,-37.7981225],"type":"Point"},"properties":{"events":[{"categories":["Music","Free"],"eDate":"2026-07-24","eName":"Leaps and Bounds Festival: Baxter’s presents Sounds Like Tomorrow","genre":null,"price":"Free","supports":[],"ticketUrl":null,"time":" 7pm"}],"vName":"Baxter's Lot"},"type":"Feature"},{"geometry":{"coordinates":[144.9945274,-37.8001115],"type":"Point"},"properties":{"events":[{"categories":["Other \"Food \"","Festival","Music"],"eDate":"2026-07-24","eName":"Peruvian Independence Day Celebration","genre":null,"price":"$45.00","supports":["Eche"," Hugo Salcedo"],"ticketUrl":null,"time":" 7pm"}],"vName":"Bodriggy Brewing Company"},"type":"Feature"},{"geometry":{"coordinates":[144.9693768,-37.8164414],"type":"Point"},"properties":{"events":[{"categories":["Music"],"eDate":"2026-07-24","eName":"Spiderbait","genre":"Rock","price":"Free","supports":["Magic Dirt"," The Gnomes"," Hot Milk Machine"],"ticketUrl":null,"time":" 6pm"}],"vName":"Forum Melbourne"},"type":"Feature"},{"geometry":{"coordinates":[144.9675876,-37.8240849],"type":"Point"},"properties":{"events":[{"categories":["Music"],"eDate":"2026-07-24","eName":"Ensemble Q Australia with Ed le Brocq","genre":"Classical","price":"$75.00","supports":[],"ticketUrl":null,"time":" 7pm"}],"vName":"Melbourne Recital Centre"},"type":"Feature"},{"geometry":{"coordinates":[144.96084,-37.813514],"type":"Point"},"properties":{"events":[{"categories":["Music"],"eDate":"2026-07-24","eName":"BE","genre":"Jazz","price":"Free","supports":[],"ticketUrl":null,"time":" 6pm"},{"categories":["Music"],"eDate":"2026-07-24","eName":"Trumpet presents The Frank Sinatra Experience","genre":"Jazz","price":"Free","supports":[],"ticketUrl":null,"time":" 6:30pm"},{"categories":["Music"],"eDate":"2026-07-24","eName":"The Little Bourke Big Band Presents The Music of Cowboy Bebop","genre":"Jazz","price":"Free","supports":[],"ticketUrl":null,"time":" 9pm"},{"categories":["Music"],"eDate":"2026-07-24","eName":"Jazz Label Giants","genre":"Jazz","price":"$45.00","supports":[],"ticketUrl":null,"time":" 9:30pm"}],"vName":"Paris Cat Jazz Club"},"type":"Feature"},{"geometry":{"coordinates":[144.9720579,-37.8121675],"type":"Point"},"properties":{"events":[{"categories":["Theatre","Comedy"],"eDate":"2026-07-24","eName":"F#*k This, I Quit: Comedy Based on YOUR Work Stories","genre":null,"price":"$24.00","supports":[],"ticketUrl":null,"time":" 7pm"}],"vName":"The Improv Conspiracy"},"type":"Feature"},{"geometry":{"coordinates":[144.9769451,-37.8055776],"type":"Point"},"properties":{"events":[{"categories":["Music"],"eDate":"2026-07-24","eName":"Laura Norda","genre":"Rock","price":"$20.00","supports":["Snake Powder"," Gold Coast Leathers"," DB4"],"ticketUrl":null,"time":" 8pm"}],"vName":"The Workers Club"},"type":"Feature"},{"geometry":{"coordinates":[144.9661635,-37.8176298],"type":"Point"},"properties":{"events":[{"categories":["Music"],"eDate":"2026-07-24","eName":"Koletsas","genre":"Electronic","price":"Free","supports":["Mullen"],"ticketUrl":null,"time":" 7pm"}],"vName":"Wax Music Lounge"},"type":"Feature"}],"type":"FeatureCollection"}