{"features":[{"geometry":{"coordinates":[144.9679835243618,-37.8201575],"type":"Point"},"properties":{"events":[{"categories":["Comedy"],"eDate":"2024-03-28","eName":"Geraldine Hickey: Don't Tease Me About My Gloves","genre":null,"price":"$35.00 - 48.00","supports":[],"ticketUrl":null,"time":" 6:15pm"},{"categories":["Comedy"],"eDate":"2024-03-28","eName":"Hannah Gadsby: Woof!","genre":null,"price":"$55.00 - 79.00","supports":[],"ticketUrl":null,"time":" 6:15pm"},{"categories":["Comedy","Theatre"],"eDate":"2024-03-28","eName":"Circus Oz: Smash It!","genre":null,"price":"$20.00 - 111.00","supports":[],"ticketUrl":null,"time":" 8pm"}],"vName":"Arts Centre Melbourne"},"type":"Feature"},{"geometry":{"coordinates":[144.99828116650363,-37.7713296],"type":"Point"},"properties":{"events":[{"categories":["Music"],"eDate":"2024-03-28","eName":"King Canoe","genre":"Country/Folk","price":"$20.00","supports":[],"ticketUrl":null,"time":" 9pm"},{"categories":["Music"],"eDate":"2024-03-28","eName":"Yarra Banks Jam","genre":"Jazz","price":"$20.00","supports":[],"ticketUrl":null,"time":" 9pm"}],"vName":"Bar 303"},"type":"Feature"},{"geometry":{"coordinates":[144.9607158,-37.776327],"type":"Point"},"properties":{"events":[{"categories":["Music"],"eDate":"2024-03-28","eName":"Max König","genre":"Jazz","price":"$40.00","supports":["Standing Circle"," Zourouna"],"ticketUrl":null,"time":" 8pm"}],"vName":"Bergy Bandroom"},"type":"Feature"},{"geometry":{"coordinates":[144.9945274,-37.8001115],"type":"Point"},"properties":{"events":[{"categories":["Free","Music","Other \"Food & Drink\""],"eDate":"2024-03-28","eName":"Death By Carrot: Infinity Loop","genre":null,"price":"Free","supports":[],"ticketUrl":null,"time":" 7pm"}],"vName":"Bodriggy Brewing Company"},"type":"Feature"},{"geometry":{"coordinates":[144.9617018,-37.7704566],"type":"Point"},"properties":{"events":[{"categories":["Music"],"eDate":"2024-03-28","eName":"Love Police presents The Linda Ronstadt Show","genre":"Rock","price":"$62.58","supports":["Ella Hooper & All-Star Band"," Ben Mastwyk & His Millions"],"ticketUrl":null,"time":" 8pm"}],"vName":"Brunswick Ballroom"},"type":"Feature"},{"geometry":{"coordinates":[144.9875917,-37.7963837],"type":"Point"},"properties":{"events":[{"categories":["Free","Music"],"eDate":"2024-03-28","eName":"Don’t Thank Me, Spank Me!","genre":"Pop","price":"Free","supports":[],"ticketUrl":null,"time":" 8pm"}],"vName":"Gem Bar"},"type":"Feature"},{"geometry":{"coordinates":[144.9679835243618,-37.8201575],"type":"Point"},"properties":{"events":[{"categories":["Music"],"eDate":"2024-03-28","eName":"A Night with Matteo Bocelli","genre":"Classical","price":"$99.90 - 279.90","supports":[],"ticketUrl":null,"time":" 8pm"}],"vName":"Hamer Hall (Arts Centre Melbourne)"},"type":"Feature"},{"geometry":{"coordinates":[144.973013,-37.8640582],"type":"Point"},"properties":{"events":[{"categories":["Free","Music"],"eDate":"2024-03-28","eName":"Franki Kaneur","genre":"Indie","price":"Free","supports":[],"ticketUrl":null,"time":" 7:30pm"},{"categories":["Music"],"eDate":"2024-03-28","eName":"Call Me Maybe: 2000s + 2010s Party","genre":"Pop","price":"$25.00","supports":[],"ticketUrl":null,"time":" 9pm"}],"vName":"Hotel Esplanade (aka The Espy)"},"type":"Feature"},{"geometry":{"coordinates":[144.9687111,-37.7977034],"type":"Point"},"properties":{"events":[{"categories":["Comedy","Theatre"],"eDate":"2024-03-28","eName":"Teeth & Tonic","genre":null,"price":"$35.00","supports":[],"ticketUrl":null,"time":" 7:30pm"}],"vName":"La Mama Theatre"},"type":"Feature"},{"geometry":{"coordinates":[144.9764962,-37.7983139],"type":"Point"},"properties":{"events":[{"categories":["Music"],"eDate":"2024-03-28","eName":"Grey Day Afterparty","genre":null,"price":"$13.43","supports":[],"ticketUrl":null,"time":"10pm"}],"vName":"Laundry Bar"},"type":"Feature"},{"geometry":{"coordinates":[144.96741062735794,-37.82454855],"type":"Point"},"properties":{"events":[{"categories":["Music"],"eDate":"2024-03-28","eName":"Dekmantel Opening Concert","genre":"Electronic","price":"$55.00 - 75.00","supports":[],"ticketUrl":null,"time":" 7pm"}],"vName":"Melbourne Recital Centre"},"type":"Feature"},{"geometry":{"coordinates":[144.9627231,-37.8073581],"type":"Point"},"properties":{"events":[{"categories":["Comedy"],"eDate":"2024-03-28","eName":"Paul Williams: Mamiya 7","genre":null,"price":"$25.00 - 35.00","supports":[],"ticketUrl":null,"time":" 7:40pm"}],"vName":"Melbourne Town Hall"},"type":"Feature"},{"geometry":{"coordinates":[145.1496717,-37.7125259],"type":"Point"},"properties":{"events":[{"categories":["Music"],"eDate":"2024-03-28","eName":"The Chantoozies + The Badloves","genre":"Rock","price":"$60.00","supports":[],"ticketUrl":null,"time":" 8pm"}],"vName":"Missing Gorilla"},"type":"Feature"},{"geometry":{"coordinates":[144.998414,-37.771471],"type":"Point"},"properties":{"events":[{"categories":["Music"],"eDate":"2024-03-28","eName":"ISU TAKI presents Autumn Equinox FEAT: Martha Van Straaten","genre":"Soul/Funk","price":"$26.05","supports":["Moontide"," Otorongo"," Cuerpo Negro"],"ticketUrl":null,"time":" 7pm"}],"vName":"Northcote Social Club"},"type":"Feature"},{"geometry":{"coordinates":[144.9631913,-37.7617818],"type":"Point"},"properties":{"events":[{"categories":["Free","Music"],"eDate":"2024-03-28","eName":"Open Mic Thursdays @ Ringo Barr","genre":"Acoustic","price":"Free","supports":[],"ticketUrl":null,"time":" 7pm"}],"vName":"Ringo Barr"},"type":"Feature"},{"geometry":{"coordinates":[144.9746525926778,-37.823819181966286],"type":"Point"},"properties":{"events":[{"categories":["Music"],"eDate":"2024-03-28","eName":"KEINEMUSIK","genre":"Electronic","price":"$132.45","supports":[],"ticketUrl":null,"time":" 6pm"}],"vName":"Sidney Myer Music Bowl"},"type":"Feature"},{"geometry":{"coordinates":[144.9706095,-37.7783326],"type":"Point"},"properties":{"events":[{"categories":["Free","Music"],"eDate":"2024-03-28","eName":"Elektronik Girl Epic","genre":"Electronic","price":"Free","supports":["Digital Girl"," One Hit Kill"],"ticketUrl":null,"time":" 9pm"}],"vName":"The Beast"},"type":"Feature"},{"geometry":{"coordinates":[144.9830837,-37.7988316],"type":"Point"},"properties":{"events":[{"categories":["Music"],"eDate":"2024-03-28","eName":"Sleeper Cell presents Amadeezy + ZULI (Good Friday Eve)","genre":null,"price":"$35.00","supports":["Tinika"," Ramsey"," Kufa"],"ticketUrl":null,"time":"11pm"}],"vName":"The Night Cat"},"type":"Feature"},{"geometry":{"coordinates":[144.9622,-37.7679857],"type":"Point"},"properties":{"events":[{"categories":["Free","Music"],"eDate":"2024-03-28","eName":"Baby Shower","genre":"Punk","price":"Free","supports":[],"ticketUrl":null,"time":" 9pm"}],"vName":"The Penny Black"},"type":"Feature"},{"geometry":{"coordinates":[144.9651425,-37.8119429],"type":"Point"},"properties":{"events":[{"categories":["Comedy"],"eDate":"2024-03-28","eName":"Best Of The Festival: Comedy Superstars","genre":null,"price":"$30.00 - 35.00","supports":[],"ticketUrl":null,"time":" 6pm"},{"categories":["Free","Music","Other \"Food & Drink\""],"eDate":"2024-03-28","eName":"Jazz & Jaffles","genre":"Jazz","price":"Free","supports":[],"ticketUrl":null,"time":" 7pm"},{"categories":["Comedy"],"eDate":"2024-03-28","eName":"Simon Taylor: Big Time","genre":null,"price":"$28.50 - 35.50","supports":[],"ticketUrl":null,"time":" 7:15pm"},{"categories":["Free","Music"],"eDate":"2024-03-28","eName":"Jam Hot: Good Friday Eve Toff Take Over","genre":null,"price":"Free","supports":[],"ticketUrl":null,"time":" 9pm"},{"categories":["Comedy"],"eDate":"2024-03-28","eName":"Mel & Sam: The Platonic Human Centipede","genre":null,"price":"$35.50","supports":[],"ticketUrl":null,"time":" 9:45pm"}],"vName":"The Toff In Town"},"type":"Feature"},{"geometry":{"coordinates":[144.9846126,-37.7989941],"type":"Point"},"properties":{"events":[{"categories":["Music"],"eDate":"2024-03-28","eName":"Ridgy","genre":"Hip Hop","price":"$11.25","supports":["Teether"," Realname"," Pantsman"," Grimz"," Skomes"," Hawkrada"],"ticketUrl":null,"time":" 7:30pm"}],"vName":"The Tote Hotel"},"type":"Feature"},{"geometry":{"coordinates":[144.9769450659087,-37.8055776],"type":"Point"},"properties":{"events":[{"categories":["Music"],"eDate":"2024-03-28","eName":"Maxwell Brady","genre":"Rock","price":"$15.00","supports":["Malibu Spacey"," Big Stretch"],"ticketUrl":null,"time":" 7pm"}],"vName":"The Workers Club"},"type":"Feature"},{"geometry":{"coordinates":[144.9985126,-37.7588241],"type":"Point"},"properties":{"events":[{"categories":["Free","Music"],"eDate":"2024-03-28","eName":"Hume Blues Club","genre":"Blues","price":"Free","supports":["Blues Jam Sessions"],"ticketUrl":null,"time":" 6pm"}],"vName":"Thornbury Bowls Club"},"type":"Feature"},{"geometry":{"coordinates":[144.9618426,-37.8125531],"type":"Point"},"properties":{"events":[{"categories":["Free","Music","Other \"Food & Drink\""],"eDate":"2024-03-28","eName":"Goodlife Easter","genre":"Soul/Funk","price":"Free","supports":[],"ticketUrl":null,"time":" 7pm"}],"vName":"Whitehart Bar"},"type":"Feature"}],"type":"FeatureCollection"}