{"features":[{"geometry":{"coordinates":[144.99828116650363,-37.7713296],"type":"Point"},"properties":{"events":[{"categories":["Music"],"eDate":"2024-01-15","eName":"Monday JassHub","genre":"Jazz","price":"$5.00","supports":[],"ticketUrl":null,"time":" 6pm"}],"vName":"Bar 303"},"type":"Feature"},{"geometry":{"coordinates":[145.3553553,-37.9078552],"type":"Point"},"properties":{"events":[{"categories":["Other \"Food & Drink\""],"eDate":"2024-01-15","eName":"Steak Night","genre":null,"price":"$28.00","supports":[],"ticketUrl":null,"time":" 5:30pm"}],"vName":"Micawber Tavern"},"type":"Feature"},{"geometry":{"coordinates":[144.998414,-37.771471],"type":"Point"},"properties":{"events":[{"categories":["Free","Music"],"eDate":"2024-01-15","eName":"Social Sanctuary: Laure Briard","genre":"Indie","price":"Free","supports":["Sunfruits"," Zoe Fox & The Rocket Clocks"],"ticketUrl":null,"time":" 7pm"}],"vName":"Northcote Social Club"},"type":"Feature"},{"geometry":{"coordinates":[144.97711,-37.79833],"type":"Point"},"properties":{"events":[{"categories":["Free","Music"],"eDate":"2024-01-15","eName":"Morbid Mondays: Tongue Scum + Circle Of Blood","genre":"Metal","price":"Free","supports":[],"ticketUrl":null,"time":" 8pm"}],"vName":"Old Bar"},"type":"Feature"},{"geometry":{"coordinates":[144.9706095,-37.7783326],"type":"Point"},"properties":{"events":[{"categories":["Free","Music"],"eDate":"2024-01-15","eName":"Flimsey Lohan","genre":"Rock","price":"Free","supports":["Aaron Evans"],"ticketUrl":null,"time":" 9pm"}],"vName":"The Beast"},"type":"Feature"}],"type":"FeatureCollection"}