{"features":[{"geometry":{"coordinates":[144.9679369,-37.8120109],"type":"Point"},"properties":{"events":[{"categories":["Music"],"eDate":"2025-06-20","eName":"Old Mervs","genre":"Rock","price":"$55.00","supports":[],"ticketUrl":null,"time":" 7pm"}],"vName":"170 Russell"},"type":"Feature"},{"geometry":{"coordinates":[144.9982812,-37.7713296],"type":"Point"},"properties":{"events":[{"categories":["Music"],"eDate":"2025-06-20","eName":"Dynasty","genre":"Rock","price":"Free","supports":[],"ticketUrl":null,"time":" 8pm"}],"vName":"Bar 303"},"type":"Feature"},{"geometry":{"coordinates":[144.978682,-37.7981225],"type":"Point"},"properties":{"events":[{"categories":["Free","Music"],"eDate":"2025-06-20","eName":"Tejo D’Cruz","genre":null,"price":"Free","supports":[],"ticketUrl":null,"time":" 9pm"},{"categories":["Free","Music"],"eDate":"2025-06-20","eName":"DJ Peanut Butter Melly","genre":null,"price":"Free","supports":[],"ticketUrl":null,"time":"10pm"}],"vName":"Baxter's Lot"},"type":"Feature"},{"geometry":{"coordinates":[144.9891167,-37.7996488],"type":"Point"},"properties":{"events":[{"categories":["Music"],"eDate":"2025-06-20","eName":"Barbarion","genre":"Metal","price":"$20.00","supports":["The Pink Tiles"," more"],"ticketUrl":null,"time":" 8pm"},{"categories":["Music"],"eDate":"2025-06-20","eName":"Sheer Chance","genre":"Rock","price":"$17.35","supports":["Chordie Flow"," Shakespeare"],"ticketUrl":null,"time":" 8:30pm"}],"vName":"Bendigo Hotel"},"type":"Feature"},{"geometry":{"coordinates":[144.9568039,-37.8111442],"type":"Point"},"properties":{"events":[{"categories":["Music"],"eDate":"2025-06-20","eName":"Mick Thomas & The Roving Commission","genre":"Country/Folk","price":"$38.00","supports":[],"ticketUrl":null,"time":" 7:30pm"}],"vName":"Bird's Basement"},"type":"Feature"},{"geometry":{"coordinates":[143.7858966,-38.3366915],"type":"Point"},"properties":{"events":[{"categories":["Music"],"eDate":"2025-06-20","eName":"Clare Bowditch","genre":"Indie","price":"$62.90","supports":[],"ticketUrl":null,"time":" 7:30pm"}],"vName":"Birregurra Mechanics Hall"},"type":"Feature"},{"geometry":{"coordinates":[145.0004166,-37.7612582],"type":"Point"},"properties":{"events":[{"categories":["Music"],"eDate":"2025-06-20","eName":"Comets","genre":"Rock","price":"$18.90","supports":["Dopplerhaus"," Bass Meadows"],"ticketUrl":null,"time":" 8pm"}],"vName":"Cactus Room"},"type":"Feature"},{"geometry":{"coordinates":[144.9693768,-37.8164414],"type":"Point"},"properties":{"events":[{"categories":["Music"],"eDate":"2025-06-20","eName":"Skegss","genre":"Punk","price":"$80.45","supports":["The Buoys"],"ticketUrl":null,"time":" 7pm"}],"vName":"Forum Melbourne"},"type":"Feature"},{"geometry":{"coordinates":[144.9679835,-37.8201575],"type":"Point"},"properties":{"events":[{"categories":["Music"],"eDate":"2025-06-20","eName":"Classic 100 in Concert","genre":"Classical","price":"$64.00","supports":[],"ticketUrl":null,"time":" 7:30pm"}],"vName":"Hamer Hall (Arts Centre Melbourne)"},"type":"Feature"},{"geometry":{"coordinates":[144.973013,-37.8640582],"type":"Point"},"properties":{"events":[{"categories":["Music"],"eDate":"2025-06-20","eName":"El Club: Reggaeton Party","genre":"R&B","price":"$14.80 - 22.95","supports":[],"ticketUrl":null,"time":" 9pm"}],"vName":"Hotel Esplanade (aka The Espy)"},"type":"Feature"},{"geometry":{"coordinates":[145.0314658,-37.8067273],"type":"Point"},"properties":{"events":[{"categories":["Music"],"eDate":"2025-06-20","eName":"Kew Court House Live: Afrospace Interchange","genre":"Jazz","price":"$20.00","supports":[],"ticketUrl":null,"time":" 7:30pm"}],"vName":"Kew Court House"},"type":"Feature"},{"geometry":{"coordinates":[145.0358258,-37.9334203],"type":"Point"},"properties":{"events":[{"categories":["Music","Comedy","Other \"Cabaret\""],"eDate":"2025-06-20","eName":"Winter Cabaret Season: Geraldine Quinn – Broad","genre":"Pop","price":"$35.00","supports":[],"ticketUrl":null,"time":" 7:30pm"}],"vName":"Kingston City Hall"},"type":"Feature"},{"geometry":{"coordinates":[144.9936498,-37.8000264],"type":"Point"},"properties":{"events":[{"categories":["Music"],"eDate":"2025-06-20","eName":"Full Moon Fever Fridays: Sensible J, N’fa, Bilalli & Vida","genre":"Hip Hop","price":"Free","supports":[],"ticketUrl":null,"time":" 8pm"}],"vName":"Lulie Tavern"},"type":"Feature"},{"geometry":{"coordinates":[144.8975289,-37.8022392],"type":"Point"},"properties":{"events":[{"categories":["Music"],"eDate":"2025-06-20","eName":"The SIRPA Show","genre":null,"price":"$12.00 - 15.00","supports":["Mekky"," Calico"],"ticketUrl":null,"time":" 7:30pm"}],"vName":"Mamma Chen's"},"type":"Feature"},{"geometry":{"coordinates":[144.9658499,-37.8147453],"type":"Point"},"properties":{"events":[{"categories":["Music"],"eDate":"2025-06-20","eName":"Nikita Presnyakov Presents Syntønica","genre":"Electronic","price":"$125.00 - 155.00","supports":[],"ticketUrl":null,"time":" 7:30pm"}],"vName":"Max Watt's (Melbourne)"},"type":"Feature"},{"geometry":{"coordinates":[144.9675876,-37.8240849],"type":"Point"},"properties":{"events":[{"categories":["Music"],"eDate":"2025-06-20","eName":"Farhad Darya","genre":"Pop","price":"$89.00","supports":[],"ticketUrl":null,"time":" 7:30pm"}],"vName":"Melbourne Recital Centre"},"type":"Feature"},{"geometry":{"coordinates":[144.9790251,-37.8675008],"type":"Point"},"properties":{"events":[{"categories":["Music"],"eDate":"2025-06-20","eName":"BABBA","genre":"Pop","price":"$45.00 - 60.00","supports":[],"ticketUrl":null,"time":" 7pm"}],"vName":"Memo Music Hall"},"type":"Feature"},{"geometry":{"coordinates":[144.998414,-37.771471],"type":"Point"},"properties":{"events":[{"categories":["Music"],"eDate":"2025-06-20","eName":"Mandeng Groove","genre":null,"price":"$25.00 - 30.00","supports":["Chikchika"],"ticketUrl":null,"time":" 8:30pm"}],"vName":"Northcote Social Club"},"type":"Feature"},{"geometry":{"coordinates":[144.96084,-37.813514],"type":"Point"},"properties":{"events":[{"categories":["Music"],"eDate":"2025-06-20","eName":"We May Never Meet Again: The Music Of Amy Winehouse with Elly Poletti","genre":"Jazz","price":"$48.00","supports":[],"ticketUrl":null,"time":" 6pm"},{"categories":["Music"],"eDate":"2025-06-20","eName":"Born to Be Blue: Celebrating the Musical Life of Chet Baker","genre":"Jazz","price":"$45.00","supports":[],"ticketUrl":null,"time":" 6:30pm"},{"categories":["Music"],"eDate":"2025-06-20","eName":"Jennifer Salisbury Sings Audioslave: A Mark Morand Production","genre":"Jazz","price":"$45.00","supports":[],"ticketUrl":null,"time":" 9pm"},{"categories":["Music"],"eDate":"2025-06-20","eName":"Russ Spiegel Quintet","genre":"Jazz","price":"$45.00","supports":[],"ticketUrl":null,"time":" 9:30pm"}],"vName":"Paris Cat Jazz Club"},"type":"Feature"},{"geometry":{"coordinates":[144.9615882,-37.7711432],"type":"Point"},"properties":{"events":[{"categories":["Music"],"eDate":"2025-06-20","eName":"Zero City","genre":"Jazz","price":"$12.25","supports":["Banksia"," Kate's Company"],"ticketUrl":null,"time":" 7pm"}],"vName":"Retreat Hotel"},"type":"Feature"},{"geometry":{"coordinates":[145.0013923,-37.7559265],"type":"Point"},"properties":{"events":[{"categories":["Music"],"eDate":"2025-06-20","eName":"Blowers","genre":"Punk","price":"$18.35","supports":["The Unknowns"," The States"," Yes G Band"],"ticketUrl":null,"time":" 7:30pm"}],"vName":"Shotkickers"},"type":"Feature"},{"geometry":{"coordinates":[144.9607404,-37.7743469],"type":"Point"},"properties":{"events":[{"categories":["Music"],"eDate":"2025-06-20","eName":"Phoenix Street","genre":"Rock","price":"$11.65","supports":["The Salmon Sisters"," Bad Posture"," Jag"],"ticketUrl":null,"time":" 7pm"},{"categories":["Free","Music"],"eDate":"2025-06-20","eName":"Sydneyrdsonic 2025","genre":"Electronic","price":"Free","supports":[],"ticketUrl":null,"time":"11pm"}],"vName":"Stay Gold"},"type":"Feature"},{"geometry":{"coordinates":[144.9586498,-37.766903],"type":"Point"},"properties":{"events":[{"categories":["Music"],"eDate":"2025-06-20","eName":"Rory Tiganis-Hannan + Aaron Evans","genre":"Hip Hop","price":"$35.00 - 40.00","supports":[],"ticketUrl":null,"time":" 8pm"}],"vName":"The Jazzlab"},"type":"Feature"},{"geometry":{"coordinates":[144.9463641,-37.8047757],"type":"Point"},"properties":{"events":[{"categories":["Music"],"eDate":"2025-06-20","eName":"Dragnet","genre":"Rock","price":"$16.35","supports":["Kosmetika"," Metdog"," Property"],"ticketUrl":null,"time":" 7pm"}],"vName":"The Last Chance Rock & Roll Bar"},"type":"Feature"},{"geometry":{"coordinates":[144.9708437,-37.7973184],"type":"Point"},"properties":{"events":[{"categories":["Music"],"eDate":"2025-06-20","eName":"Soulstice","genre":"Soul/Funk","price":"$25.33","supports":[],"ticketUrl":null,"time":" 7:30pm"}],"vName":"The Motley Bauhaus"},"type":"Feature"},{"geometry":{"coordinates":[144.9651425,-37.8119429],"type":"Point"},"properties":{"events":[{"categories":["Free","Music"],"eDate":"2025-06-20","eName":"BOOTY2BOOTY","genre":"Electronic","price":"Free","supports":[],"ticketUrl":null,"time":"11pm"}],"vName":"The Toff In Town"},"type":"Feature"},{"geometry":{"coordinates":[144.9870814,-37.799406],"type":"Point"},"properties":{"events":[{"categories":["Music"],"eDate":"2025-06-20","eName":"Tones Susan (of The Lazy Susans)","genre":"Acoustic","price":"Free","supports":[],"ticketUrl":null,"time":" 6pm"},{"categories":["Music"],"eDate":"2025-06-20","eName":"Polish Club","genre":"Rock","price":"$39.30","supports":[],"ticketUrl":null,"time":" 8pm"},{"categories":["Music"],"eDate":"2025-06-20","eName":"Trip To Paris","genre":"Rock","price":"$16.35","supports":["Astrogate"," Honeymoon Phase"],"ticketUrl":null,"time":" 8:30pm"}],"vName":"The Tote Hotel"},"type":"Feature"},{"geometry":{"coordinates":[144.9984324,-37.7729134],"type":"Point"},"properties":{"events":[{"categories":["Music"],"eDate":"2025-06-20","eName":"Tripside Life","genre":"Jazz","price":"Free","supports":[],"ticketUrl":null,"time":" 6pm"}],"vName":"Wesley Anne"},"type":"Feature"}],"type":"FeatureCollection"}