{"features":[{"geometry":{"coordinates":[144.978425,-37.79773],"type":"Point"},"properties":{"events":[{"categories":["Music"],"eDate":"2023-12-19","eName":"Make It Up Club","genre":"Jazz","price":"$15.00","supports":[],"ticketUrl":null,"time":" 8pm"}],"vName":"Bar Open"},"type":"Feature"},{"geometry":{"coordinates":[144.9617018,-37.7704566],"type":"Point"},"properties":{"events":[{"categories":["Music"],"eDate":"2023-12-19","eName":"Alma Zygier presents A Very Jewish Xmas","genre":"Jazz","price":"$38.86","supports":[],"ticketUrl":null,"time":" 8pm"}],"vName":"Brunswick Ballroom"},"type":"Feature"},{"geometry":{"coordinates":[144.99266639479475,-37.82488935],"type":"Point"},"properties":{"events":[{"categories":["Music"],"eDate":"2023-12-19","eName":"Mad Caddies","genre":"Punk","price":"$69.55","supports":["Ess-Em"," The Resignators"],"ticketUrl":null,"time":" 8pm"}],"vName":"Corner Hotel"},"type":"Feature"},{"geometry":{"coordinates":[144.9679835243618,-37.8201575],"type":"Point"},"properties":{"events":[{"categories":["Comedy"],"eDate":"2023-12-19","eName":"Hannah Gadsby: Banana Palace","genre":null,"price":"$64.90","supports":[],"ticketUrl":null,"time":" 7pm"}],"vName":"Hamer Hall (Arts Centre Melbourne)"},"type":"Feature"},{"geometry":{"coordinates":[144.9712356,-37.812902],"type":"Point"},"properties":{"events":[{"categories":["Comedy"],"eDate":"2023-12-19","eName":"Arj Barker's Safe Space","genre":null,"price":"$20.00","supports":[],"ticketUrl":null,"time":" 8pm"}],"vName":"Morris House"},"type":"Feature"},{"geometry":{"coordinates":[144.97711,-37.79833],"type":"Point"},"properties":{"events":[{"categories":["Music"],"eDate":"2023-12-19","eName":"Sorry, Dave","genre":"Rock","price":"$10.00","supports":["The Nation Two"," Nausicaa"],"ticketUrl":null,"time":" 7:30pm"}],"vName":"Old Bar"},"type":"Feature"},{"geometry":{"coordinates":[144.965405,-37.8117457],"type":"Point"},"properties":{"events":[{"categories":["Free","Music"],"eDate":"2023-12-19","eName":"Condensed Milk Tuesdays: Taijae + Amin Payne","genre":null,"price":"Free","supports":[],"ticketUrl":null,"time":" 6pm"}],"vName":"Section 8"},"type":"Feature"},{"geometry":{"coordinates":[144.9846126,-37.7989941],"type":"Point"},"properties":{"events":[{"categories":["Music"],"eDate":"2023-12-19","eName":"Civic + These New South Whales Christmas Show","genre":"Punk","price":"$34.20","supports":["Phil & The Tiles"," Billiam & The Split Bills"],"ticketUrl":null,"time":" 7pm"}],"vName":"The Tote Hotel"},"type":"Feature"}],"type":"FeatureCollection"}