{"features":[{"geometry":{"coordinates":[144.978682,-37.7981225],"type":"Point"},"properties":{"events":[{"categories":["Free","Music"],"eDate":"2024-12-08","eName":"Lewis C","genre":null,"price":"Free","supports":[],"ticketUrl":null,"time":" 9pm"}],"vName":"Baxter's Lot"},"type":"Feature"},{"geometry":{"coordinates":[144.97711,-37.79833],"type":"Point"},"properties":{"events":[{"categories":["Free","Music"],"eDate":"2024-12-08","eName":"The Rartel","genre":null,"price":"Free","supports":["Planets Caravan"],"ticketUrl":null,"time":" 3:30pm"},{"categories":["Music"],"eDate":"2024-12-08","eName":"Snowgum End Of Year Show","genre":"Rock","price":"$15.00","supports":["SLCJH"," Sunny Morris"," Hugh Fucshen"," Winter Mcqueen & Acacia Pip"],"ticketUrl":null,"time":" 7:30pm"}],"vName":"Old Bar"},"type":"Feature"},{"geometry":{"coordinates":[145.0142411,-37.7310367],"type":"Point"},"properties":{"events":[{"categories":["Free","Music"],"eDate":"2024-12-08","eName":"Sunday Sunset Sessions","genre":"Jazz","price":"Free","supports":[],"ticketUrl":null,"time":" 6pm"}],"vName":"Ragtime Tavern"},"type":"Feature"},{"geometry":{"coordinates":[144.97515565,-37.805788500000006],"type":"Point"},"properties":{"events":[{"categories":["Free","Music"],"eDate":"2024-12-08","eName":"Craig Woodward & Friends","genre":null,"price":"Free","supports":[],"ticketUrl":null,"time":" 4pm"}],"vName":"The Catfish"},"type":"Feature"},{"geometry":{"coordinates":[144.99987967655426,-37.76165125],"type":"Point"},"properties":{"events":[{"categories":["Free","Music"],"eDate":"2024-12-08","eName":"Nature in the City","genre":"Country/Folk","price":"Free","supports":[],"ticketUrl":null,"time":" 5pm"}],"vName":"The Thornbury Local"},"type":"Feature"}],"type":"FeatureCollection"}