{"features":[{"geometry":{"coordinates":[144.9715791,-37.8140656],"type":"Point"},"properties":{"events":[{"categories":["Theatre"],"eDate":"2024-06-21","eName":"The Woman in Black","genre":null,"price":"$55.00 - 129.00","supports":[],"ticketUrl":null,"time":" 7:30pm"}],"vName":"Athenaeum Theatre"},"type":"Feature"},{"geometry":{"coordinates":[144.99828116650363,-37.7713296],"type":"Point"},"properties":{"events":[{"categories":["Music"],"eDate":"2024-06-21","eName":"The Live Flesh Rock Cabaret","genre":"Rock","price":"$25.00","supports":[],"ticketUrl":null,"time":" 7pm"}],"vName":"Bar 303"},"type":"Feature"},{"geometry":{"coordinates":[144.978425,-37.79773],"type":"Point"},"properties":{"events":[{"categories":["Free","Music"],"eDate":"2024-06-21","eName":"The Four Scoops","genre":"Jazz","price":"Free","supports":[],"ticketUrl":null,"time":" 6pm"},{"categories":["Music"],"eDate":"2024-06-21","eName":"spores","genre":null,"price":"$15.00","supports":["Ashbel"," Klunt"],"ticketUrl":null,"time":" 8:30pm"}],"vName":"Bar Open"},"type":"Feature"},{"geometry":{"coordinates":[144.9607158,-37.776327],"type":"Point"},"properties":{"events":[{"categories":["Music"],"eDate":"2024-06-21","eName":"The Elliotts","genre":"Rock","price":"$22.95","supports":["Those Tremblin Hands"," Telesonics"," Holly Monks"," Remy Sayers"],"ticketUrl":null,"time":" 7:30pm"}],"vName":"Bergy Bandroom"},"type":"Feature"},{"geometry":{"coordinates":[144.80238778071427,-37.745293950000004],"type":"Point"},"properties":{"events":[{"categories":["Theatre"],"eDate":"2024-06-21","eName":"The Audition (Matinee)","genre":null,"price":"$25.00","supports":[],"ticketUrl":null,"time":"11am"},{"categories":["Theatre"],"eDate":"2024-06-21","eName":"The Audition","genre":null,"price":"$25.00","supports":[],"ticketUrl":null,"time":" 7pm"}],"vName":"Bowery Theatre"},"type":"Feature"},{"geometry":{"coordinates":[144.9713425,-37.8128595],"type":"Point"},"properties":{"events":[{"categories":["Music"],"eDate":"2024-06-21","eName":"Jape Squad","genre":"Rock","price":"$15.43","supports":["Barney's Bistro"," Major Bummer"],"ticketUrl":null,"time":" 8pm"}],"vName":"Cherry Bar"},"type":"Feature"},{"geometry":{"coordinates":[144.975465,-37.8639936],"type":"Point"},"properties":{"events":[{"categories":["Free","Music"],"eDate":"2024-06-21","eName":"The Tonalists","genre":null,"price":"Free","supports":[],"ticketUrl":null,"time":" 6pm"}],"vName":"Dogs Bar"},"type":"Feature"},{"geometry":{"coordinates":[144.9628440552175,-37.76100605],"type":"Point"},"properties":{"events":[{"categories":["Free","Music","Trivia"],"eDate":"2024-06-21","eName":"Bingo","genre":"Electronic","price":"Free","supports":[],"ticketUrl":null,"time":" 7pm"}],"vName":"Edinburgh Castle Hotel"},"type":"Feature"},{"geometry":{"coordinates":[145.03588565533943,-37.8230335],"type":"Point"},"properties":{"events":[{"categories":["Music"],"eDate":"2024-06-21","eName":"Kee'ahn","genre":null,"price":"$30.00 - 38.00","supports":[],"ticketUrl":null,"time":" 8pm"}],"vName":"Hawthorn Arts Centre"},"type":"Feature"},{"geometry":{"coordinates":[144.9596527,-37.7720304],"type":"Point"},"properties":{"events":[{"categories":["Music"],"eDate":"2024-06-21","eName":"Dylan J","genre":"Soul/Funk","price":"$32.64","supports":[],"ticketUrl":null,"time":" 7:30pm"}],"vName":"Howler"},"type":"Feature"},{"geometry":{"coordinates":[144.8971518,-37.8054274],"type":"Point"},"properties":{"events":[{"categories":["Free","Music"],"eDate":"2024-06-21","eName":"Absentia","genre":null,"price":"Free","supports":["Dirty Gwen"," Otrera"],"ticketUrl":null,"time":" 7:30pm"}],"vName":"Mamma Chen's"},"type":"Feature"},{"geometry":{"coordinates":[144.9659879,-37.8147557],"type":"Point"},"properties":{"events":[{"categories":["Music"],"eDate":"2024-06-21","eName":"Drunk Mums","genre":"Punk","price":"$29.60","supports":["Street Sweeper"," Aardvark"],"ticketUrl":null,"time":" 8pm"}],"vName":"Max Watt's (Melbourne)"},"type":"Feature"},{"geometry":{"coordinates":[144.96741062735794,-37.82454855],"type":"Point"},"properties":{"events":[{"categories":["Music"],"eDate":"2024-06-21","eName":"Marlon Williams","genre":"Country/Folk","price":"$69.00","supports":[],"ticketUrl":null,"time":" 7:30pm"}],"vName":"Melbourne Recital Centre"},"type":"Feature"},{"geometry":{"coordinates":[144.9786817,-37.8671902],"type":"Point"},"properties":{"events":[{"categories":["Music"],"eDate":"2024-06-21","eName":"Michael Waugh","genre":"Country/Folk","price":"$29.00 - 49.00","supports":["Kerryn Fields"],"ticketUrl":null,"time":" 7pm"}],"vName":"Memo Music Hall"},"type":"Feature"},{"geometry":{"coordinates":[144.998414,-37.771471],"type":"Point"},"properties":{"events":[{"categories":["Music"],"eDate":"2024-06-21","eName":"Quivers","genre":"Indie","price":"$24.00","supports":["Ella Sweeney"," Juice Webster"],"ticketUrl":null,"time":" 8:30pm"}],"vName":"Northcote Social Club"},"type":"Feature"},{"geometry":{"coordinates":[144.9605705,-37.8132486],"type":"Point"},"properties":{"events":[{"categories":["Music"],"eDate":"2024-06-21","eName":"Emma Hamilton: From Paris to New Orleans","genre":"Jazz","price":"$45.00","supports":[],"ticketUrl":null,"time":" 6pm"}],"vName":"Paris Cat Jazz Club"},"type":"Feature"},{"geometry":{"coordinates":[145.0142411,-37.7310367],"type":"Point"},"properties":{"events":[{"categories":["Free","Music"],"eDate":"2024-06-21","eName":"Nea Skoupa","genre":"Global","price":"Free","supports":[],"ticketUrl":null,"time":" 8pm"}],"vName":"Ragtime Tavern"},"type":"Feature"},{"geometry":{"coordinates":[144.9615882,-37.7711432],"type":"Point"},"properties":{"events":[{"categories":["Music"],"eDate":"2024-06-21","eName":"Norwood","genre":"Country/Folk","price":"$10.00 - 15.00","supports":["Grace de Vos"," Hettie Zygier"],"ticketUrl":null,"time":" 7:30pm"},{"categories":["Music"],"eDate":"2024-06-21","eName":"Black Dahlia","genre":"Experimental","price":"$10.00 - 20.00","supports":["Popular Music"," Full Fleshed"],"ticketUrl":null,"time":" 7:30pm"}],"vName":"Retreat Hotel"},"type":"Feature"},{"geometry":{"coordinates":[144.9631913,-37.7617818],"type":"Point"},"properties":{"events":[{"categories":["Free","Music"],"eDate":"2024-06-21","eName":"Dolls + Maggie Slater","genre":"Rock","price":"Free","supports":[],"ticketUrl":null,"time":" 8pm"}],"vName":"Ringo Barr"},"type":"Feature"},{"geometry":{"coordinates":[145.001392343033,-37.75592655],"type":"Point"},"properties":{"events":[{"categories":["Music"],"eDate":"2024-06-21","eName":"Filthy McNasty's","genre":"Punk","price":"$18.35","supports":["Hail Mary Jane"," Tommy Dynamite & The Explosions"],"ticketUrl":null,"time":" 7:30pm"}],"vName":"Shotkickers"},"type":"Feature"},{"geometry":{"coordinates":[144.9607404,-37.7743469],"type":"Point"},"properties":{"events":[{"categories":["Music"],"eDate":"2024-06-21","eName":"The Gloom In The Corner","genre":"Metal","price":"$39.79","supports":["Heists"," Crave Death"," Bitter Kind"],"ticketUrl":null,"time":" 7pm"}],"vName":"Stay Gold"},"type":"Feature"},{"geometry":{"coordinates":[144.9651227,-37.815011],"type":"Point"},"properties":{"events":[{"categories":["Music","Comedy","Other \"Cabaret\""],"eDate":"2024-06-21","eName":"Father Daddy's Winter Solstice","genre":"Pop","price":"$15.00 - 39.00","supports":[],"ticketUrl":null,"time":"10pm"}],"vName":"The Butterfly Club"},"type":"Feature"},{"geometry":{"coordinates":[144.99959550357977,-37.762376950000004],"type":"Point"},"properties":{"events":[{"categories":["Music"],"eDate":"2024-06-21","eName":"Radio Birdman","genre":"Rock","price":"$98.85","supports":["CIVIC"],"ticketUrl":null,"time":" 8pm"}],"vName":"The Croxton"},"type":"Feature"},{"geometry":{"coordinates":[144.9657057,-37.8061581],"type":"Point"},"properties":{"events":[{"categories":["Music"],"eDate":"2024-06-21","eName":"Tapestry","genre":"Metal","price":"$24.90","supports":["Bukowski"," Colour Burn"," Silk Village"],"ticketUrl":null,"time":" 8pm"}],"vName":"The Curtin"},"type":"Feature"},{"geometry":{"coordinates":[144.9846126,-37.7989941],"type":"Point"},"properties":{"events":[{"categories":["Music"],"eDate":"2024-06-21","eName":"Rye Or Die","genre":"Punk","price":"$16.35","supports":[],"ticketUrl":null,"time":" 7pm"},{"categories":["Music"],"eDate":"2024-06-21","eName":"The Night Terrors","genre":"Electronic","price":"$28.60","supports":["Quell"," Full Fleshed"," Vacuum DJs"],"ticketUrl":null,"time":" 8pm"}],"vName":"The Tote Hotel"},"type":"Feature"},{"geometry":{"coordinates":[144.9769450659087,-37.8055776],"type":"Point"},"properties":{"events":[{"categories":["Music"],"eDate":"2024-06-21","eName":"Monty","genre":"Rock","price":"$12.75","supports":["In Transit"," Jadedstate"],"ticketUrl":null,"time":" 8pm"}],"vName":"The Workers Club"},"type":"Feature"},{"geometry":{"coordinates":[144.9618426,-37.8125531],"type":"Point"},"properties":{"events":[{"categories":["Free","Music"],"eDate":"2024-06-21","eName":"Mike Gurrieri: Ben Emes & Friends","genre":null,"price":"Free","supports":["Peteza"," DJ Not Really"," Galpie"," Ben Emes"],"ticketUrl":null,"time":" 4pm"}],"vName":"Whitehart Bar"},"type":"Feature"}],"type":"FeatureCollection"}