{"features":[{"geometry":{"coordinates":[144.978682,-37.7981225],"type":"Point"},"properties":{"events":[{"categories":["Music","Free"],"eDate":"2025-11-23","eName":"Viola Filippini","genre":null,"price":"Free","supports":[],"ticketUrl":null,"time":" 9pm"}],"vName":"Baxter's Lot"},"type":"Feature"},{"geometry":{"coordinates":[144.9945274,-37.8001115],"type":"Point"},"properties":{"events":[{"categories":["Other \"Food \"","Music","Free"],"eDate":"2025-11-23","eName":"Habibi Hafla presents: Lebanese Indepedence Day","genre":null,"price":"Free","supports":[],"ticketUrl":null,"time":" 3pm"}],"vName":"Bodriggy Brewing Company"},"type":"Feature"},{"geometry":{"coordinates":[144.9693768,-37.8164414],"type":"Point"},"properties":{"events":[{"categories":["Music"],"eDate":"2025-11-23","eName":"Sharon Van Etten & The Attachment Theory","genre":"Rock","price":"$93.25","supports":["Romy Vager"],"ticketUrl":null,"time":" 7:30pm"}],"vName":"Forum Melbourne"},"type":"Feature"},{"geometry":{"coordinates":[144.9596527,-37.7720304],"type":"Point"},"properties":{"events":[{"categories":["Music"],"eDate":"2025-11-23","eName":"Deep Dish","genre":"Electronic","price":"Free","supports":["Boogs"],"ticketUrl":null,"time":" 2pm"}],"vName":"Howler"},"type":"Feature"},{"geometry":{"coordinates":[144.8984802,-37.8111559],"type":"Point"},"properties":{"events":[{"categories":["Music"],"eDate":"2025-11-23","eName":"Andrew Swift","genre":"Country/Folk","price":"$44.00","supports":[],"ticketUrl":null,"time":" 2pm"}],"vName":"Kindred Bandroom"},"type":"Feature"},{"geometry":{"coordinates":[144.9675876,-37.8240849],"type":"Point"},"properties":{"events":[{"categories":["Music"],"eDate":"2025-11-23","eName":"Melbourne Chamber Orchestra: Nightingale","genre":"Classical","price":"$72.00","supports":[],"ticketUrl":null,"time":" 2:30pm"}],"vName":"Melbourne Recital Centre"},"type":"Feature"},{"geometry":{"coordinates":[144.97609011199125,-37.867583041643705],"type":"Point"},"properties":{"events":[{"categories":["Music"],"eDate":"2025-11-23","eName":"An Evening with Cowboy Junkies: Celebrating 40 Years","genre":"Country/Folk","price":"$99.00 - 159.90","supports":[],"ticketUrl":null,"time":" 7:30pm"}],"vName":"Palais Theatre"},"type":"Feature"},{"geometry":{"coordinates":[144.996838,-37.7794356],"type":"Point"},"properties":{"events":[{"categories":["Music"],"eDate":"2025-11-23","eName":"Tin Town","genre":"Acoustic","price":"$20.00","supports":[],"ticketUrl":null,"time":" 3pm"}],"vName":"The Merri Creek Tavern"},"type":"Feature"},{"geometry":{"coordinates":[144.9985126,-37.7588241],"type":"Point"},"properties":{"events":[{"categories":["Music"],"eDate":"2025-11-23","eName":"ENDOVIT Fest","genre":"Punk","price":"$38.00","supports":["more"],"ticketUrl":null,"time":" 2pm"}],"vName":"Thornbury Bowls Club"},"type":"Feature"},{"geometry":{"coordinates":[144.9984324,-37.7729134],"type":"Point"},"properties":{"events":[{"categories":["Music"],"eDate":"2025-11-23","eName":"Bush Gothic","genre":"Country/Folk","price":"$25.00","supports":[],"ticketUrl":null,"time":" 3pm"}],"vName":"Wesley Anne"},"type":"Feature"}],"type":"FeatureCollection"}