{"features":[{"geometry":{"coordinates":[144.99828116650363,-37.7713296],"type":"Point"},"properties":{"events":[{"categories":["Music"],"eDate":"2024-09-20","eName":"Garage Beat-Dance & Surf Rock'N'Roll Shakedown","genre":"Rock","price":"$10.00","supports":["The Earthquakes"," The TorqueFlites"],"ticketUrl":null,"time":" 7pm"}],"vName":"Bar 303"},"type":"Feature"},{"geometry":{"coordinates":[144.978425,-37.79773],"type":"Point"},"properties":{"events":[{"categories":["Free","Music"],"eDate":"2024-09-20","eName":"The Chilli Pickers","genre":"Country/Folk","price":"Free","supports":[],"ticketUrl":null,"time":" 6pm"},{"categories":["Music"],"eDate":"2024-09-20","eName":"My Dog, Satellite","genre":"Indie","price":"$11.25","supports":["Crushed Lavender"," Fliney"],"ticketUrl":null,"time":" 8:30pm"},{"categories":["Free","Music"],"eDate":"2024-09-20","eName":"Smoking Vinyl","genre":"Jazz","price":"Free","supports":[],"ticketUrl":null,"time":" 8:30pm"}],"vName":"Bar Open"},"type":"Feature"},{"geometry":{"coordinates":[144.978682,-37.7981225],"type":"Point"},"properties":{"events":[{"categories":["Free","Music"],"eDate":"2024-09-20","eName":"Woody Samson","genre":null,"price":"Free","supports":[],"ticketUrl":null,"time":" 9:30pm"},{"categories":["Music"],"eDate":"2024-09-20","eName":"DJ Damien Mack","genre":"Indie","price":"Free","supports":[],"ticketUrl":null,"time":"10pm"}],"vName":"Baxter's Lot"},"type":"Feature"},{"geometry":{"coordinates":[144.98911674151407,-37.79964875],"type":"Point"},"properties":{"events":[{"categories":["Music"],"eDate":"2024-09-20","eName":"Beefy's Spa Club: Loonee Tunes + The Pirateska Rebellion","genre":"Punk","price":"$22.95","supports":[],"ticketUrl":null,"time":" 9pm"}],"vName":"Bendigo Hotel"},"type":"Feature"},{"geometry":{"coordinates":[144.9607158,-37.776327],"type":"Point"},"properties":{"events":[{"categories":["Music"],"eDate":"2024-09-20","eName":"Scarn'On","genre":"Rock","price":"$13.80","supports":["Rockafella"," Tench"],"ticketUrl":null,"time":" 8pm"}],"vName":"Bergy Bandroom"},"type":"Feature"},{"geometry":{"coordinates":[144.9617018,-37.7704566],"type":"Point"},"properties":{"events":[{"categories":["Music"],"eDate":"2024-09-20","eName":"Odette","genre":"Indie","price":"$38.86","supports":[],"ticketUrl":null,"time":" 8pm"}],"vName":"Brunswick Ballroom"},"type":"Feature"},{"geometry":{"coordinates":[145.00025846036164,-37.7592368],"type":"Point"},"properties":{"events":[{"categories":["Music"],"eDate":"2024-09-20","eName":"Local Sweetheart","genre":null,"price":"$15.00","supports":["Jesse Echo"," Birdgirl"],"ticketUrl":null,"time":" 7:30pm"}],"vName":"Cafe Gummo"},"type":"Feature"},{"geometry":{"coordinates":[144.99266639479475,-37.82488935],"type":"Point"},"properties":{"events":[{"categories":["Music"],"eDate":"2024-09-20","eName":"Jebediah + Magic Dirt","genre":"Rock","price":"$73.10","supports":[],"ticketUrl":null,"time":" 8:30pm"}],"vName":"Corner Hotel"},"type":"Feature"},{"geometry":{"coordinates":[144.950359,-37.8100202],"type":"Point"},"properties":{"events":[{"categories":["Music"],"eDate":"2024-09-20","eName":"Furnace & The Fundamentals","genre":"Rock","price":"$81.45","supports":[],"ticketUrl":null,"time":" 7pm"}],"vName":"Festival Hall"},"type":"Feature"},{"geometry":{"coordinates":[144.9875917,-37.7963837],"type":"Point"},"properties":{"events":[{"categories":["Free","Music"],"eDate":"2024-09-20","eName":"Benny J & The Psych Ward + Lava Fangs","genre":"Rock","price":"Free","supports":[],"ticketUrl":null,"time":" 8pm"}],"vName":"Gem Bar"},"type":"Feature"},{"geometry":{"coordinates":[144.9679835243618,-37.8201575],"type":"Point"},"properties":{"events":[{"categories":["Comedy"],"eDate":"2024-09-20","eName":"The Comedians","genre":null,"price":"$99.00 - 119.00","supports":[],"ticketUrl":null,"time":" 7pm"},{"categories":["Comedy"],"eDate":"2024-09-20","eName":"The Comedians (Late Session)","genre":null,"price":"$99.00 - 119.00","supports":[],"ticketUrl":null,"time":" 9:15pm"}],"vName":"Hamer Hall (Arts Centre Melbourne)"},"type":"Feature"},{"geometry":{"coordinates":[144.973013,-37.8640582],"type":"Point"},"properties":{"events":[{"categories":["Music"],"eDate":"2024-09-20","eName":"Des Cortez","genre":"Rock","price":"$15.85","supports":[],"ticketUrl":null,"time":" 7:30pm"},{"categories":["Music"],"eDate":"2024-09-20","eName":"Misery Swiftness: Swemo Night","genre":null,"price":"$11.75 - 22.95","supports":[],"ticketUrl":null,"time":"11:30pm"}],"vName":"Hotel Esplanade (aka The Espy)"},"type":"Feature"},{"geometry":{"coordinates":[144.9596527,-37.7720304],"type":"Point"},"properties":{"events":[{"categories":["Music"],"eDate":"2024-09-20","eName":"Floating Dreams: Dee Montero","genre":"Electronic","price":"$28.56 - 44.37","supports":["Taglo"],"ticketUrl":null,"time":" 8pm"}],"vName":"Howler"},"type":"Feature"},{"geometry":{"coordinates":[144.9764962,-37.7983139],"type":"Point"},"properties":{"events":[{"categories":["Music","Festival"],"eDate":"2024-09-20","eName":"Big Beats Boutique","genre":"Electronic","price":"$10.00","supports":[],"ticketUrl":null,"time":" 9pm"}],"vName":"Laundry Bar"},"type":"Feature"},{"geometry":{"coordinates":[145.0008148,-37.8107158],"type":"Point"},"properties":{"events":[{"categories":["Music"],"eDate":"2024-09-20","eName":"Sweet Talk & Friends","genre":"Country/Folk","price":"$31.40","supports":["Eils & The Drip"],"ticketUrl":null,"time":" 8pm"}],"vName":"Leadbeater Hotel"},"type":"Feature"},{"geometry":{"coordinates":[144.8971518,-37.8054274],"type":"Point"},"properties":{"events":[{"categories":["Free","Music"],"eDate":"2024-09-20","eName":"The Terrapins","genre":null,"price":"Free","supports":["Immortal Fish"," Poor Premenstrual Darling"," The Satts"],"ticketUrl":null,"time":" 7pm"}],"vName":"Mamma Chen's"},"type":"Feature"},{"geometry":{"coordinates":[144.9659879,-37.8147557],"type":"Point"},"properties":{"events":[{"categories":["Music"],"eDate":"2024-09-20","eName":"sugarush: Pink Pony Club - Chappell Roan Night","genre":"Pop","price":"$17.00 - 25.00","supports":[],"ticketUrl":null,"time":" 9:30pm"}],"vName":"Max Watt's (Melbourne)"},"type":"Feature"},{"geometry":{"coordinates":[144.96741062735794,-37.82454855],"type":"Point"},"properties":{"events":[{"categories":["Music"],"eDate":"2024-09-20","eName":"Gregg Arthur: The Great American Songbook","genre":"Country/Folk","price":"$75.50","supports":[],"ticketUrl":null,"time":" 8pm"}],"vName":"Melbourne Recital Centre"},"type":"Feature"},{"geometry":{"coordinates":[145.3553553,-37.9078552],"type":"Point"},"properties":{"events":[{"categories":["Free","Music"],"eDate":"2024-09-20","eName":"Jon Collins","genre":null,"price":"Free","supports":[],"ticketUrl":null,"time":" 7pm"}],"vName":"Micawber Tavern"},"type":"Feature"},{"geometry":{"coordinates":[144.9712356,-37.812902],"type":"Point"},"properties":{"events":[{"categories":["Comedy"],"eDate":"2024-09-20","eName":"Basement Comedy Club","genre":null,"price":"$24.00","supports":[],"ticketUrl":null,"time":" 8pm"}],"vName":"Morris House"},"type":"Feature"},{"geometry":{"coordinates":[144.9846126,-37.7989941],"type":"Point"},"properties":{"events":[{"categories":["Music"],"eDate":"2024-09-20","eName":"Georgia Ray","genre":"Indie","price":"$17.19","supports":["Medicated Love"," Saint Victoire"],"ticketUrl":null,"time":" 8pm"}],"vName":"Nighthawks"},"type":"Feature"},{"geometry":{"coordinates":[144.998414,-37.771471],"type":"Point"},"properties":{"events":[{"categories":["Music"],"eDate":"2024-09-20","eName":"Kid Sam","genre":"Rock","price":"$32.15","supports":["Water Signs"," Mary Glenn"],"ticketUrl":null,"time":" 8:30pm"}],"vName":"Northcote Social Club"},"type":"Feature"},{"geometry":{"coordinates":[144.9605705,-37.8132486],"type":"Point"},"properties":{"events":[{"categories":["Music"],"eDate":"2024-09-20","eName":"Jessica Young Quintet","genre":"Jazz","price":"$45.00","supports":[],"ticketUrl":null,"time":" 6pm"},{"categories":["Music"],"eDate":"2024-09-20","eName":"In A Sentimental Mood: The Music Of Duke Ellington","genre":"Jazz","price":"$45.00","supports":[],"ticketUrl":null,"time":" 6:30pm"},{"categories":["Music"],"eDate":"2024-09-20","eName":"Williams Does Winehouse","genre":"Jazz","price":"$48.00","supports":[],"ticketUrl":null,"time":" 9pm"},{"categories":["Music"],"eDate":"2024-09-20","eName":"Craig Smith Quintet plays Billy Joel: In a Jazz State of Mind","genre":"Jazz","price":"$45.00","supports":[],"ticketUrl":null,"time":" 9:30pm"}],"vName":"Paris Cat Jazz Club"},"type":"Feature"},{"geometry":{"coordinates":[144.9828155,-37.8567825],"type":"Point"},"properties":{"events":[{"categories":["Music"],"eDate":"2024-09-20","eName":"Fluorescent Adolescents","genre":"Rock","price":"$29.60 - 40.80","supports":["The Killer Instinct"],"ticketUrl":null,"time":" 8pm"}],"vName":"Prince Bandroom"},"type":"Feature"},{"geometry":{"coordinates":[144.9615882,-37.7711432],"type":"Point"},"properties":{"events":[{"categories":["Free","Music"],"eDate":"2024-09-20","eName":"Jem Cassar-Daley","genre":null,"price":"$25.00 - 30.00","supports":["Holly Hebes"," Bec Sykes"],"ticketUrl":null,"time":" 7:30pm"}],"vName":"Retreat Hotel"},"type":"Feature"},{"geometry":{"coordinates":[144.9631913,-37.7617818],"type":"Point"},"properties":{"events":[{"categories":["Free","Music"],"eDate":"2024-09-20","eName":"Signal Chain + Grups","genre":null,"price":"Free","supports":[],"ticketUrl":null,"time":" 8pm"}],"vName":"Ringo Barr"},"type":"Feature"},{"geometry":{"coordinates":[145.001392343033,-37.75592655],"type":"Point"},"properties":{"events":[{"categories":["Music"],"eDate":"2024-09-20","eName":"Treebeard","genre":null,"price":"$23.05","supports":["Soma Plume"," Droid"," Black Aleph"],"ticketUrl":null,"time":" 7:30pm"}],"vName":"Shotkickers"},"type":"Feature"},{"geometry":{"coordinates":[144.9607404,-37.7743469],"type":"Point"},"properties":{"events":[{"categories":["Music"],"eDate":"2024-09-20","eName":"Undeath","genre":"Metal","price":"$59.90","supports":["Gutless"," Resin Tomb"],"ticketUrl":null,"time":" 7pm"}],"vName":"Stay Gold"},"type":"Feature"},{"geometry":{"coordinates":[144.9706095,-37.7783326],"type":"Point"},"properties":{"events":[{"categories":["Free","Music"],"eDate":"2024-09-20","eName":"Catpiss + Where's Jimmy?","genre":"Punk","price":"Free","supports":["Arabella & The Heist"],"ticketUrl":null,"time":" 9pm"}],"vName":"The Beast"},"type":"Feature"},{"geometry":{"coordinates":[144.97515565,-37.805788500000006],"type":"Point"},"properties":{"events":[{"categories":["Music"],"eDate":"2024-09-20","eName":"Nesting Hearts: Alt-Country Originals","genre":"Country/Folk","price":"$10.00","supports":[],"ticketUrl":null,"time":" 7:30pm"}],"vName":"The Catfish"},"type":"Feature"},{"geometry":{"coordinates":[144.9657057,-37.8061581],"type":"Point"},"properties":{"events":[{"categories":["Music"],"eDate":"2024-09-20","eName":"Emilee South","genre":"Rock","price":"$22.85","supports":[],"ticketUrl":null,"time":" 8pm"}],"vName":"The Curtin"},"type":"Feature"},{"geometry":{"coordinates":[145.13337431967784,-37.91372355],"type":"Point"},"properties":{"events":[{"categories":["Music"],"eDate":"2024-09-20","eName":"Dan Sultan","genre":"Country/Folk","price":"$20.00 - 65.00","supports":[],"ticketUrl":null,"time":" 7:30pm"}],"vName":"The Ian Potter Centre for Performing Arts"},"type":"Feature"},{"geometry":{"coordinates":[144.9830837,-37.7988316],"type":"Point"},"properties":{"events":[{"categories":["Music"],"eDate":"2024-09-20","eName":"CHI WOW WAH CITY: Spring Fling Gathering","genre":"Electronic","price":"$45.88","supports":[],"ticketUrl":null,"time":" 9pm"}],"vName":"The Night Cat"},"type":"Feature"},{"geometry":{"coordinates":[144.9846126,-37.7989941],"type":"Point"},"properties":{"events":[{"categories":["Music"],"eDate":"2024-09-20","eName":"Grand Final","genre":"Rock","price":"$11.25","supports":["Fuzzsucker & The Canberra Raiders"," Elvis II"," Spider Rico"],"ticketUrl":null,"time":" 8pm"},{"categories":["Music"],"eDate":"2024-09-20","eName":"Jarrow","genre":"Indie","price":"$16.35","supports":["Program"," Arbes"," DJ Grelp"],"ticketUrl":null,"time":" 8pm"}],"vName":"The Tote Hotel"},"type":"Feature"},{"geometry":{"coordinates":[144.9769450659087,-37.8055776],"type":"Point"},"properties":{"events":[{"categories":["Music"],"eDate":"2024-09-20","eName":"Will Clift","genre":null,"price":"$23.50","supports":["Bailey Judd"," Canisha"],"ticketUrl":null,"time":" 8pm"}],"vName":"The Workers Club"},"type":"Feature"},{"geometry":{"coordinates":[144.9618426,-37.8125531],"type":"Point"},"properties":{"events":[{"categories":["Free","Music"],"eDate":"2024-09-20","eName":"Fridays With Mike Gurrieri: Colette","genre":"Electronic","price":"Free","supports":[],"ticketUrl":null,"time":" 5pm"}],"vName":"Whitehart Bar"},"type":"Feature"}],"type":"FeatureCollection"}