{"features":[{"geometry":{"coordinates":[144.9945274,-37.8001115],"type":"Point"},"properties":{"events":[{"categories":["Free","Music","Other \"Food & Drink\""],"eDate":"2024-02-11","eName":"Larry Crestani's 'Stanley Circus'","genre":null,"price":"Free","supports":[],"ticketUrl":null,"time":" 4pm"}],"vName":"Bodriggy Brewing Company"},"type":"Feature"},{"geometry":{"coordinates":[145.3553553,-37.9078552],"type":"Point"},"properties":{"events":[{"categories":["Free","Music"],"eDate":"2024-02-11","eName":"Henry Ballard","genre":"Acoustic","price":"Free","supports":[],"ticketUrl":null,"time":" 1pm"}],"vName":"Micawber Tavern"},"type":"Feature"},{"geometry":{"coordinates":[145.0142411,-37.7310367],"type":"Point"},"properties":{"events":[{"categories":["Free","Music"],"eDate":"2024-02-11","eName":"Sunday Sunset Sessions","genre":"Jazz","price":"Free","supports":[],"ticketUrl":null,"time":" 6pm"}],"vName":"Ragtime Tavern"},"type":"Feature"},{"geometry":{"coordinates":[144.9615882,-37.7711432],"type":"Point"},"properties":{"events":[{"categories":["Music"],"eDate":"2024-02-11","eName":"Rory Maher","genre":"Pop","price":"$10.00 - 15.00","supports":[],"ticketUrl":null,"time":" 2:30pm"}],"vName":"Retreat Hotel"},"type":"Feature"},{"geometry":{"coordinates":[144.9631913,-37.7617818],"type":"Point"},"properties":{"events":[{"categories":["Free","Music"],"eDate":"2024-02-11","eName":"DJ Melissa Ray","genre":"Soul/Funk","price":"Free","supports":[],"ticketUrl":null,"time":" 2:30pm"},{"categories":["Free","Music"],"eDate":"2024-02-11","eName":"The Tryouts + My Giddy Aunt + Remember the Circus","genre":"Indie","price":"Free","supports":[],"ticketUrl":null,"time":" 8pm"}],"vName":"Ringo Barr"},"type":"Feature"}],"type":"FeatureCollection"}