{"features":[{"geometry":{"coordinates":[144.9679369,-37.8120109],"type":"Point"},"properties":{"events":[{"categories":["Music"],"eDate":"2024-06-14","eName":"The Ocean","genre":"Metal","price":"$79.90","supports":["Cave In"," LLNN"],"ticketUrl":null,"time":" 7:30pm"}],"vName":"170 Russell"},"type":"Feature"},{"geometry":{"coordinates":[144.9715791,-37.8140656],"type":"Point"},"properties":{"events":[{"categories":["Theatre"],"eDate":"2024-06-14","eName":"The Woman in Black (Matinee)","genre":null,"price":"$55.00 - 129.00","supports":[],"ticketUrl":null,"time":" 1pm"}],"vName":"Athenaeum Theatre"},"type":"Feature"},{"geometry":{"coordinates":[144.99828116650363,-37.7713296],"type":"Point"},"properties":{"events":[{"categories":["Music"],"eDate":"2024-06-14","eName":"Blake Carteris","genre":"Acoustic","price":"$10.00","supports":["Samara Cullen"," Joe Guiton"],"ticketUrl":null,"time":" 7pm"}],"vName":"Bar 303"},"type":"Feature"},{"geometry":{"coordinates":[144.9607158,-37.776327],"type":"Point"},"properties":{"events":[{"categories":["Music"],"eDate":"2024-06-14","eName":"Chey Jordan","genre":"Indie","price":"$16.85","supports":["Delvy"," Nick Keogh"],"ticketUrl":null,"time":" 7pm"}],"vName":"Bergy Bandroom"},"type":"Feature"},{"geometry":{"coordinates":[144.9617018,-37.7704566],"type":"Point"},"properties":{"events":[{"categories":["Music"],"eDate":"2024-06-14","eName":"Press Club","genre":"Punk","price":"$31.72","supports":[],"ticketUrl":null,"time":" 8:30pm"}],"vName":"Brunswick Ballroom"},"type":"Feature"},{"geometry":{"coordinates":[144.9248037207342,-37.7656716],"type":"Point"},"properties":{"events":[{"categories":["Music"],"eDate":"2024-06-14","eName":"An Evening With Vika & Linda","genre":"Soul/Funk","price":"$70.00","supports":[],"ticketUrl":null,"time":" 8pm"}],"vName":"Clocktower Centre"},"type":"Feature"},{"geometry":{"coordinates":[144.99266639479475,-37.82488935],"type":"Point"},"properties":{"events":[{"categories":["Music"],"eDate":"2024-06-14","eName":"Celebrating Kurt Cobain & Nirvana: 30 Years On","genre":"Rock","price":"$29.10","supports":[],"ticketUrl":null,"time":" 8:30pm"}],"vName":"Corner Hotel"},"type":"Feature"},{"geometry":{"coordinates":[144.9628440552175,-37.76100605],"type":"Point"},"properties":{"events":[{"categories":["Free","Music","Trivia"],"eDate":"2024-06-14","eName":"Bingo","genre":"Electronic","price":"Free","supports":[],"ticketUrl":null,"time":" 7pm"}],"vName":"Edinburgh Castle Hotel"},"type":"Feature"},{"geometry":{"coordinates":[144.8971518,-37.8054274],"type":"Point"},"properties":{"events":[{"categories":["Free","Music"],"eDate":"2024-06-14","eName":"The Coolabahs: Two Year Anniversary Show","genre":null,"price":"Free","supports":["Dole Cheque"," Jess Shreds & The Unmade Beds"],"ticketUrl":null,"time":" 7:30pm"}],"vName":"Mamma Chen's"},"type":"Feature"},{"geometry":{"coordinates":[144.96741062735794,-37.82454855],"type":"Point"},"properties":{"events":[{"categories":["Music"],"eDate":"2024-06-14","eName":"Bhairavi Raman & Nanthesh Sivarajah","genre":"Global","price":"$37.00","supports":[],"ticketUrl":null,"time":" 7pm"}],"vName":"Melbourne Recital Centre"},"type":"Feature"},{"geometry":{"coordinates":[144.96892412239615,-37.82266345],"type":"Point"},"properties":{"events":[{"categories":["Music"],"eDate":"2024-06-14","eName":"NGV Friday Nights: Joseph Tawadros","genre":null,"price":"$45.00","supports":[],"ticketUrl":null,"time":" 6pm"}],"vName":"NGV - National Gallery of Victoria"},"type":"Feature"},{"geometry":{"coordinates":[144.998414,-37.771471],"type":"Point"},"properties":{"events":[{"categories":["Music"],"eDate":"2024-06-14","eName":"Andy Golledge Band","genre":"Country/Folk","price":"$37.35","supports":[],"ticketUrl":null,"time":" 8:30pm"}],"vName":"Northcote Social Club"},"type":"Feature"},{"geometry":{"coordinates":[144.9605705,-37.8132486],"type":"Point"},"properties":{"events":[{"categories":["Music"],"eDate":"2024-06-14","eName":"Frankie Davis Junior & The Cat Pack","genre":"Jazz","price":"$45.00","supports":[],"ticketUrl":null,"time":" 5:30pm"}],"vName":"Paris Cat Jazz Club"},"type":"Feature"},{"geometry":{"coordinates":[144.9631913,-37.7617818],"type":"Point"},"properties":{"events":[{"categories":["Free","Music"],"eDate":"2024-06-14","eName":"Moths","genre":"Rock","price":"Free","supports":["Tina Growls"," Vomit"],"ticketUrl":null,"time":" 8pm"}],"vName":"Ringo Barr"},"type":"Feature"},{"geometry":{"coordinates":[144.965405,-37.8117457],"type":"Point"},"properties":{"events":[{"categories":["Free","Music"],"eDate":"2024-06-14","eName":"Q The Beats","genre":null,"price":"Free","supports":[],"ticketUrl":null,"time":" 6pm"}],"vName":"Section 8"},"type":"Feature"},{"geometry":{"coordinates":[144.9706095,-37.7783326],"type":"Point"},"properties":{"events":[{"categories":["Free","Music"],"eDate":"2024-06-14","eName":"Dakini Cuddle","genre":"Jazz","price":"Free","supports":["Lara Prokop"],"ticketUrl":null,"time":" 9:30pm"}],"vName":"The Beast"},"type":"Feature"},{"geometry":{"coordinates":[144.9657057,-37.8061581],"type":"Point"},"properties":{"events":[{"categories":["Music"],"eDate":"2024-06-14","eName":"Symphony Of Shadows Tour","genre":"Metal","price":"$22.85","supports":["ANA"," Mezmik"," Awaken The Hate"],"ticketUrl":null,"time":" 7pm"}],"vName":"The Curtin"},"type":"Feature"},{"geometry":{"coordinates":[144.9846126,-37.7989941],"type":"Point"},"properties":{"events":[{"categories":["Music"],"eDate":"2024-06-14","eName":"Suzi","genre":"Indie","price":"$16.35","supports":[],"ticketUrl":null,"time":" 7pm"},{"categories":["Music"],"eDate":"2024-06-14","eName":"Baby Mullet","genre":"Punk","price":"$16.35","supports":["R.U.B"," Eris & The Disciples"],"ticketUrl":null,"time":" 8pm"}],"vName":"The Tote Hotel"},"type":"Feature"},{"geometry":{"coordinates":[144.9769450659087,-37.8055776],"type":"Point"},"properties":{"events":[{"categories":["Music"],"eDate":"2024-06-14","eName":"Dynasty","genre":"Rock","price":"$10.00","supports":["The Rartel"," Pink Lady"],"ticketUrl":null,"time":" 8pm"}],"vName":"The Workers Club"},"type":"Feature"},{"geometry":{"coordinates":[144.9618426,-37.8125531],"type":"Point"},"properties":{"events":[{"categories":["Free","Music"],"eDate":"2024-06-14","eName":"Mike Gurrieri: Restless","genre":null,"price":"Free","supports":[],"ticketUrl":null,"time":" 4pm"}],"vName":"Whitehart Bar"},"type":"Feature"}],"type":"FeatureCollection"}