{"features":[{"geometry":{"coordinates":[144.9982812,-37.7713296],"type":"Point"},"properties":{"events":[{"categories":["Music"],"eDate":"2025-05-10","eName":"Punter","genre":"Punk","price":"$15.00","supports":["Vampire"," Cutters"," Whose Reality?"," Combat Rock"],"ticketUrl":null,"time":" 8pm"}],"vName":"Bar 303"},"type":"Feature"},{"geometry":{"coordinates":[144.978425,-37.79773],"type":"Point"},"properties":{"events":[{"categories":["Comedy"],"eDate":"2025-05-10","eName":"Ant Eye Comedy","genre":null,"price":"$2.00","supports":[],"ticketUrl":null,"time":" 6pm"},{"categories":["Music"],"eDate":"2025-05-10","eName":"Mishto","genre":"Punk","price":"$11.25","supports":["The Salmon Sisters"," more"],"ticketUrl":null,"time":" 8:30pm"}],"vName":"Bar Open"},"type":"Feature"},{"geometry":{"coordinates":[144.978682,-37.7981225],"type":"Point"},"properties":{"events":[{"categories":["Free","Music"],"eDate":"2025-05-10","eName":"Harrisen Hughes","genre":null,"price":"Free","supports":[],"ticketUrl":null,"time":" 9pm"},{"categories":["Free","Music"],"eDate":"2025-05-10","eName":"DJ Rubisco","genre":null,"price":"Free","supports":[],"ticketUrl":null,"time":"10pm"}],"vName":"Baxter's Lot"},"type":"Feature"},{"geometry":{"coordinates":[144.9607158,-37.776327],"type":"Point"},"properties":{"events":[{"categories":["Music"],"eDate":"2025-05-10","eName":"The Mundaynes","genre":"Punk","price":"$22.95","supports":["Exiles"," De Porsal"],"ticketUrl":null,"time":" 8pm"}],"vName":"Bergy Bandroom"},"type":"Feature"},{"geometry":{"coordinates":[144.9617083,-37.7704205],"type":"Point"},"properties":{"events":[{"categories":["Music"],"eDate":"2025-05-10","eName":"DAFT WEEKND","genre":"Electronic","price":"$43.96","supports":[],"ticketUrl":null,"time":" 8:30pm"}],"vName":"Brunswick Ballroom"},"type":"Feature"},{"geometry":{"coordinates":[144.9713425,-37.8128595],"type":"Point"},"properties":{"events":[{"categories":["Music"],"eDate":"2025-05-10","eName":"Awaken The Hate","genre":"Metal","price":"$10.00","supports":[],"ticketUrl":null,"time":" 8pm"}],"vName":"Cherry Bar"},"type":"Feature"},{"geometry":{"coordinates":[144.9248037,-37.7656716],"type":"Point"},"properties":{"events":[{"categories":["Music"],"eDate":"2025-05-10","eName":"Greg Andrew: The Elton John Experience","genre":"Pop","price":"$60.00","supports":[],"ticketUrl":null,"time":" 8pm"}],"vName":"Clocktower Centre"},"type":"Feature"},{"geometry":{"coordinates":[144.9926664,-37.8248893],"type":"Point"},"properties":{"events":[{"categories":["Music"],"eDate":"2025-05-10","eName":"90’s Rock Rager","genre":"Rock","price":"$40.40","supports":["Cuckoo For Caca"," Cherry Octane"],"ticketUrl":null,"time":" 8pm"}],"vName":"Corner Hotel"},"type":"Feature"},{"geometry":{"coordinates":[144.1430697,-37.3414953],"type":"Point"},"properties":{"events":[{"categories":["Free","Music"],"eDate":"2025-05-10","eName":"The Barb Kerr Trio","genre":"Jazz","price":"Free","supports":[],"ticketUrl":null,"time":" 7:30pm"}],"vName":"Daylesford Hotel"},"type":"Feature"},{"geometry":{"coordinates":[144.9875792,-37.7963739],"type":"Point"},"properties":{"events":[{"categories":["Free","Music"],"eDate":"2025-05-10","eName":"Digger & The Pussycats","genre":"Punk","price":"Free","supports":["Howl"," MMM"],"ticketUrl":null,"time":" 4pm"}],"vName":"Gem Bar"},"type":"Feature"},{"geometry":{"coordinates":[144.9679835,-37.8201575],"type":"Point"},"properties":{"events":[{"categories":["Music"],"eDate":"2025-05-10","eName":"Classic Kids: Wizardry School","genre":"Classical","price":"$28.00","supports":[],"ticketUrl":null,"time":"10:30am"},{"categories":["Music"],"eDate":"2025-05-10","eName":"Symphony in a Day","genre":"Classical","price":"$29.00","supports":[],"ticketUrl":null,"time":" 7:30pm"}],"vName":"Hamer Hall (Arts Centre Melbourne)"},"type":"Feature"},{"geometry":{"coordinates":[144.973013,-37.8640582],"type":"Point"},"properties":{"events":[{"categories":["Music"],"eDate":"2025-05-10","eName":"Early Bird: Daytime Clubbing for the 30+ Partygoer","genre":"Electronic","price":"$33.15 - 38.25","supports":[],"ticketUrl":null,"time":" 6pm"}],"vName":"Hotel Esplanade (aka The Espy)"},"type":"Feature"},{"geometry":{"coordinates":[144.9596527,-37.7720304],"type":"Point"},"properties":{"events":[{"categories":["Music"],"eDate":"2025-05-10","eName":"Prophecy Girl","genre":"Electronic","price":"$20.00 - 35.00","supports":["Aaliyah Salem"," Plumia"],"ticketUrl":null,"time":" 8pm"}],"vName":"Howler"},"type":"Feature"},{"geometry":{"coordinates":[144.8975289,-37.8022392],"type":"Point"},"properties":{"events":[{"categories":["Free","Music"],"eDate":"2025-05-10","eName":"Someone Else’s Wedding Band","genre":"Punk","price":"Free","supports":["The Secret Migraines"," Beth Seymour"],"ticketUrl":null,"time":" 2pm"},{"categories":["Free","Music"],"eDate":"2025-05-10","eName":"Someone Else’s Wedding Band","genre":null,"price":"Free","supports":["The Secret Migraines"," Beth Seymour"],"ticketUrl":null,"time":" 2:30pm"},{"categories":["Music"],"eDate":"2025-05-10","eName":"Dream Particle: Modular Synthesis / Live Electronica / Live Drums (Sleepless Footscray Festival)","genre":null,"price":"$15.00 - 20.00","supports":["Justin Ashworth"," The Artificial Limb (Band)"," Miles Lee"],"ticketUrl":null,"time":" 7pm"}],"vName":"Mamma Chen's"},"type":"Feature"},{"geometry":{"coordinates":[144.9675876,-37.8240849],"type":"Point"},"properties":{"events":[{"categories":["Music"],"eDate":"2025-05-10","eName":"Jane Austen’s Music: Pemberley Revisited","genre":"Classical","price":"$35.00 - 79.00","supports":[],"ticketUrl":null,"time":" 4pm"}],"vName":"Melbourne Recital Centre"},"type":"Feature"},{"geometry":{"coordinates":[144.9790251,-37.8675008],"type":"Point"},"properties":{"events":[{"categories":["Music"],"eDate":"2025-05-10","eName":"The Royal Motown Review & The Horns of Hip","genre":"Soul/Funk","price":"$35.00 - 55.00","supports":[],"ticketUrl":null,"time":" 7pm"}],"vName":"Memo Music Hall"},"type":"Feature"},{"geometry":{"coordinates":[144.9712356,-37.812902],"type":"Point"},"properties":{"events":[{"categories":["Music"],"eDate":"2025-05-10","eName":"Rich Why","genre":"Electronic","price":"Free","supports":[],"ticketUrl":null,"time":" 7pm"},{"categories":["Comedy"],"eDate":"2025-05-10","eName":"Basement Comedy Club","genre":null,"price":"$25.00","supports":[],"ticketUrl":null,"time":" 8pm"}],"vName":"Morris House"},"type":"Feature"},{"geometry":{"coordinates":[144.998414,-37.771471],"type":"Point"},"properties":{"events":[{"categories":["Music"],"eDate":"2025-05-10","eName":"Mannequin Death Squad","genre":"Rock","price":"$24.00","supports":[],"ticketUrl":null,"time":" 8:30pm"}],"vName":"Northcote Social Club"},"type":"Feature"},{"geometry":{"coordinates":[144.9661336,-37.7358243],"type":"Point"},"properties":{"events":[{"categories":["Music"],"eDate":"2025-05-10","eName":"Spoonful","genre":"Rock","price":"Free","supports":[],"ticketUrl":null,"time":" 9pm"}],"vName":"Post Office Hotel"},"type":"Feature"},{"geometry":{"coordinates":[144.9837213,-37.8048409],"type":"Point"},"properties":{"events":[{"categories":["Music"],"eDate":"2025-05-10","eName":"Dub Divination Sound System Presents… Dub Shakedown!","genre":"Electronic","price":"$10.00 - 15.00","supports":[],"ticketUrl":null,"time":" 8pm"}],"vName":"QQQ ST. Park"},"type":"Feature"},{"geometry":{"coordinates":[144.9583409,-37.7664168],"type":"Point"},"properties":{"events":[{"categories":["Music"],"eDate":"2025-05-10","eName":"Eggy","genre":"Rock","price":"$22.00 - 27.50","supports":["Snowy Philharmonic"," Hantu"],"ticketUrl":null,"time":" 6pm"}],"vName":"Quadraphonic Club"},"type":"Feature"},{"geometry":{"coordinates":[145.0142411,-37.7310367],"type":"Point"},"properties":{"events":[{"categories":["Music"],"eDate":"2025-05-10","eName":"Damon Smith","genre":"Jazz","price":"Free","supports":[],"ticketUrl":null,"time":" 8pm"}],"vName":"Ragtime Tavern"},"type":"Feature"},{"geometry":{"coordinates":[144.9615882,-37.7711432],"type":"Point"},"properties":{"events":[{"categories":["Free","Music"],"eDate":"2025-05-10","eName":"Anatreptix","genre":"Global","price":"Free","supports":[],"ticketUrl":null,"time":" 2pm"}],"vName":"Retreat Hotel"},"type":"Feature"},{"geometry":{"coordinates":[144.993413,-37.8506652],"type":"Point"},"properties":{"events":[{"categories":["Music"],"eDate":"2025-05-10","eName":"In Your Honour + Paranoid Android","genre":"Rock","price":"$18.05","supports":[],"ticketUrl":null,"time":" 7pm"}],"vName":"Revolver Upstairs"},"type":"Feature"},{"geometry":{"coordinates":[145.3534507,-37.9100746],"type":"Point"},"properties":{"events":[{"categories":["Music"],"eDate":"2025-05-10","eName":"Half Cut Hicks","genre":"Country/Folk","price":"$18.40","supports":[],"ticketUrl":null,"time":" 4pm"},{"categories":["Music"],"eDate":"2025-05-10","eName":"HDC","genre":"Electronic","price":"Free","supports":[],"ticketUrl":null,"time":" 9pm"}],"vName":"Sooki Lounge"},"type":"Feature"},{"geometry":{"coordinates":[144.9607404,-37.7743469],"type":"Point"},"properties":{"events":[{"categories":["Music"],"eDate":"2025-05-10","eName":"TAKING BACK SATURDAY: Emo & Pop Punk Night","genre":"Punk","price":"$13.80 - 22.00","supports":[],"ticketUrl":null,"time":"11pm"},{"categories":["Music"],"eDate":"2025-05-10","eName":"One Wishh","genre":"Hip Hop","price":"$11.65 - 23.30","supports":[],"ticketUrl":null,"time":"11pm"}],"vName":"Stay Gold"},"type":"Feature"},{"geometry":{"coordinates":[144.9995955,-37.762377],"type":"Point"},"properties":{"events":[{"categories":["Music"],"eDate":"2025-05-10","eName":"Insomnium","genre":"Metal","price":"$85.70","supports":["Omnium Gatherum"],"ticketUrl":null,"time":" 7:30pm"}],"vName":"The Croxton"},"type":"Feature"},{"geometry":{"coordinates":[144.9657057,-37.8061581],"type":"Point"},"properties":{"events":[{"categories":["Music"],"eDate":"2025-05-10","eName":"Majak Door","genre":"Rock","price":"$27.95","supports":["Stimpies"," Erica Avenue"],"ticketUrl":null,"time":" 8pm"}],"vName":"The Curtin"},"type":"Feature"},{"geometry":{"coordinates":[144.9555612,-37.8066759],"type":"Point"},"properties":{"events":[{"categories":["Free","Music"],"eDate":"2025-05-10","eName":"The Danny Walsh Banned","genre":"Country/Folk","price":"Free","supports":[],"ticketUrl":null,"time":" 9pm"}],"vName":"The Drunken Poet"},"type":"Feature"},{"geometry":{"coordinates":[144.9586498,-37.766903],"type":"Point"},"properties":{"events":[{"categories":["Music"],"eDate":"2025-05-10","eName":"Fatai & Special Guests","genre":"Jazz","price":"$32.00 - 37.00","supports":[],"ticketUrl":null,"time":" 8pm"}],"vName":"The Jazzlab"},"type":"Feature"},{"geometry":{"coordinates":[144.9879283,-37.7505509],"type":"Point"},"properties":{"events":[{"categories":["Music"],"eDate":"2025-05-10","eName":"Lana Eileen","genre":"Acoustic","price":"Free","supports":[],"ticketUrl":null,"time":" 7pm"}],"vName":"The Merri Bar"},"type":"Feature"},{"geometry":{"coordinates":[144.9708437,-37.7973184],"type":"Point"},"properties":{"events":[{"categories":["Theatre"],"eDate":"2025-05-10","eName":"A Twist of Fate (Matinee Session)","genre":null,"price":"$35.46","supports":[],"ticketUrl":null,"time":" 1pm"},{"categories":["Music"],"eDate":"2025-05-10","eName":"LARRY MEETS SELLO: Sello Molefi + Larry Crestani","genre":"Soul/Funk","price":"Free","supports":[],"ticketUrl":null,"time":" 5pm"},{"categories":["Theatre"],"eDate":"2025-05-10","eName":"A Twist of Fate","genre":null,"price":"$35.46","supports":[],"ticketUrl":null,"time":" 5pm"},{"categories":["Music"],"eDate":"2025-05-10","eName":"Motley Jazz Jam","genre":"Jazz","price":"Free","supports":[],"ticketUrl":null,"time":" 7:30pm"},{"categories":["Comedy","Theatre"],"eDate":"2025-05-10","eName":"The Big HOO-HAA!","genre":null,"price":"$32.00","supports":[],"ticketUrl":null,"time":" 8:30pm"}],"vName":"The Motley Bauhaus"},"type":"Feature"},{"geometry":{"coordinates":[144.9621651,-37.7679775],"type":"Point"},"properties":{"events":[{"categories":["Free","Music"],"eDate":"2025-05-10","eName":"Coast To Coast","genre":"Punk","price":"Free","supports":[],"ticketUrl":null,"time":" 9pm"}],"vName":"The Penny Black"},"type":"Feature"},{"geometry":{"coordinates":[145.1818891,-37.8163371],"type":"Point"},"properties":{"events":[{"categories":["Music"],"eDate":"2025-05-10","eName":"The Lyrebird’s Voice: Victorian Opera","genre":"Classical","price":"$42.00","supports":[],"ticketUrl":null,"time":" 2pm"}],"vName":"The Round"},"type":"Feature"},{"geometry":{"coordinates":[144.9651425,-37.8119429],"type":"Point"},"properties":{"events":[{"categories":["Music"],"eDate":"2025-05-10","eName":"Uncle Archie Roach Block Party","genre":"Electronic","price":"$69.36","supports":[],"ticketUrl":null,"time":" 6pm"}],"vName":"The Toff In Town"},"type":"Feature"},{"geometry":{"coordinates":[144.9870814,-37.799406],"type":"Point"},"properties":{"events":[{"categories":["Music"],"eDate":"2025-05-10","eName":"Purple Disturbance","genre":"Rock","price":"Free","supports":["Buckett"," Killerwhale"],"ticketUrl":null,"time":" 3pm"},{"categories":["Music"],"eDate":"2025-05-10","eName":"Tee It Up: 7th Birthday Bash","genre":"Punk","price":"$39.30","supports":[],"ticketUrl":null,"time":" 7:30pm"}],"vName":"The Tote Hotel"},"type":"Feature"},{"geometry":{"coordinates":[144.9769451,-37.8055776],"type":"Point"},"properties":{"events":[{"categories":["Music"],"eDate":"2025-05-10","eName":"Noah Tate","genre":"Indie","price":"$12.75","supports":["Catie Alison"," more"],"ticketUrl":null,"time":" 1pm"},{"categories":["Music"],"eDate":"2025-05-10","eName":"SUB-TRIBE","genre":"Electronic","price":"$28.60 - 33.95","supports":[],"ticketUrl":null,"time":" 8pm"}],"vName":"The Workers Club"},"type":"Feature"},{"geometry":{"coordinates":[144.9661635,-37.8176298],"type":"Point"},"properties":{"events":[{"categories":["Music"],"eDate":"2025-05-10","eName":"Proxemics x Midnight Request presents Sustance","genre":"Electronic","price":"$27.40 - 32.90","supports":["Sistym"," Doe"," Enyo"," Chapter"],"ticketUrl":null,"time":" 8pm"}],"vName":"Wax Music Lounge"},"type":"Feature"}],"type":"FeatureCollection"}