{"features":[{"geometry":{"coordinates":[144.9679835243618,-37.8201575],"type":"Point"},"properties":{"events":[{"categories":["Dance"],"eDate":"2024-08-28","eName":"Alisdair Macindoe: Plagiary","genre":null,"price":"$49.00","supports":[],"ticketUrl":null,"time":" 7:30pm"}],"vName":"Arts Centre Melbourne"},"type":"Feature"},{"geometry":{"coordinates":[144.978682,-37.7981225],"type":"Point"},"properties":{"events":[{"categories":["Free","Music"],"eDate":"2024-08-28","eName":"Ari Davis","genre":null,"price":"Free","supports":[],"ticketUrl":null,"time":" 9:30pm"}],"vName":"Baxter's Lot"},"type":"Feature"},{"geometry":{"coordinates":[144.9248037207342,-37.7656716],"type":"Point"},"properties":{"events":[{"categories":["Music"],"eDate":"2024-08-28","eName":"The Tap Pack","genre":"Jazz","price":"$89.90","supports":[],"ticketUrl":null,"time":" 7:30pm"}],"vName":"Clocktower Centre"},"type":"Feature"},{"geometry":{"coordinates":[144.96947,-37.816565],"type":"Point"},"properties":{"events":[{"categories":["Music"],"eDate":"2024-08-28","eName":"Stand Atlantic","genre":"Punk","price":"$64.90","supports":["Sly Withers"," VANA"],"ticketUrl":null,"time":" 7pm"}],"vName":"Forum Melbourne"},"type":"Feature"},{"geometry":{"coordinates":[144.9679835243618,-37.8201575],"type":"Point"},"properties":{"events":[{"categories":["Music"],"eDate":"2024-08-28","eName":"Open Rehearsal with Lawrence Renes","genre":"Classical","price":"$19.00","supports":[],"ticketUrl":null,"time":" 6:30pm"}],"vName":"Hamer Hall (Arts Centre Melbourne)"},"type":"Feature"},{"geometry":{"coordinates":[144.8971518,-37.8054274],"type":"Point"},"properties":{"events":[{"categories":["Free","Music","Other \"Spoken Word\"","Other \"Poetry & Forums\""],"eDate":"2024-08-28","eName":"Assorted Sporks: Sonic Poetry Festival Edition with Lane Milburn","genre":"Experimental","price":"Free","supports":[],"ticketUrl":null,"time":" 7pm"}],"vName":"Mamma Chen's"},"type":"Feature"},{"geometry":{"coordinates":[144.96741062735794,-37.82454855],"type":"Point"},"properties":{"events":[{"categories":["Music"],"eDate":"2024-08-28","eName":"Concert for Ukraine","genre":"Acoustic","price":"$50.00","supports":[],"ticketUrl":null,"time":" 7pm"}],"vName":"Melbourne Recital Centre"},"type":"Feature"},{"geometry":{"coordinates":[144.97711,-37.79833],"type":"Point"},"properties":{"events":[{"categories":["Free","Music"],"eDate":"2024-08-28","eName":"Old Bar Karaoke with Silvio Di Baci","genre":"Rock","price":"Free","supports":[],"ticketUrl":null,"time":" 8pm"}],"vName":"Old Bar"},"type":"Feature"},{"geometry":{"coordinates":[144.9631913,-37.7617818],"type":"Point"},"properties":{"events":[{"categories":["Free","Music"],"eDate":"2024-08-28","eName":"Open Jam with Propane Trio & Friends","genre":"Jazz","price":"Free","supports":[],"ticketUrl":null,"time":" 8pm"}],"vName":"Ringo Barr"},"type":"Feature"},{"geometry":{"coordinates":[144.9607404,-37.7743469],"type":"Point"},"properties":{"events":[{"categories":["Music"],"eDate":"2024-08-28","eName":"KPop Night","genre":"Metal","price":"$33.00","supports":["AWOL"," Thantu Thikha"," Tarnished"],"ticketUrl":null,"time":" 6:30pm"}],"vName":"Stay Gold"},"type":"Feature"},{"geometry":{"coordinates":[144.9708437,-37.7973184],"type":"Point"},"properties":{"events":[{"categories":["Art"],"eDate":"2024-08-28","eName":"Life Drawing Wednesdays","genre":null,"price":"$10.00","supports":[],"ticketUrl":null,"time":" 6pm"},{"categories":["Free","Other \"Spoken Word\"","Other \"Poetry & Forums\""],"eDate":"2024-08-28","eName":"Motley Openhaus: Poetry Open Mic","genre":null,"price":"Free","supports":[],"ticketUrl":null,"time":" 7:30pm"},{"categories":["Other \"Cabaret\""],"eDate":"2024-08-28","eName":"Devastating Beauty","genre":null,"price":"$25.33","supports":[],"ticketUrl":null,"time":" 8pm"}],"vName":"The Motley Bauhaus"},"type":"Feature"},{"geometry":{"coordinates":[144.9983987,-37.7729204],"type":"Point"},"properties":{"events":[{"categories":["Trivia"],"eDate":"2024-08-28","eName":"Trivia With Sparx","genre":null,"price":"Free","supports":[],"ticketUrl":null,"time":" 7:30pm"}],"vName":"Wesley Anne"},"type":"Feature"},{"geometry":{"coordinates":[144.9618426,-37.8125531],"type":"Point"},"properties":{"events":[{"categories":["Free","Music","Other \"Food & Drink\""],"eDate":"2024-08-28","eName":"Mothafunk","genre":"Electronic","price":"Free","supports":[],"ticketUrl":null,"time":" 4pm"}],"vName":"Whitehart Bar"},"type":"Feature"}],"type":"FeatureCollection"}