{"features":[{"geometry":{"coordinates":[144.9679369,-37.8120109],"type":"Point"},"properties":{"events":[{"categories":["Music"],"eDate":"2024-02-09","eName":"MAMMAL","genre":"Rock","price":"Free","supports":["I Built The Sky"],"ticketUrl":null,"time":" 8pm"}],"vName":"170 Russell"},"type":"Feature"},{"geometry":{"coordinates":[144.9763781,-37.7983136],"type":"Point"},"properties":{"events":[{"categories":["Music"],"eDate":"2024-02-09","eName":"Skytanic","genre":"Metal","price":"$10.00","supports":["SMiLA"," King's Vengeance"],"ticketUrl":null,"time":" 7pm"}],"vName":"Bad Decisions Bar"},"type":"Feature"},{"geometry":{"coordinates":[144.99828116650363,-37.7713296],"type":"Point"},"properties":{"events":[{"categories":["Music"],"eDate":"2024-02-09","eName":"Spencer Hughes' Apple Septet","genre":"Jazz","price":"$11.90","supports":[],"ticketUrl":null,"time":" 7:30pm"}],"vName":"Bar 303"},"type":"Feature"},{"geometry":{"coordinates":[144.978425,-37.79773],"type":"Point"},"properties":{"events":[{"categories":["Free","Music"],"eDate":"2024-02-09","eName":"Three Base Hit","genre":"Jazz","price":"Free","supports":[],"ticketUrl":null,"time":" 6pm"},{"categories":["Music"],"eDate":"2024-02-09","eName":"Forever On High","genre":"Indie","price":"$17.35","supports":["One More Weekend"," Ivy Black"],"ticketUrl":null,"time":" 8:30pm"}],"vName":"Bar Open"},"type":"Feature"},{"geometry":{"coordinates":[144.9607158,-37.776327],"type":"Point"},"properties":{"events":[{"categories":["Music"],"eDate":"2024-02-09","eName":"The Kittyhawks","genre":"Punk","price":"$15.00","supports":["Admiral Ackbar's Dishonourable Discharge"," The Murder Balls"," Brodown"],"ticketUrl":null,"time":" 8pm"}],"vName":"Bergy Bandroom"},"type":"Feature"},{"geometry":{"coordinates":[144.9947908,-37.8491931],"type":"Point"},"properties":{"events":[{"categories":["Other \"Cabaret\""],"eDate":"2024-02-09","eName":"Tash York: Love That For You","genre":null,"price":"$30.00 - 32.00","supports":[],"ticketUrl":null,"time":" 7pm"}],"vName":"Chapel Off Chapel"},"type":"Feature"},{"geometry":{"coordinates":[144.9713425,-37.8128595],"type":"Point"},"properties":{"events":[{"categories":["Music"],"eDate":"2024-02-09","eName":"Brad Cook Trio","genre":"Rock","price":"$17.48","supports":["War Birds"],"ticketUrl":null,"time":" 8pm"}],"vName":"Cherry Bar"},"type":"Feature"},{"geometry":{"coordinates":[144.99266639479475,-37.82488935],"type":"Point"},"properties":{"events":[{"categories":["Music"],"eDate":"2024-02-09","eName":"Blondshell","genre":"Rock","price":"$59.00","supports":["The Belair Lip Bombs"],"ticketUrl":null,"time":" 8:30pm"}],"vName":"Corner Hotel"},"type":"Feature"},{"geometry":{"coordinates":[144.98535244416098,-37.79426315],"type":"Point"},"properties":{"events":[{"categories":["Music"],"eDate":"2024-02-09","eName":"Mainland Break","genre":"Indie","price":"$17.85","supports":["Hot Glue"," Jacqui Lumsden"],"ticketUrl":null,"time":" 7:30pm"}],"vName":"Gasometer Hotel"},"type":"Feature"},{"geometry":{"coordinates":[144.9875917,-37.7963837],"type":"Point"},"properties":{"events":[{"categories":["Music"],"eDate":"2024-02-09","eName":"House of Light + Peter Haren & The Wolves","genre":null,"price":"Free","supports":[],"ticketUrl":null,"time":" 8:30pm"}],"vName":"Gem Bar"},"type":"Feature"},{"geometry":{"coordinates":[144.973013,-37.8640582],"type":"Point"},"properties":{"events":[{"categories":["Music"],"eDate":"2024-02-09","eName":"On Repeat: Zach Bryan Appreciation Night","genre":"Country/Folk","price":"$10.75 - 20.00","supports":[],"ticketUrl":null,"time":" 9pm"}],"vName":"Hotel Esplanade (aka The Espy)"},"type":"Feature"},{"geometry":{"coordinates":[144.9596527,-37.7720304],"type":"Point"},"properties":{"events":[{"categories":["Music"],"eDate":"2024-02-09","eName":"The Velvet Club","genre":"Rock","price":"$23.46","supports":[],"ticketUrl":null,"time":" 8pm"}],"vName":"Howler"},"type":"Feature"},{"geometry":{"coordinates":[144.9764962,-37.7983139],"type":"Point"},"properties":{"events":[{"categories":["Music"],"eDate":"2024-02-09","eName":"Oblique Group presents Inverse Intentions","genre":"Electronic","price":"$13.00","supports":["DJ Daddy Tata"," Eden HG"," East Kraz"],"ticketUrl":null,"time":" 9pm"}],"vName":"Laundry Bar"},"type":"Feature"},{"geometry":{"coordinates":[145.0008148,-37.8107158],"type":"Point"},"properties":{"events":[{"categories":["Music"],"eDate":"2024-02-09","eName":"The Lighthouse Classic Bands & DJs Night","genre":"Rock","price":"$28.85","supports":["The Heart Shaped Aces"," b2b Jrob"," Noodle"," Harry Stylez"," Bubba"],"ticketUrl":null,"time":" 7pm"}],"vName":"Leadbeater Hotel"},"type":"Feature"},{"geometry":{"coordinates":[144.9936498,-37.8000264],"type":"Point"},"properties":{"events":[{"categories":["Music"],"eDate":"2024-02-09","eName":"The Gems","genre":"Country/Folk","price":"Free","supports":[],"ticketUrl":null,"time":" 7pm"}],"vName":"Lulie Tavern"},"type":"Feature"},{"geometry":{"coordinates":[145.3553553,-37.9078552],"type":"Point"},"properties":{"events":[{"categories":["Free","Music"],"eDate":"2024-02-09","eName":"Zak Shepherd","genre":"Acoustic","price":"Free","supports":[],"ticketUrl":null,"time":" 7pm"}],"vName":"Micawber Tavern"},"type":"Feature"},{"geometry":{"coordinates":[144.9712356,-37.812902],"type":"Point"},"properties":{"events":[{"categories":["Comedy"],"eDate":"2024-02-09","eName":"Basement Comedy Club Fridays","genre":null,"price":"$22.00","supports":[],"ticketUrl":null,"time":" 8pm"}],"vName":"Morris House"},"type":"Feature"},{"geometry":{"coordinates":[144.998414,-37.771471],"type":"Point"},"properties":{"events":[{"categories":["Music"],"eDate":"2024-02-09","eName":"Squid Nebula","genre":"Soul/Funk","price":"$24.00","supports":[],"ticketUrl":null,"time":" 8:30pm"}],"vName":"Northcote Social Club"},"type":"Feature"},{"geometry":{"coordinates":[145.0142411,-37.7310367],"type":"Point"},"properties":{"events":[{"categories":["Free","Music"],"eDate":"2024-02-09","eName":"Rayna","genre":"Jazz","price":"Free","supports":[],"ticketUrl":null,"time":" 8pm"}],"vName":"Ragtime Tavern"},"type":"Feature"},{"geometry":{"coordinates":[144.9631913,-37.7617818],"type":"Point"},"properties":{"events":[{"categories":["Free","Music"],"eDate":"2024-02-09","eName":"Kincaid + Kit Genesis","genre":null,"price":"Free","supports":[],"ticketUrl":null,"time":" 8pm"}],"vName":"Ringo Barr"},"type":"Feature"},{"geometry":{"coordinates":[144.9706095,-37.7783326],"type":"Point"},"properties":{"events":[{"categories":["Free","Music"],"eDate":"2024-02-09","eName":"Astro Elevator","genre":"Rock","price":"Free","supports":["Skerzo"," Ozergun"],"ticketUrl":null,"time":" 9pm"}],"vName":"The Beast"},"type":"Feature"},{"geometry":{"coordinates":[144.9657057,-37.8061581],"type":"Point"},"properties":{"events":[{"categories":["Music"],"eDate":"2024-02-09","eName":"Into The Vein","genre":"Metal","price":"$17.75","supports":["Druid"," Outer Worlds"," Manic Temple"],"ticketUrl":null,"time":" 7pm"}],"vName":"The Curtin"},"type":"Feature"},{"geometry":{"coordinates":[144.9720579,-37.8121675],"type":"Point"},"properties":{"events":[{"categories":["Comedy"],"eDate":"2024-02-09","eName":"Cool & Smart","genre":null,"price":"$24.00","supports":[],"ticketUrl":null,"time":" 6pm"}],"vName":"The Improv Conspiracy"},"type":"Feature"},{"geometry":{"coordinates":[144.9585654,-37.8059962],"type":"Point"},"properties":{"events":[{"categories":["Music"],"eDate":"2024-02-09","eName":"Best In The West Fest","genre":"Rock","price":"$28.60","supports":[],"ticketUrl":null,"time":" 6pm"}],"vName":"The Last Chance Rock & Roll Bar"},"type":"Feature"},{"geometry":{"coordinates":[144.9846126,-37.7989941],"type":"Point"},"properties":{"events":[{"categories":["Music"],"eDate":"2024-02-09","eName":"Bob Log III","genre":"Blues","price":"$23.50","supports":["The Salmon Sisters"," Jungle Jim Smith"],"ticketUrl":null,"time":" 7pm"},{"categories":["Music"],"eDate":"2024-02-09","eName":"SUPER-X","genre":"Punk","price":"$11.25","supports":["Ghost Bitch"," Pearl Bay"],"ticketUrl":null,"time":" 8pm"}],"vName":"The Tote Hotel"},"type":"Feature"},{"geometry":{"coordinates":[144.9827552,-37.8041303],"type":"Point"},"properties":{"events":[{"categories":["Music"],"eDate":"2024-02-09","eName":"VOIID","genre":"Punk","price":"$15.00","supports":["Kaitlin Keegan"],"ticketUrl":null,"time":" 9pm"}],"vName":"Yah Yah's"},"type":"Feature"},{"geometry":{"coordinates":[144.8946587,-37.8151254],"type":"Point"},"properties":{"events":[{"categories":["Music"],"eDate":"2024-02-09","eName":"Ash Grunwald","genre":"Blues","price":"$35.00","supports":[],"ticketUrl":null,"time":" 8pm"}],"vName":"Yarraville Club"},"type":"Feature"}],"type":"FeatureCollection"}