{"features":[{"geometry":{"coordinates":[144.9982812,-37.7713296],"type":"Point"},"properties":{"events":[{"categories":["Music"],"eDate":"2025-05-29","eName":"PSI PHI","genre":null,"price":"Free","supports":[],"ticketUrl":null,"time":" 8pm"}],"vName":"Bar 303"},"type":"Feature"},{"geometry":{"coordinates":[144.978425,-37.79773],"type":"Point"},"properties":{"events":[{"categories":["Free","Music"],"eDate":"2025-05-29","eName":"Skabhangers","genre":"Jazz","price":"Free","supports":[],"ticketUrl":null,"time":" 6:30pm"}],"vName":"Bar Open"},"type":"Feature"},{"geometry":{"coordinates":[144.978682,-37.7981225],"type":"Point"},"properties":{"events":[{"categories":["Free","Music"],"eDate":"2025-05-29","eName":"Mukul Jiwnani","genre":null,"price":"Free","supports":[],"ticketUrl":null,"time":" 9pm"}],"vName":"Baxter's Lot"},"type":"Feature"},{"geometry":{"coordinates":[144.9607158,-37.776327],"type":"Point"},"properties":{"events":[{"categories":["Music","Other \"Cabaret\""],"eDate":"2025-05-29","eName":"Dream Tease","genre":"Jazz","price":"$33.15","supports":[],"ticketUrl":null,"time":" 6pm"}],"vName":"Bergy Bandroom"},"type":"Feature"},{"geometry":{"coordinates":[144.9568039,-37.8111442],"type":"Point"},"properties":{"events":[{"categories":["Music"],"eDate":"2025-05-29","eName":"Prinnie Stevens","genre":"Soul/Funk","price":"$38.00","supports":[],"ticketUrl":null,"time":" 7:30pm"}],"vName":"Bird's Basement"},"type":"Feature"},{"geometry":{"coordinates":[144.9945274,-37.8001115],"type":"Point"},"properties":{"events":[{"categories":["Free","Music","Other \"Food \""],"eDate":"2025-05-29","eName":"Araminta","genre":null,"price":"Free","supports":[],"ticketUrl":null,"time":" 7:30pm"}],"vName":"Bodriggy Brewing Company"},"type":"Feature"},{"geometry":{"coordinates":[145.0002585,-37.7592368],"type":"Point"},"properties":{"events":[{"categories":["Music"],"eDate":"2025-05-29","eName":"Fox Wytch","genre":null,"price":"$10.00","supports":["Shae Laoise"," Tyller Fischer"],"ticketUrl":null,"time":" 7pm"}],"vName":"Cafe Gummo"},"type":"Feature"},{"geometry":{"coordinates":[144.9693768,-37.8164414],"type":"Point"},"properties":{"events":[{"categories":["Music"],"eDate":"2025-05-29","eName":"Ezra Collective","genre":"Jazz","price":"$89.90","supports":[],"ticketUrl":null,"time":" 7:30pm"}],"vName":"Forum Melbourne"},"type":"Feature"},{"geometry":{"coordinates":[144.9679835,-37.8201575],"type":"Point"},"properties":{"events":[{"categories":["Music"],"eDate":"2025-05-29","eName":"Grieg’s Piano Concerto","genre":"Classical","price":"$75.00","supports":[],"ticketUrl":null,"time":" 7:30pm"},{"categories":["Music"],"eDate":"2025-05-29","eName":"Grieg’s Piano Concerto","genre":"Classical","price":"$75.00 - 142.00","supports":[],"ticketUrl":null,"time":" 7:30pm"}],"vName":"Hamer Hall (Arts Centre Melbourne)"},"type":"Feature"},{"geometry":{"coordinates":[145.0314658,-37.8067273],"type":"Point"},"properties":{"events":[{"categories":["Music"],"eDate":"2025-05-29","eName":"Global Music Thursdays: Estudiantina of Melbourne","genre":null,"price":"$20.00","supports":[],"ticketUrl":null,"time":" 7:30pm"}],"vName":"Kew Court House"},"type":"Feature"},{"geometry":{"coordinates":[144.8984802,-37.8111559],"type":"Point"},"properties":{"events":[{"categories":["Music"],"eDate":"2025-05-29","eName":"FLOW MOTION (Free Entry Jazz Jams at Kindred Bandroom)","genre":"Jazz","price":"Free","supports":[],"ticketUrl":null,"time":" 7pm"}],"vName":"Kindred Bandroom"},"type":"Feature"},{"geometry":{"coordinates":[144.9658499,-37.8147453],"type":"Point"},"properties":{"events":[{"categories":["Music"],"eDate":"2025-05-29","eName":"The Night Flight Orchestra","genre":"Rock","price":"$54.95","supports":[],"ticketUrl":null,"time":" 8pm"}],"vName":"Max Watt's (Melbourne)"},"type":"Feature"},{"geometry":{"coordinates":[144.998414,-37.771471],"type":"Point"},"properties":{"events":[{"categories":["Music"],"eDate":"2025-05-29","eName":"Gaudion + Hein Cooper","genre":"Acoustic","price":"$31.65","supports":[],"ticketUrl":null,"time":" 7pm"}],"vName":"Northcote Social Club"},"type":"Feature"},{"geometry":{"coordinates":[144.9982706,-37.7737068],"type":"Point"},"properties":{"events":[{"categories":["Music"],"eDate":"2025-05-29","eName":"Yaima","genre":"Electronic","price":"$49.00 - 77.00","supports":[],"ticketUrl":null,"time":" 7:30pm"}],"vName":"Northcote Theatre"},"type":"Feature"},{"geometry":{"coordinates":[144.97711,-37.79833],"type":"Point"},"properties":{"events":[{"categories":["Music"],"eDate":"2025-05-29","eName":"Ullah","genre":"Indie","price":"$17.35","supports":[],"ticketUrl":null,"time":" 7:30pm"}],"vName":"Old Bar"},"type":"Feature"},{"geometry":{"coordinates":[144.96084,-37.813514],"type":"Point"},"properties":{"events":[{"categories":["Music"],"eDate":"2025-05-29","eName":"The Daryl McKenzie Jazz Orchestra with Mel Searle","genre":"Jazz","price":"$45.00","supports":[],"ticketUrl":null,"time":" 7:30pm"},{"categories":["Music"],"eDate":"2025-05-29","eName":"Gianni Marinucci Sextet","genre":"Jazz","price":"$40.00","supports":[],"ticketUrl":null,"time":" 8pm"}],"vName":"Paris Cat Jazz Club"},"type":"Feature"},{"geometry":{"coordinates":[144.9741326,-37.8619943],"type":"Point"},"properties":{"events":[{"categories":["Music"],"eDate":"2025-05-29","eName":"Carvin Jones","genre":"Blues","price":"$40.30","supports":[],"ticketUrl":null,"time":" 7pm"}],"vName":"Prince Bandroom"},"type":"Feature"},{"geometry":{"coordinates":[144.9583409,-37.7664168],"type":"Point"},"properties":{"events":[{"categories":["Music","Other \"Dance \""],"eDate":"2025-05-29","eName":"Country Struts – Brunswick Thursdays","genre":"Country/Folk","price":"$16.50","supports":[],"ticketUrl":null,"time":" 6pm"}],"vName":"Quadraphonic Club"},"type":"Feature"},{"geometry":{"coordinates":[145.0142411,-37.7310367],"type":"Point"},"properties":{"events":[{"categories":["Free","Music"],"eDate":"2025-05-29","eName":"Open Mic @ Ragtime Tavern","genre":"Acoustic","price":"Free","supports":[],"ticketUrl":null,"time":" 7pm"}],"vName":"Ragtime Tavern"},"type":"Feature"},{"geometry":{"coordinates":[145.3534507,-37.9100746],"type":"Point"},"properties":{"events":[{"categories":["Music"],"eDate":"2025-05-29","eName":"BOTH","genre":"Rock","price":"$10.00 - 16.00","supports":["Monolounge"," Sole Butter"],"ticketUrl":null,"time":" 6:30pm"}],"vName":"Sooki Lounge"},"type":"Feature"},{"geometry":{"coordinates":[144.9995955,-37.762377],"type":"Point"},"properties":{"events":[{"categories":["Music"],"eDate":"2025-05-29","eName":"Platonic Love Jam","genre":"Rock","price":"Free","supports":[],"ticketUrl":null,"time":" 8pm"}],"vName":"The Croxton"},"type":"Feature"},{"geometry":{"coordinates":[144.9586498,-37.766903],"type":"Point"},"properties":{"events":[{"categories":["Music"],"eDate":"2025-05-29","eName":"Yunior Terry’s Undercurrents","genre":"Jazz","price":"$25.00 - 30.00","supports":[],"ticketUrl":null,"time":" 7:30pm"}],"vName":"The Jazzlab"},"type":"Feature"},{"geometry":{"coordinates":[144.9708437,-37.7973184],"type":"Point"},"properties":{"events":[{"categories":["Music"],"eDate":"2025-05-29","eName":"From the Deep: A Hidden Curiosity","genre":"Classical","price":"$40.52","supports":[],"ticketUrl":null,"time":" 7pm"}],"vName":"The Motley Bauhaus"},"type":"Feature"},{"geometry":{"coordinates":[144.9378225,-37.7916295],"type":"Point"},"properties":{"events":[{"categories":["Other \"Dance \"","Other \"Cabaret\""],"eDate":"2025-05-29","eName":"Burlesque with Evana De Lune","genre":null,"price":"$93.72 - 154.51","supports":["Hannah Tasker-Poland"," Lucy Lynch"," Brooke Bird"," Nellie Noble"," Valeria Cuenu"],"ticketUrl":null,"time":" 7pm"}],"vName":"Viva"},"type":"Feature"},{"geometry":{"coordinates":[144.3591931,-38.145904],"type":"Point"},"properties":{"events":[{"categories":["Music"],"eDate":"2025-05-29","eName":"Alpha Wolf","genre":"Metal","price":"$54.90","supports":["Malevolence"," Zuko"],"ticketUrl":null,"time":" 6:45pm"}],"vName":"Wool Exchange"},"type":"Feature"}],"type":"FeatureCollection"}