{"features":[{"geometry":{"coordinates":[144.978682,-37.7981225],"type":"Point"},"properties":{"events":[{"categories":["Free","Music"],"eDate":"2026-04-17","eName":"Lewis Toms","genre":null,"price":"Free","supports":[],"ticketUrl":null,"time":" 9pm"}],"vName":"Baxter's Lot"},"type":"Feature"},{"geometry":{"coordinates":[145.0004166,-37.7612582],"type":"Point"},"properties":{"events":[{"categories":["Music"],"eDate":"2026-04-17","eName":"ŽIVA","genre":null,"price":"$24.00","supports":["Olza"," Uberwench"],"ticketUrl":null,"time":" 8pm"}],"vName":"Cactus Room"},"type":"Feature"},{"geometry":{"coordinates":[144.9627513,-37.760963],"type":"Point"},"properties":{"events":[{"categories":["Free","Music"],"eDate":"2026-04-17","eName":"Tony J King","genre":"Blues","price":"Free","supports":[],"ticketUrl":null,"time":" 8pm"}],"vName":"Edinburgh Castle Hotel"},"type":"Feature"},{"geometry":{"coordinates":[144.9785611,-37.7965465],"type":"Point"},"properties":{"events":[{"categories":["Music"],"eDate":"2026-04-17","eName":"Jib & Friends","genre":null,"price":"$17.85","supports":[],"ticketUrl":null,"time":" 8pm"}],"vName":"Evelyn Hotel"},"type":"Feature"},{"geometry":{"coordinates":[144.9679835,-37.8201575],"type":"Point"},"properties":{"events":[{"categories":["Music"],"eDate":"2026-04-17","eName":"Mahler & Tchaikovsky with Sergei Nakariakov (Relaxed Performance)","genre":"Classical","price":"$35.00","supports":[],"ticketUrl":null,"time":" 7:30pm"}],"vName":"Hamer Hall (Arts Centre Melbourne)"},"type":"Feature"},{"geometry":{"coordinates":[145.0355738,-37.8205529],"type":"Point"},"properties":{"events":[{"categories":["Comedy"],"eDate":"2026-04-17","eName":"Lido Comedy Festival Showcase","genre":null,"price":"$30.00","supports":["more"],"ticketUrl":null,"time":" 8pm"}],"vName":"Lido Jazz Room"},"type":"Feature"},{"geometry":{"coordinates":[144.9675876,-37.8240849],"type":"Point"},"properties":{"events":[{"categories":["Music"],"eDate":"2026-04-17","eName":"Kym Alexandra Dillon","genre":"Classical","price":"$45.00","supports":[],"ticketUrl":null,"time":" 7pm"},{"categories":["Music"],"eDate":"2026-04-17","eName":"Kutcha Edwards: 60 Cycles Around The Sun","genre":"Acoustic","price":"$59.00 - 79.00","supports":[],"ticketUrl":null,"time":" 7:30pm"}],"vName":"Melbourne Recital Centre"},"type":"Feature"},{"geometry":{"coordinates":[144.9808644,-37.866939],"type":"Point"},"properties":{"events":[{"categories":["Comedy","Theatre"],"eDate":"2026-04-17","eName":"HYPROV: Improv Under Hypnosis","genre":null,"price":"$65.00","supports":[],"ticketUrl":null,"time":" 6pm"}],"vName":"The National Theatre"},"type":"Feature"},{"geometry":{"coordinates":[144.9794553,-37.7982653],"type":"Point"},"properties":{"events":[{"categories":["Music"],"eDate":"2026-04-17","eName":"Gordi","genre":"Indie","price":"$34.59","supports":[],"ticketUrl":null,"time":" 7:30pm"}],"vName":"The Night Cat"},"type":"Feature"},{"geometry":{"coordinates":[144.9984324,-37.7729134],"type":"Point"},"properties":{"events":[{"categories":["Music"],"eDate":"2026-04-17","eName":"Tony Yang","genre":"Jazz","price":"Free","supports":[],"ticketUrl":null,"time":" 6pm"}],"vName":"Wesley Anne"},"type":"Feature"}],"type":"FeatureCollection"}