{"features":[{"geometry":{"coordinates":[144.9679369,-37.8120109],"type":"Point"},"properties":{"events":[{"categories":["Music"],"eDate":"2024-05-24","eName":"Pseudo Echo","genre":"Pop","price":"$59.00","supports":[],"ticketUrl":null,"time":" 8pm"}],"vName":"170 Russell"},"type":"Feature"},{"geometry":{"coordinates":[144.9763781,-37.7983136],"type":"Point"},"properties":{"events":[{"categories":["Music"],"eDate":"2024-05-24","eName":"Monroe","genre":"Rock","price":"$12.36","supports":["Skytanic"," Crushed Lavender"," The Rartel"],"ticketUrl":null,"time":" 8pm"}],"vName":"Bad Decisions Bar"},"type":"Feature"},{"geometry":{"coordinates":[144.9607158,-37.776327],"type":"Point"},"properties":{"events":[{"categories":["Music"],"eDate":"2024-05-24","eName":"The Last Martyr","genre":"Metal","price":"$22.95","supports":["Ultraviolet"," NTH RD"," nightlight"],"ticketUrl":null,"time":" 8pm"}],"vName":"Bergy Bandroom"},"type":"Feature"},{"geometry":{"coordinates":[144.9617018,-37.7704566],"type":"Point"},"properties":{"events":[{"categories":["Music"],"eDate":"2024-05-24","eName":"Winnie Lane","genre":"Rock","price":"$17.95","supports":["The Daily Commuters"," Vonnie"," Imogen Cygler"],"ticketUrl":null,"time":" 7pm"}],"vName":"Brunswick Ballroom"},"type":"Feature"},{"geometry":{"coordinates":[145.00025846036164,-37.7592368],"type":"Point"},"properties":{"events":[{"categories":["Music"],"eDate":"2024-05-24","eName":"Snailgun + Coolabah Kings","genre":null,"price":"$10.00","supports":[],"ticketUrl":null,"time":" 8pm"}],"vName":"Cafe Gummo"},"type":"Feature"},{"geometry":{"coordinates":[144.9713425,-37.8128595],"type":"Point"},"properties":{"events":[{"categories":["Music"],"eDate":"2024-05-24","eName":"Minor Delusion","genre":"Rock","price":"$14.41","supports":["Es Muss Sein"," Early Morning Syndrome"," Sliknita"],"ticketUrl":null,"time":" 8pm"}],"vName":"Cherry Bar"},"type":"Feature"},{"geometry":{"coordinates":[144.9248037207342,-37.7656716],"type":"Point"},"properties":{"events":[{"categories":["Music","Theatre"],"eDate":"2024-05-24","eName":"Dear Diary","genre":"Pop","price":"$50.00","supports":[],"ticketUrl":null,"time":" 7:30pm"}],"vName":"Clocktower Centre"},"type":"Feature"},{"geometry":{"coordinates":[144.9688742,-37.8074223],"type":"Point"},"properties":{"events":[{"categories":["Comedy","Theatre"],"eDate":"2024-05-24","eName":"The Odd Couple","genre":null,"price":"$69.90","supports":["Lucy Durack"," Penny McNamee"],"ticketUrl":null,"time":" 7:30pm"},{"categories":["Comedy","Theatre"],"eDate":"2024-05-24","eName":"The Odd Couple","genre":null,"price":"$69.90","supports":["Lucy Durack"," Penny McNamee"],"ticketUrl":null,"time":" 7:30pm"}],"vName":"Comedy Theatre"},"type":"Feature"},{"geometry":{"coordinates":[144.99266639479475,-37.82488935],"type":"Point"},"properties":{"events":[{"categories":["Music"],"eDate":"2024-05-24","eName":"The Bamboos","genre":"Soul/Funk","price":"$51.10","supports":["Steppers"],"ticketUrl":null,"time":" 8pm"}],"vName":"Corner Hotel"},"type":"Feature"},{"geometry":{"coordinates":[144.9875917,-37.7963837],"type":"Point"},"properties":{"events":[{"categories":["Music"],"eDate":"2024-05-24","eName":"Honky Tonk Town #8","genre":"Country/Folk","price":"Free","supports":[],"ticketUrl":null,"time":" 8pm"}],"vName":"Gem Bar"},"type":"Feature"},{"geometry":{"coordinates":[144.973013,-37.8640582],"type":"Point"},"properties":{"events":[{"categories":["Music"],"eDate":"2024-05-24","eName":"South Summit","genre":"Indie","price":"$28.05","supports":[],"ticketUrl":null,"time":" 7:30pm"},{"categories":["Music"],"eDate":"2024-05-24","eName":"No Scrubs: 90s + Early 00s Party","genre":"R&B","price":"$11.75 - 22.95","supports":[],"ticketUrl":null,"time":"11:30pm"}],"vName":"Hotel Esplanade (aka The Espy)"},"type":"Feature"},{"geometry":{"coordinates":[144.9596527,-37.7720304],"type":"Point"},"properties":{"events":[{"categories":["Other \"Cabaret\""],"eDate":"2024-05-24","eName":"The 2024 YUMMY Spectacular","genre":null,"price":"$49.47 - 69.87","supports":["more"],"ticketUrl":null,"time":" 8pm"}],"vName":"Howler"},"type":"Feature"},{"geometry":{"coordinates":[144.9687111,-37.7977034],"type":"Point"},"properties":{"events":[{"categories":["Theatre"],"eDate":"2024-05-24","eName":"The Audition","genre":null,"price":"$35.00","supports":[],"ticketUrl":null,"time":" 7:30pm"}],"vName":"La Mama Theatre"},"type":"Feature"},{"geometry":{"coordinates":[144.9764962,-37.7983139],"type":"Point"},"properties":{"events":[{"categories":["Music"],"eDate":"2024-05-24","eName":"CLASSIX Fridays","genre":"Hip Hop","price":"$11.36","supports":[],"ticketUrl":null,"time":"10pm"}],"vName":"Laundry Bar"},"type":"Feature"},{"geometry":{"coordinates":[144.8971518,-37.8054274],"type":"Point"},"properties":{"events":[{"categories":["Free","Music"],"eDate":"2024-05-24","eName":"Filth Fuelled Riff Riot","genre":null,"price":"Free","supports":["A Day Of Storms"," Rhinosaur"," Space Croc"],"ticketUrl":null,"time":" 7pm"}],"vName":"Mamma Chen's"},"type":"Feature"},{"geometry":{"coordinates":[145.3553553,-37.9078552],"type":"Point"},"properties":{"events":[{"categories":["Free","Music"],"eDate":"2024-05-24","eName":"James Harvey","genre":"Indie","price":"Free","supports":[],"ticketUrl":null,"time":" 7pm"}],"vName":"Micawber Tavern"},"type":"Feature"},{"geometry":{"coordinates":[144.998414,-37.771471],"type":"Point"},"properties":{"events":[{"categories":["Music"],"eDate":"2024-05-24","eName":"Witchgrinder","genre":"Metal","price":"$29.10","supports":["Frankenbok"," Envenomed"," Victoria K"],"ticketUrl":null,"time":" 7:30pm"}],"vName":"Northcote Social Club"},"type":"Feature"},{"geometry":{"coordinates":[144.9605705,-37.8132486],"type":"Point"},"properties":{"events":[{"categories":["Music"],"eDate":"2024-05-24","eName":"Soul Chic Presents The Eva Cassidy Experience","genre":"Jazz","price":"$45.00","supports":[],"ticketUrl":null,"time":" 5:30pm"},{"categories":["Music"],"eDate":"2024-05-24","eName":"The Music of Mobley","genre":"Soul/Funk","price":"$40.00","supports":[],"ticketUrl":null,"time":" 6pm"},{"categories":["Music"],"eDate":"2024-05-24","eName":"Not So Big Band: The Best of Frank & Ella (with Ben McGill & Amelia Evans)","genre":"Jazz","price":"$45.00","supports":[],"ticketUrl":null,"time":" 8:30pm"},{"categories":["Music"],"eDate":"2024-05-24","eName":"The Shuffle Club","genre":"Jazz","price":"$45.00","supports":[],"ticketUrl":null,"time":" 9pm"}],"vName":"Paris Cat Jazz Club"},"type":"Feature"},{"geometry":{"coordinates":[144.993413,-37.8506652],"type":"Point"},"properties":{"events":[{"categories":["Music"],"eDate":"2024-05-24","eName":"Cioz","genre":"Electronic","price":"$31.62","supports":["The Journey"," Bohm"," Rachel May"," Booey"," more"],"ticketUrl":null,"time":"10pm"}],"vName":"Revolver Upstairs"},"type":"Feature"},{"geometry":{"coordinates":[144.9631913,-37.7617818],"type":"Point"},"properties":{"events":[{"categories":["Music"],"eDate":"2024-05-24","eName":"Blue Melon Trio","genre":"Jazz","price":"$20.00","supports":[],"ticketUrl":null,"time":" 8pm"}],"vName":"Ringo Barr"},"type":"Feature"},{"geometry":{"coordinates":[144.997997,-37.8770056],"type":"Point"},"properties":{"events":[{"categories":["Dance"],"eDate":"2024-05-24","eName":"Regency at the Mansion","genre":null,"price":"$120.00","supports":[],"ticketUrl":null,"time":" 7pm"}],"vName":"Rippon Lea Estate"},"type":"Feature"},{"geometry":{"coordinates":[144.97515565,-37.805788500000006],"type":"Point"},"properties":{"events":[{"categories":["Music"],"eDate":"2024-05-24","eName":"Fairtrade Narcotics Present: Cerulean (Single Launch)","genre":"Jazz","price":"$15.00","supports":["Private Mountain"," Tommy & Roy"],"ticketUrl":null,"time":" 8pm"}],"vName":"The Catfish"},"type":"Feature"},{"geometry":{"coordinates":[144.9585654,-37.8059962],"type":"Point"},"properties":{"events":[{"categories":["Music"],"eDate":"2024-05-24","eName":"Eastbound Buzz","genre":"Rock","price":"$16.35","supports":["Mood Spill"," Isabella Fortuna"],"ticketUrl":null,"time":" 8:30pm"}],"vName":"The Last Chance Rock & Roll Bar"},"type":"Feature"},{"geometry":{"coordinates":[144.9651425,-37.8119429],"type":"Point"},"properties":{"events":[{"categories":["Music"],"eDate":"2024-05-24","eName":"Bubble Presents: PJ Bridger (UK) @ The Toff","genre":"Electronic","price":"$25.50 - 30.60","supports":["Osmosis Jones"," IsGwan"," KJONES"," Trustee"],"ticketUrl":null,"time":"10pm"}],"vName":"The Toff In Town"},"type":"Feature"}],"type":"FeatureCollection"}