{"features":[{"geometry":{"coordinates":[144.9679835243618,-37.8201575],"type":"Point"},"properties":{"events":[{"categories":["Music"],"eDate":"2024-01-11","eName":"The Choir of Man","genre":"Acoustic","price":"$89.90","supports":[],"ticketUrl":null,"time":" 7:30pm"}],"vName":"Arts Centre Melbourne"},"type":"Feature"},{"geometry":{"coordinates":[144.978425,-37.79773],"type":"Point"},"properties":{"events":[{"categories":["Music"],"eDate":"2024-01-11","eName":"Sundreamer","genre":"Metal","price":"$17.35","supports":["Lily Of The Valley"," Voidout"],"ticketUrl":null,"time":" 8pm"}],"vName":"Bar Open"},"type":"Feature"},{"geometry":{"coordinates":[144.35392397371288,-38.16292645],"type":"Point"},"properties":{"events":[{"categories":["Music"],"eDate":"2024-01-11","eName":"Fairtrade Narcotics","genre":"Soul/Funk","price":"$13.00","supports":["The Spares"," Final Final"],"ticketUrl":null,"time":" 6pm"}],"vName":"Barwon Club Hotel"},"type":"Feature"},{"geometry":{"coordinates":[144.9875917,-37.7963837],"type":"Point"},"properties":{"events":[{"categories":["Music"],"eDate":"2024-01-11","eName":"Matt Bourke & The Delusional Drunks + Bad Bangs","genre":"Punk","price":"Free","supports":[],"ticketUrl":null,"time":" 7:30pm"}],"vName":"Gem Bar"},"type":"Feature"},{"geometry":{"coordinates":[144.9936498,-37.8000264],"type":"Point"},"properties":{"events":[{"categories":["Free","Music"],"eDate":"2024-01-11","eName":"The 6v6s","genre":"Blues","price":"Free","supports":[],"ticketUrl":null,"time":"10pm"}],"vName":"Lulie Tavern"},"type":"Feature"},{"geometry":{"coordinates":[145.0142411,-37.7310367],"type":"Point"},"properties":{"events":[{"categories":["Free","Music"],"eDate":"2024-01-11","eName":"Open Mic @ Ragtime Tavern","genre":"Acoustic","price":"Free","supports":[],"ticketUrl":null,"time":" 7pm"}],"vName":"Ragtime Tavern"},"type":"Feature"},{"geometry":{"coordinates":[144.9631913,-37.7617818],"type":"Point"},"properties":{"events":[{"categories":["Free","Music"],"eDate":"2024-01-11","eName":"Open Mic Thursdays @ Ringo Barr","genre":"Acoustic","price":"Free","supports":[],"ticketUrl":null,"time":" 7pm"}],"vName":"Ringo Barr"},"type":"Feature"},{"geometry":{"coordinates":[144.9846126,-37.7989941],"type":"Point"},"properties":{"events":[{"categories":["Music"],"eDate":"2024-01-11","eName":"Lucy's Disorder","genre":"Rock","price":"$11.25","supports":["Groove Vultures"," Moonlight Broadcast"],"ticketUrl":null,"time":" 7:30pm"}],"vName":"The Tote Hotel"},"type":"Feature"},{"geometry":{"coordinates":[144.9618426,-37.8125531],"type":"Point"},"properties":{"events":[{"categories":["Free","Music","Other \"Food & Drink\""],"eDate":"2024-01-11","eName":"Succulent Funk","genre":"Electronic","price":"Free","supports":[],"ticketUrl":null,"time":" 5pm"}],"vName":"Whitehart Bar"},"type":"Feature"}],"type":"FeatureCollection"}