{"features":[{"geometry":{"coordinates":[145.0048929,-37.8035316],"type":"Point"},"properties":{"events":[{"categories":["Other \"Food \"","Other \"Art \"","Music"],"eDate":"2025-08-16","eName":"Bat Massive","genre":null,"price":"$60.00 - 180.00","supports":["more"],"ticketUrl":null,"time":" 5pm"}],"vName":"Abbotsford Convent"},"type":"Feature"},{"geometry":{"coordinates":[144.9982812,-37.7713296],"type":"Point"},"properties":{"events":[{"categories":["Free","Music"],"eDate":"2025-08-16","eName":"Clunk Orchestra","genre":"Jazz","price":"Free","supports":[],"ticketUrl":null,"time":" 3:30pm"},{"categories":["Music"],"eDate":"2025-08-16","eName":"Wendy Rule","genre":"Acoustic","price":"$27.00 - 30.00","supports":[],"ticketUrl":null,"time":" 8pm"}],"vName":"Bar 303"},"type":"Feature"},{"geometry":{"coordinates":[144.9891167,-37.7996488],"type":"Point"},"properties":{"events":[{"categories":["Music","Other \"Art \""],"eDate":"2025-08-16","eName":"Hellraiser Fest","genre":"Metal","price":"$28.05","supports":[],"ticketUrl":null,"time":" 8pm"}],"vName":"Bendigo Hotel"},"type":"Feature"},{"geometry":{"coordinates":[144.9607158,-37.776327],"type":"Point"},"properties":{"events":[{"categories":["Music"],"eDate":"2025-08-16","eName":"Echo Bravo Festival 2025","genre":"Rock","price":"$38.25","supports":[],"ticketUrl":null,"time":" 4pm"}],"vName":"Bergy Bandroom"},"type":"Feature"},{"geometry":{"coordinates":[144.9568039,-37.8111442],"type":"Point"},"properties":{"events":[{"categories":["Music"],"eDate":"2025-08-16","eName":"Ramble Tamble","genre":"Rock","price":"$45.00","supports":[],"ticketUrl":null,"time":" 6pm"}],"vName":"Bird's Basement"},"type":"Feature"},{"geometry":{"coordinates":[144.9617083,-37.7704205],"type":"Point"},"properties":{"events":[{"categories":["Music"],"eDate":"2025-08-16","eName":"Beyond the Horizon: Remembering Zulya on her Birthday","genre":null,"price":"$15.00 - 30.00","supports":["Mal Webb & Kylie Morrigan"," The Wikimen"," The Music Between"," Ria Soemardjo"," Rosa Voto"," Misagh Zamani"," Vinod Prasanna"," Eamon McNelis's Big Idiot Club"," Gamelan DanAnda"," Floyd Thursby"," Langue de Chat"," Bonnie Smith"," Grumpy"," more"],"ticketUrl":null,"time":"12:30pm"},{"categories":["Music"],"eDate":"2025-08-16","eName":"Beyond the Horizon: Remembering Zulya on her Birthday","genre":"Jazz","price":"$33.76","supports":[],"ticketUrl":null,"time":" 1pm"}],"vName":"Brunswick Ballroom"},"type":"Feature"},{"geometry":{"coordinates":[145.0004166,-37.7612582],"type":"Point"},"properties":{"events":[{"categories":["Music"],"eDate":"2025-08-16","eName":"No Hoper","genre":"Punk","price":"$24.00","supports":["Enclave"," Affordable Repayments"," Spacerhead"," Linen"," Wriding"," Waxman"],"ticketUrl":null,"time":" 4pm"}],"vName":"Cactus Room"},"type":"Feature"},{"geometry":{"coordinates":[144.9926664,-37.8248893],"type":"Point"},"properties":{"events":[{"categories":["Music"],"eDate":"2025-08-16","eName":"Country Struts: Line Dancing Class & Party","genre":"Country/Folk","price":"$29.10","supports":[],"ticketUrl":null,"time":" 7pm"}],"vName":"Corner Hotel"},"type":"Feature"},{"geometry":{"coordinates":[144.9627513,-37.760963],"type":"Point"},"properties":{"events":[{"categories":["Music"],"eDate":"2025-08-16","eName":"Laneous","genre":"Indie","price":"Free","supports":[],"ticketUrl":null,"time":" 8pm"}],"vName":"Edinburgh Castle Hotel"},"type":"Feature"},{"geometry":{"coordinates":[144.9777885,-37.8597831],"type":"Point"},"properties":{"events":[{"categories":["Music"],"eDate":"2025-08-16","eName":"Bee Tee Trio","genre":"Country/Folk","price":"Free","supports":[],"ticketUrl":null,"time":" 6:30pm"}],"vName":"Freddie Wimpoles"},"type":"Feature"},{"geometry":{"coordinates":[144.9875792,-37.7963739],"type":"Point"},"properties":{"events":[{"categories":["Music"],"eDate":"2025-08-16","eName":"Grytt + Future Tongue","genre":"Rock","price":"$13.00","supports":[],"ticketUrl":null,"time":" 3:45pm"},{"categories":["Music"],"eDate":"2025-08-16","eName":"Ethanol Blend + Kosmetika","genre":"Rock","price":"$18.10","supports":[],"ticketUrl":null,"time":" 8:30pm"}],"vName":"Gem Bar"},"type":"Feature"},{"geometry":{"coordinates":[144.9787378,-37.7954205],"type":"Point"},"properties":{"events":[{"categories":["Music"],"eDate":"2025-08-16","eName":"DJ JNETT + Deep Cargo Showcase","genre":"Electronic","price":"$0.00 - 30.00","supports":[],"ticketUrl":null,"time":" 9pm"}],"vName":"Glamorama"},"type":"Feature"},{"geometry":{"coordinates":[144.983442,-37.804851],"type":"Point"},"properties":{"events":[{"categories":["Other \"Film\""],"eDate":"2025-08-16","eName":"Talent Show","genre":null,"price":"$15.00 - 20.00","supports":[],"ticketUrl":null,"time":" 7:30pm"}],"vName":"Grace Darling Hotel"},"type":"Feature"},{"geometry":{"coordinates":[144.9596527,-37.7720304],"type":"Point"},"properties":{"events":[{"categories":["Music"],"eDate":"2025-08-16","eName":"Daniel Merriweather (Full Band) & Friends","genre":"R&B","price":"$33.66 - 38.76","supports":["Emeree"],"ticketUrl":null,"time":" 8pm"}],"vName":"Howler"},"type":"Feature"},{"geometry":{"coordinates":[144.9571785,-37.8188809],"type":"Point"},"properties":{"events":[{"categories":["Music"],"eDate":"2025-08-16","eName":"Daydream80s #2: new wave. pop. alternative. daytime.","genre":null,"price":"$23.00","supports":[],"ticketUrl":null,"time":" 3pm"}],"vName":"Inflation Entertainment Complex"},"type":"Feature"},{"geometry":{"coordinates":[145.0314658,-37.8067273],"type":"Point"},"properties":{"events":[{"categories":["Music"],"eDate":"2025-08-16","eName":"Jailhouse Concert Series: Sonorous","genre":"Blues","price":"$25.00 - 35.00","supports":[],"ticketUrl":null,"time":" 7:30pm"}],"vName":"Kew Court House"},"type":"Feature"},{"geometry":{"coordinates":[145.0008148,-37.8107158],"type":"Point"},"properties":{"events":[{"categories":["Music"],"eDate":"2025-08-16","eName":"Lune Ranger & The Ghosts","genre":null,"price":"$23.75","supports":["Lunic"," Kyle Lock"],"ticketUrl":null,"time":" 7:30pm"}],"vName":"Leadbeater Hotel"},"type":"Feature"},{"geometry":{"coordinates":[144.9658499,-37.8147453],"type":"Point"},"properties":{"events":[{"categories":["Music"],"eDate":"2025-08-16","eName":"Portal","genre":"Metal","price":"$66.60","supports":["Bolzer"],"ticketUrl":null,"time":" 7pm"}],"vName":"Max Watt's (Melbourne)"},"type":"Feature"},{"geometry":{"coordinates":[144.9675876,-37.8240849],"type":"Point"},"properties":{"events":[{"categories":["Music"],"eDate":"2025-08-16","eName":"Omega Ensemble: Elevator Music","genre":"Classical","price":"$39.00 - 119.00","supports":[],"ticketUrl":null,"time":" 7pm"},{"categories":["Music"],"eDate":"2025-08-16","eName":"Elevator Music","genre":"Classical","price":"$49.00","supports":[],"ticketUrl":null,"time":" 7pm"},{"categories":["Music"],"eDate":"2025-08-16","eName":"Chong, Barltrop & Narroway play Trios","genre":"Classical","price":"$53.00","supports":[],"ticketUrl":null,"time":" 7pm"}],"vName":"Melbourne Recital Centre"},"type":"Feature"},{"geometry":{"coordinates":[144.998414,-37.771471],"type":"Point"},"properties":{"events":[{"categories":["Music"],"eDate":"2025-08-16","eName":"Jordie Lane & Band (Matinee Session)","genre":null,"price":"Free","supports":["Small Town Romance"],"ticketUrl":null,"time":" 2pm"},{"categories":["Music"],"eDate":"2025-08-16","eName":"Jordie Lane & Band","genre":null,"price":"$39.90","supports":["Small Town Romance"],"ticketUrl":null,"time":" 7pm"}],"vName":"Northcote Social Club"},"type":"Feature"},{"geometry":{"coordinates":[145.0015248,-37.8258878],"type":"Point"},"properties":{"events":[{"categories":["Music"],"eDate":"2025-08-16","eName":"Psycho Sequinz","genre":"Rock","price":"$17.35","supports":[],"ticketUrl":null,"time":" 7:30pm"}],"vName":"Odeon Richmond"},"type":"Feature"},{"geometry":{"coordinates":[144.97711,-37.79833],"type":"Point"},"properties":{"events":[{"categories":["Music"],"eDate":"2025-08-16","eName":"Remembering The King: A Date With Elvis","genre":"Rock","price":"$28.60","supports":["The Dilapidated Diva"," Dancing Bear"," Forced Contract"," Peanut Butter & Banana Bacon Sandwich"],"ticketUrl":null,"time":" 7pm"}],"vName":"Old Bar"},"type":"Feature"},{"geometry":{"coordinates":[144.96084,-37.813514],"type":"Point"},"properties":{"events":[{"categories":["Music"],"eDate":"2025-08-16","eName":"Not So Big Band: Best of Broadway","genre":"Jazz","price":"Free","supports":[],"ticketUrl":null,"time":" 6pm"},{"categories":["Music"],"eDate":"2025-08-16","eName":"Nadira & Friends Present: Songs of Nat King Cole","genre":"Jazz","price":"Free","supports":[],"ticketUrl":null,"time":" 6:30pm"},{"categories":["Music"],"eDate":"2025-08-16","eName":"R&R with Rebecca Cardamone & Richard Pavlidis","genre":"Jazz","price":"$45.00","supports":[],"ticketUrl":null,"time":" 9pm"},{"categories":["Music"],"eDate":"2025-08-16","eName":"Daniel Gassin Quintet","genre":"Jazz","price":"$45.00","supports":[],"ticketUrl":null,"time":" 9:30pm"}],"vName":"Paris Cat Jazz Club"},"type":"Feature"},{"geometry":{"coordinates":[144.965405,-37.8117457],"type":"Point"},"properties":{"events":[{"categories":["Music"],"eDate":"2025-08-16","eName":"JUICE","genre":null,"price":"Free","supports":[],"ticketUrl":null,"time":" 6pm"}],"vName":"Section 8"},"type":"Feature"},{"geometry":{"coordinates":[144.9607404,-37.7743469],"type":"Point"},"properties":{"events":[{"categories":["Music"],"eDate":"2025-08-16","eName":"CYCAD","genre":"Rock","price":"$18.00","supports":["Pepper La Floyd"," Pot Luck"],"ticketUrl":null,"time":" 7pm"},{"categories":["Music"],"eDate":"2025-08-16","eName":"INDIE SLEAZE: Trash Party","genre":"Rock","price":"$20.80 - 23.50","supports":[],"ticketUrl":null,"time":"11pm"}],"vName":"Stay Gold"},"type":"Feature"},{"geometry":{"coordinates":[144.9706211,-37.778276],"type":"Point"},"properties":{"events":[{"categories":["Music"],"eDate":"2025-08-16","eName":"DJ Phinious","genre":"Electronic","price":"Free","supports":[],"ticketUrl":null,"time":" 8pm"}],"vName":"The Beast"},"type":"Feature"},{"geometry":{"coordinates":[144.9657057,-37.8061581],"type":"Point"},"properties":{"events":[{"categories":["Music"],"eDate":"2025-08-16","eName":"Smith & Cohen","genre":"Indie","price":"$36.55","supports":["Peggy Frew"," Anthony Atkinson"],"ticketUrl":null,"time":" 8pm"}],"vName":"The Curtin"},"type":"Feature"},{"geometry":{"coordinates":[144.9879283,-37.7505509],"type":"Point"},"properties":{"events":[{"categories":["Music"],"eDate":"2025-08-16","eName":"Crumbe","genre":"Acoustic","price":"Free","supports":[],"ticketUrl":null,"time":" 7pm"}],"vName":"The Merri Bar"},"type":"Feature"},{"geometry":{"coordinates":[144.9708437,-37.7973184],"type":"Point"},"properties":{"events":[{"categories":["Music"],"eDate":"2025-08-16","eName":"Motley Jazz Jam","genre":"Jazz","price":"Free","supports":[],"ticketUrl":null,"time":" 7:30pm"},{"categories":["Comedy"],"eDate":"2025-08-16","eName":"The Big HOO HAA!","genre":null,"price":"$30.39","supports":[],"ticketUrl":null,"time":" 8:30pm"},{"categories":["Comedy","Theatre"],"eDate":"2025-08-16","eName":"The Big HOO-HAA!","genre":null,"price":"$32.00","supports":[],"ticketUrl":null,"time":" 8:30pm"}],"vName":"The Motley Bauhaus"},"type":"Feature"},{"geometry":{"coordinates":[144.9998797,-37.7616512],"type":"Point"},"properties":{"events":[{"categories":["Music"],"eDate":"2025-08-16","eName":"No Motivation","genre":"Rock","price":"Free","supports":["Moksha"," Paper Street"],"ticketUrl":null,"time":" 8pm"}],"vName":"The Thornbury Local"},"type":"Feature"},{"geometry":{"coordinates":[144.9769451,-37.8055776],"type":"Point"},"properties":{"events":[{"categories":["Music"],"eDate":"2025-08-16","eName":"Smudge","genre":"Rock","price":"$14.80","supports":["Headspin"," Albert Park"],"ticketUrl":null,"time":" 1pm"},{"categories":["Music"],"eDate":"2025-08-16","eName":"Verbrasco: The Divorce","genre":"Punk","price":"$17.85","supports":[],"ticketUrl":null,"time":" 8pm"}],"vName":"The Workers Club"},"type":"Feature"},{"geometry":{"coordinates":[144.9531861,-37.7734411],"type":"Point"},"properties":{"events":[{"categories":["Music"],"eDate":"2025-08-16","eName":"Little Faiths + Private Stash","genre":"Rock","price":"Free","supports":[],"ticketUrl":null,"time":" 5pm"}],"vName":"Union Hotel Brunswick"},"type":"Feature"},{"geometry":{"coordinates":[144.9661635,-37.8176298],"type":"Point"},"properties":{"events":[{"categories":["Music"],"eDate":"2025-08-16","eName":"Jeff Holden","genre":null,"price":"Free","supports":[],"ticketUrl":null,"time":" 9pm"}],"vName":"Wax Music Lounge"},"type":"Feature"}],"type":"FeatureCollection"}