{"features":[{"geometry":{"coordinates":[144.9715791,-37.8140656],"type":"Point"},"properties":{"events":[{"categories":["Music","Theatre"],"eDate":"2024-01-25","eName":"Dog Man: The Musical","genre":null,"price":"$39.50","supports":[],"ticketUrl":null,"time":"10am"},{"categories":["Music","Theatre"],"eDate":"2024-01-25","eName":"Dog Man: The Musical","genre":null,"price":"$39.50","supports":[],"ticketUrl":null,"time":" 1pm"}],"vName":"Athenaeum Theatre"},"type":"Feature"},{"geometry":{"coordinates":[144.98911674151407,-37.79964875],"type":"Point"},"properties":{"events":[{"categories":["Music"],"eDate":"2024-01-25","eName":"Earth Rot","genre":"Metal","price":"$22.49","supports":["Munt"," Writhing"," Requite"],"ticketUrl":null,"time":" 5pm"}],"vName":"Bendigo Hotel"},"type":"Feature"},{"geometry":{"coordinates":[144.9945274,-37.8001115],"type":"Point"},"properties":{"events":[{"categories":["Free","Music","Other \"Food & Drink\""],"eDate":"2024-01-25","eName":"Oscar LaDell & The Earth Tones","genre":"Blues","price":"Free","supports":[],"ticketUrl":null,"time":" 7pm"}],"vName":"Bodriggy Brewing Company"},"type":"Feature"},{"geometry":{"coordinates":[144.8971518,-37.8054274],"type":"Point"},"properties":{"events":[{"categories":["Music"],"eDate":"2024-01-25","eName":"Erin Will Be Mad","genre":null,"price":"$10.00 - 15.00","supports":["Cat Crawl"," Thespian"],"ticketUrl":null,"time":" 7pm"}],"vName":"Mamma Chen's"},"type":"Feature"},{"geometry":{"coordinates":[144.96892412239615,-37.82266345],"type":"Point"},"properties":{"events":[{"categories":["Free","Music"],"eDate":"2024-01-25","eName":"NGV Triennial: IN2STELLAR (DJ Set)","genre":"Electronic","price":"Free","supports":[],"ticketUrl":null,"time":" 9pm"}],"vName":"NGV - National Gallery of Victoria"},"type":"Feature"},{"geometry":{"coordinates":[144.998414,-37.771471],"type":"Point"},"properties":{"events":[{"categories":["Music"],"eDate":"2024-01-25","eName":"Sarah Mary Chadwick","genre":"Country/Folk","price":"$24.00","supports":["Michael Beach"," SJK"," WPH"],"ticketUrl":null,"time":" 8pm"}],"vName":"Northcote Social Club"},"type":"Feature"},{"geometry":{"coordinates":[144.97711,-37.79833],"type":"Point"},"properties":{"events":[{"categories":["Music"],"eDate":"2024-01-25","eName":"Public Holiday Eve","genre":"Metal","price":"$23.50","supports":[],"ticketUrl":null,"time":" 8pm"}],"vName":"Old Bar"},"type":"Feature"},{"geometry":{"coordinates":[144.9981771,-37.7742773],"type":"Point"},"properties":{"events":[{"categories":["Music"],"eDate":"2024-01-25","eName":"Habus presents Leonard Cohen: Songs of Love and Love and Love","genre":"Country/Folk","price":"$20.00","supports":[],"ticketUrl":null,"time":" 8pm"}],"vName":"Open Studio"},"type":"Feature"},{"geometry":{"coordinates":[144.9631913,-37.7617818],"type":"Point"},"properties":{"events":[{"categories":["Free","Music"],"eDate":"2024-01-25","eName":"Open Mic Thursdays @ Ringo Barr","genre":"Acoustic","price":"Free","supports":[],"ticketUrl":null,"time":" 7pm"}],"vName":"Ringo Barr"},"type":"Feature"},{"geometry":{"coordinates":[144.9715321,-37.8098002],"type":"Point"},"properties":{"events":[{"categories":["Comedy"],"eDate":"2024-01-25","eName":"Raise the Bar Comedy: Standup Comedy Female All-Stars New Year Extravaganza","genre":null,"price":"$15.00","supports":[],"ticketUrl":null,"time":" 7pm"}],"vName":"StoryVille"},"type":"Feature"},{"geometry":{"coordinates":[144.9706095,-37.7783326],"type":"Point"},"properties":{"events":[{"categories":["Free","Music"],"eDate":"2024-01-25","eName":"Australia Day SUCKS","genre":"Punk","price":"Free","supports":["Going Swimming"," Licklash"],"ticketUrl":null,"time":" 9pm"}],"vName":"The Beast"},"type":"Feature"}],"type":"FeatureCollection"}