{"features":[{"geometry":{"coordinates":[144.9607158,-37.776327],"type":"Point"},"properties":{"events":[{"categories":["Music"],"eDate":"2024-08-09","eName":"EchoWave","genre":"Pop","price":"$16.85","supports":["Pretty Moi"," The White Flower Society"," Big Cat"],"ticketUrl":null,"time":" 8pm"}],"vName":"Bergy Bandroom"},"type":"Feature"},{"geometry":{"coordinates":[144.99266639479475,-37.82488935],"type":"Point"},"properties":{"events":[{"categories":["Music"],"eDate":"2024-08-09","eName":"Blake Rose","genre":"Indie","price":"$55.00","supports":["Chris Lanzon"," Ben Swissa"],"ticketUrl":null,"time":" 8:30pm"}],"vName":"Corner Hotel"},"type":"Feature"},{"geometry":{"coordinates":[144.9875917,-37.7963837],"type":"Point"},"properties":{"events":[{"categories":["Free","Music"],"eDate":"2024-08-09","eName":"The Brakes: August Residency","genre":"Rock","price":"Free","supports":["Hogwash"],"ticketUrl":null,"time":" 6pm"},{"categories":["Free","Music"],"eDate":"2024-08-09","eName":"The Brakes + Hogwash","genre":"Rock","price":"Free","supports":[],"ticketUrl":null,"time":" 8pm"}],"vName":"Gem Bar"},"type":"Feature"},{"geometry":{"coordinates":[144.973013,-37.8640582],"type":"Point"},"properties":{"events":[{"categories":["Music"],"eDate":"2024-08-09","eName":"Andy LP","genre":"Indie","price":"$18.00","supports":["Harriet Wraith"," Brittany Holt"],"ticketUrl":null,"time":" 7pm"},{"categories":["Music"],"eDate":"2024-08-09","eName":"Taking Back Saturday Presents Emo Time Machine","genre":"Punk","price":"$17.35 - 22.95","supports":[],"ticketUrl":null,"time":" 9pm"}],"vName":"Hotel Esplanade (aka The Espy)"},"type":"Feature"},{"geometry":{"coordinates":[144.8971518,-37.8054274],"type":"Point"},"properties":{"events":[{"categories":["Music"],"eDate":"2024-08-09","eName":"The World At A Glance","genre":null,"price":"$15.00 - 20.00","supports":["Crawling"," Latibulate"," Gatecrash"],"ticketUrl":null,"time":" 7:45pm"}],"vName":"Mamma Chen's"},"type":"Feature"},{"geometry":{"coordinates":[144.96741062735794,-37.82454855],"type":"Point"},"properties":{"events":[{"categories":["Music"],"eDate":"2024-08-09","eName":"Mostly Mozart: Magnificent Minor","genre":"Classical","price":"$49.00","supports":[],"ticketUrl":null,"time":"11am"},{"categories":["Music"],"eDate":"2024-08-09","eName":"David Greco & Chad Kelly: Schubert's Die schöne Müllerin","genre":"Classical","price":"$50.00","supports":[],"ticketUrl":null,"time":" 7pm"}],"vName":"Melbourne Recital Centre"},"type":"Feature"},{"geometry":{"coordinates":[144.9786817,-37.8671902],"type":"Point"},"properties":{"events":[{"categories":["Music"],"eDate":"2024-08-09","eName":"Seventh Wonder performs Fleetwood Mac’s Rumours in Full + Hits","genre":"Rock","price":"$45.90 - 60.00","supports":[],"ticketUrl":null,"time":" 2pm"},{"categories":["Music"],"eDate":"2024-08-09","eName":"George Michael & Whitney Houston: KEEP THE FAITH","genre":"Pop","price":"$35.00 - 60.00","supports":[],"ticketUrl":null,"time":" 7pm"}],"vName":"Memo Music Hall"},"type":"Feature"},{"geometry":{"coordinates":[145.3553553,-37.9078552],"type":"Point"},"properties":{"events":[{"categories":["Free","Music"],"eDate":"2024-08-09","eName":"Brandy Alexander Duo","genre":null,"price":"Free","supports":[],"ticketUrl":null,"time":" 7pm"}],"vName":"Micawber Tavern"},"type":"Feature"},{"geometry":{"coordinates":[144.9712356,-37.812902],"type":"Point"},"properties":{"events":[{"categories":["Comedy"],"eDate":"2024-08-09","eName":"Basement Comedy Club","genre":null,"price":"$25.00","supports":["Ivan Aristeguieta"," more"],"ticketUrl":null,"time":" 8pm"}],"vName":"Morris House"},"type":"Feature"},{"geometry":{"coordinates":[144.96892412239615,-37.82266345],"type":"Point"},"properties":{"events":[{"categories":["Music"],"eDate":"2024-08-09","eName":"NGV Friday Nights: Fem Belling - Project Mzansi","genre":"Jazz","price":"$45.00","supports":[],"ticketUrl":null,"time":" 6pm"}],"vName":"NGV - National Gallery of Victoria"},"type":"Feature"},{"geometry":{"coordinates":[144.998414,-37.771471],"type":"Point"},"properties":{"events":[{"categories":["Music"],"eDate":"2024-08-09","eName":"Malam Busuk #3","genre":"Metal","price":"$24.00","supports":["Vile Apparition"," Nerve"," Sulphur Garden"],"ticketUrl":null,"time":" 8pm"}],"vName":"Northcote Social Club"},"type":"Feature"},{"geometry":{"coordinates":[144.97711,-37.79833],"type":"Point"},"properties":{"events":[{"categories":["Music"],"eDate":"2024-08-09","eName":"Potential","genre":null,"price":"$11.25","supports":["Well"," Spores"," Jazz Tiger"],"ticketUrl":null,"time":" 8pm"}],"vName":"Old Bar"},"type":"Feature"},{"geometry":{"coordinates":[144.9605705,-37.8132486],"type":"Point"},"properties":{"events":[{"categories":["Music"],"eDate":"2024-08-09","eName":"Emily Williams Presents: A Night Of A Thousand Stars...","genre":"Jazz","price":"$45.00","supports":[],"ticketUrl":null,"time":" 6pm"},{"categories":["Music"],"eDate":"2024-08-09","eName":"Tamara Kuldin's Gents Of Jazz","genre":"Jazz","price":"$45.00","supports":[],"ticketUrl":null,"time":" 6:30pm"},{"categories":["Music"],"eDate":"2024-08-09","eName":"Ollie Shute Quintet presents: The Music Of Jamiroquai","genre":"Jazz","price":"$45.00","supports":[],"ticketUrl":null,"time":" 9pm"},{"categories":["Music"],"eDate":"2024-08-09","eName":"Rebecca Mendoza With Mark Fitzgibbon","genre":"Jazz","price":"$45.00","supports":[],"ticketUrl":null,"time":" 9:30pm"}],"vName":"Paris Cat Jazz Club"},"type":"Feature"},{"geometry":{"coordinates":[144.9615882,-37.7711432],"type":"Point"},"properties":{"events":[{"categories":["Music"],"eDate":"2024-08-09","eName":"Pasiflorez","genre":"Rock","price":"$22.00 - 25.00","supports":[],"ticketUrl":null,"time":" 7:30pm"}],"vName":"Retreat Hotel"},"type":"Feature"},{"geometry":{"coordinates":[144.9631913,-37.7617818],"type":"Point"},"properties":{"events":[{"categories":["Free","Music"],"eDate":"2024-08-09","eName":"Kalamaya","genre":"Experimental","price":"Free","supports":["Zabellydancer"," Crimes"],"ticketUrl":null,"time":" 8pm"}],"vName":"Ringo Barr"},"type":"Feature"},{"geometry":{"coordinates":[144.9607404,-37.7743469],"type":"Point"},"properties":{"events":[{"categories":["Music"],"eDate":"2024-08-09","eName":"Badflower","genre":"Rock","price":"$69.90","supports":[],"ticketUrl":null,"time":" 7pm"}],"vName":"Stay Gold"},"type":"Feature"},{"geometry":{"coordinates":[144.9706095,-37.7783326],"type":"Point"},"properties":{"events":[{"categories":["Free","Music"],"eDate":"2024-08-09","eName":"Daddy Issues","genre":"Punk","price":"Free","supports":["Eris & The Disciples"],"ticketUrl":null,"time":" 9pm"}],"vName":"The Beast"},"type":"Feature"},{"geometry":{"coordinates":[144.9585654,-37.8059962],"type":"Point"},"properties":{"events":[{"categories":["Music"],"eDate":"2024-08-09","eName":"Slim Krusty","genre":"Punk","price":"$20.00","supports":[],"ticketUrl":null,"time":" 8pm"}],"vName":"The Last Chance Rock & Roll Bar"},"type":"Feature"},{"geometry":{"coordinates":[144.9708437,-37.7973184],"type":"Point"},"properties":{"events":[{"categories":["Other \"Cabaret\""],"eDate":"2024-08-09","eName":"Bauhaus Burlesque","genre":null,"price":"$30.39","supports":[],"ticketUrl":null,"time":" 8:30pm"}],"vName":"The Motley Bauhaus"},"type":"Feature"},{"geometry":{"coordinates":[144.9830837,-37.7988316],"type":"Point"},"properties":{"events":[{"categories":["Music"],"eDate":"2024-08-09","eName":"The Beefs","genre":null,"price":"$19.90","supports":[],"ticketUrl":null,"time":" 8pm"}],"vName":"The Night Cat"},"type":"Feature"},{"geometry":{"coordinates":[144.9651425,-37.8119429],"type":"Point"},"properties":{"events":[{"categories":["Music"],"eDate":"2024-08-09","eName":"Fairtrade Narcotics","genre":null,"price":"$15.00","supports":["In Xira"," The Spares"," Public Leisure"],"ticketUrl":null,"time":" 7pm"}],"vName":"The Toff In Town"},"type":"Feature"},{"geometry":{"coordinates":[144.9983987,-37.7729204],"type":"Point"},"properties":{"events":[{"categories":["Music"],"eDate":"2024-08-09","eName":"Sam Buckingham","genre":"Indie","price":"$42.00","supports":["Emma Dean"],"ticketUrl":null,"time":" 7:30pm"}],"vName":"Wesley Anne"},"type":"Feature"},{"geometry":{"coordinates":[144.9618426,-37.8125531],"type":"Point"},"properties":{"events":[{"categories":["Free","Music"],"eDate":"2024-08-09","eName":"Jonra","genre":null,"price":"Free","supports":["Hdsnjmsjr"],"ticketUrl":null,"time":" 4pm"}],"vName":"Whitehart Bar"},"type":"Feature"}],"type":"FeatureCollection"}