{"features":[{"geometry":{"coordinates":[144.9500257,-37.8032773],"type":"Point"},"properties":{"events":[{"categories":["Theatre","Trivia"],"eDate":"2024-03-20","eName":"Dissent: Daley Rangi","genre":null,"price":"$35.00","supports":[],"ticketUrl":null,"time":" 7pm"}],"vName":"Arts House"},"type":"Feature"},{"geometry":{"coordinates":[144.9617018,-37.7704566],"type":"Point"},"properties":{"events":[{"categories":["Music"],"eDate":"2024-03-20","eName":"Gaby Moreno","genre":"Jazz","price":"$49.06","supports":["Queenie"],"ticketUrl":null,"time":" 8pm"}],"vName":"Brunswick Ballroom"},"type":"Feature"},{"geometry":{"coordinates":[145.299149,-38.0198687],"type":"Point"},"properties":{"events":[{"categories":["Music"],"eDate":"2024-03-20","eName":"Ballroom Blitz","genre":null,"price":"$79.00 - 320.00","supports":[],"ticketUrl":null,"time":" 7:30pm"}],"vName":"Bunjil Place"},"type":"Feature"},{"geometry":{"coordinates":[144.973013,-37.8640582],"type":"Point"},"properties":{"events":[{"categories":["Music"],"eDate":"2024-03-20","eName":"No Pressure","genre":"Punk","price":"$38.25","supports":[],"ticketUrl":null,"time":" 7:30pm"}],"vName":"Hotel Esplanade (aka The Espy)"},"type":"Feature"},{"geometry":{"coordinates":[144.9687111,-37.7977034],"type":"Point"},"properties":{"events":[{"categories":["Comedy","Theatre"],"eDate":"2024-03-20","eName":"Teeth & Tonic","genre":null,"price":"$35.00","supports":[],"ticketUrl":null,"time":" 6:30pm"}],"vName":"La Mama Theatre"},"type":"Feature"},{"geometry":{"coordinates":[144.96741062735794,-37.82454855],"type":"Point"},"properties":{"events":[{"categories":["Music"],"eDate":"2024-03-20","eName":"Selby & Friends: Golden Blues (Matinee)","genre":"Blues","price":"$79.00","supports":[],"ticketUrl":null,"time":" 2pm"},{"categories":["Music"],"eDate":"2024-03-20","eName":"Selby & Friends: Golden Blues","genre":"Blues","price":"$79.00","supports":[],"ticketUrl":null,"time":" 7pm"}],"vName":"Melbourne Recital Centre"},"type":"Feature"},{"geometry":{"coordinates":[145.13337431967784,-37.91372355],"type":"Point"},"properties":{"events":[{"categories":["Music"],"eDate":"2024-03-20","eName":"Live at The Counts: The Shuffle Club feat. Julie O'Hara","genre":"Jazz","price":"$10.00 - 25.00","supports":[],"ticketUrl":null,"time":" 7:30pm"}],"vName":"The Ian Potter Centre for Performing Arts"},"type":"Feature"},{"geometry":{"coordinates":[144.9651425,-37.8119429],"type":"Point"},"properties":{"events":[{"categories":["Music"],"eDate":"2024-03-20","eName":"Riyan","genre":"Hip Hop","price":"$33.66","supports":[],"ticketUrl":null,"time":" 6pm"},{"categories":["Music"],"eDate":"2024-03-20","eName":"West Coast Wednesdays","genre":"Hip Hop","price":"$0.00 - 15.00","supports":[],"ticketUrl":null,"time":"10:30pm"}],"vName":"The Toff In Town"},"type":"Feature"},{"geometry":{"coordinates":[144.9983987,-37.7729204],"type":"Point"},"properties":{"events":[{"categories":["Trivia"],"eDate":"2024-03-20","eName":"Trivia With Sparx","genre":null,"price":"Free","supports":[],"ticketUrl":null,"time":" 7:30pm"}],"vName":"Wesley Anne"},"type":"Feature"}],"type":"FeatureCollection"}