{"features":[{"geometry":{"coordinates":[144.978682,-37.7981225],"type":"Point"},"properties":{"events":[{"categories":["Free","Music"],"eDate":"2026-07-25","eName":"Leaps and Bounds Festival: Baxter’s presents Sounds Like Tomorrow","genre":null,"price":"Free","supports":[],"ticketUrl":null,"time":" 7pm"}],"vName":"Baxter's Lot"},"type":"Feature"},{"geometry":{"coordinates":[144.9891167,-37.7996488],"type":"Point"},"properties":{"events":[{"categories":["Music","Festival"],"eDate":"2026-07-25","eName":"Black Planet 2026","genre":null,"price":"$49.50 - 80.10","supports":["more"],"ticketUrl":null,"time":" 5:30pm"}],"vName":"Bendigo Hotel"},"type":"Feature"},{"geometry":{"coordinates":[144.9568039,-37.8111442],"type":"Point"},"properties":{"events":[{"categories":["Music"],"eDate":"2026-07-25","eName":"The BigO: Roy Orbison Tribute Show with Joe Piastrino & The JP Band","genre":"Rock","price":"$38.00","supports":[],"ticketUrl":null,"time":" 7:30pm"}],"vName":"Bird's Basement"},"type":"Feature"},{"geometry":{"coordinates":[144.9713425,-37.8128595],"type":"Point"},"properties":{"events":[{"categories":["Music"],"eDate":"2026-07-25","eName":"Redro’s Inner Demons","genre":"Rock","price":"$22.59","supports":["Dukes of Deliciousness"," Full Tone Generator"],"ticketUrl":null,"time":" 8pm"},{"categories":["Free","Music"],"eDate":"2026-07-25","eName":"Trash Indie Sleaze Party","genre":"Indie","price":"Free","supports":[],"ticketUrl":null,"time":"11pm"}],"vName":"Cherry Bar"},"type":"Feature"},{"geometry":{"coordinates":[144.9777885,-37.8597831],"type":"Point"},"properties":{"events":[{"categories":["Music"],"eDate":"2026-07-25","eName":"Mixed Tape","genre":"Rock","price":"Free","supports":[],"ticketUrl":null,"time":" 8pm"},{"categories":["Music"],"eDate":"2026-07-25","eName":"DJ George","genre":"Electronic","price":"Free","supports":[],"ticketUrl":null,"time":"11pm"}],"vName":"Freddie Wimpoles"},"type":"Feature"},{"geometry":{"coordinates":[144.983442,-37.804851],"type":"Point"},"properties":{"events":[{"categories":["Music"],"eDate":"2026-07-25","eName":"The Grace Darling presents: Open Circuit","genre":null,"price":"$15.00 - 30.00","supports":["more"],"ticketUrl":null,"time":" 4pm"}],"vName":"Grace Darling Hotel"},"type":"Feature"},{"geometry":{"coordinates":[144.973013,-37.8640582],"type":"Point"},"properties":{"events":[{"categories":["Music"],"eDate":"2026-07-25","eName":"Grand Wazoo: St Kilda Hometown Reunion Party Show","genre":"Soul/Funk","price":"$60.00 - 65.00","supports":[],"ticketUrl":null,"time":" 7pm"},{"categories":["Music"],"eDate":"2026-07-25","eName":"ItsRosieQuartz","genre":"Indie","price":"$10.75 - 15.85","supports":[],"ticketUrl":null,"time":" 7:30pm"}],"vName":"Hotel Esplanade (aka The Espy)"},"type":"Feature"},{"geometry":{"coordinates":[144.9675876,-37.8240849],"type":"Point"},"properties":{"events":[{"categories":["Music"],"eDate":"2026-07-25","eName":"Melbourne Symphony Orchestra: Old Ideas, New Stories (Relaxed Performance)","genre":"Classical","price":"$35.00","supports":[],"ticketUrl":null,"time":" 4:30pm"}],"vName":"Melbourne Recital Centre"},"type":"Feature"},{"geometry":{"coordinates":[144.9833121,-37.8062477],"type":"Point"},"properties":{"events":[{"categories":["Music"],"eDate":"2026-07-25","eName":"Isolation","genre":"Electronic","price":"$10.00 - 15.00","supports":["Isolation Selektas"],"ticketUrl":null,"time":"10pm"}],"vName":"New Guernica"},"type":"Feature"},{"geometry":{"coordinates":[144.998414,-37.771471],"type":"Point"},"properties":{"events":[{"categories":["Music"],"eDate":"2026-07-25","eName":"Borderline","genre":"Indie","price":"$40.70","supports":["The Peppermints"],"ticketUrl":null,"time":" 8pm"}],"vName":"Northcote Social Club"},"type":"Feature"},{"geometry":{"coordinates":[144.97609011199125,-37.867583041643705],"type":"Point"},"properties":{"events":[{"categories":["Music"],"eDate":"2026-07-25","eName":"Pitchface’s Big Winter Sing with Kate Miller-Heidke","genre":"Acoustic","price":"$50.00","supports":[],"ticketUrl":null,"time":" 7pm"}],"vName":"Palais Theatre"},"type":"Feature"},{"geometry":{"coordinates":[144.96084,-37.813514],"type":"Point"},"properties":{"events":[{"categories":["Music"],"eDate":"2026-07-25","eName":"GrooVe Congress plays Postmodern Jukebox with Imogen Spendlove","genre":"Jazz","price":"$45.00","supports":[],"ticketUrl":null,"time":" 6pm"},{"categories":["Music"],"eDate":"2026-07-25","eName":"Oscar Bruten Septet Plays: The Music of Monk and Mingus","genre":"Jazz","price":"$45.00","supports":[],"ticketUrl":null,"time":" 6:30pm"},{"categories":["Music"],"eDate":"2026-07-25","eName":"Nana Koizumi Quartet plays The Great American Songbook","genre":"Jazz","price":"$45.00","supports":[],"ticketUrl":null,"time":" 9pm"},{"categories":["Music"],"eDate":"2026-07-25","eName":"Richard Pavlidis Presents: Tenor Titans","genre":"Jazz","price":"$45.00","supports":[],"ticketUrl":null,"time":" 9:30pm"}],"vName":"Paris Cat Jazz Club"},"type":"Feature"},{"geometry":{"coordinates":[144.9657057,-37.8061581],"type":"Point"},"properties":{"events":[{"categories":["Music"],"eDate":"2026-07-25","eName":"Baggy Trousers: The Sound Of Madness & The Specials","genre":null,"price":"Free","supports":["Loonee Tunes"],"ticketUrl":null,"time":" 7:30pm"}],"vName":"The Curtin"},"type":"Feature"},{"geometry":{"coordinates":[144.9720579,-37.8121675],"type":"Point"},"properties":{"events":[{"categories":["Comedy","Theatre"],"eDate":"2026-07-25","eName":"The Remix: Live Improv Comedy From A Guest’s True Stories","genre":null,"price":"$24.00","supports":[],"ticketUrl":null,"time":" 8:15pm"}],"vName":"The Improv Conspiracy"},"type":"Feature"},{"geometry":{"coordinates":[144.9879283,-37.7505509],"type":"Point"},"properties":{"events":[{"categories":["Music"],"eDate":"2026-07-25","eName":"NEGOMi","genre":"Soul/Funk","price":"Free","supports":[],"ticketUrl":null,"time":" 7pm"}],"vName":"The Merri Bar"},"type":"Feature"},{"geometry":{"coordinates":[144.9708437,-37.7973184],"type":"Point"},"properties":{"events":[{"categories":["Music"],"eDate":"2026-07-25","eName":"House Full of Squirrels Presents: Squirrel Situation + Baillies Bazaar","genre":"Country/Folk","price":"$20.76","supports":[],"ticketUrl":null,"time":" 7:30pm"}],"vName":"The Motley Bauhaus"},"type":"Feature"},{"geometry":{"coordinates":[144.9794553,-37.7982653],"type":"Point"},"properties":{"events":[{"categories":["Music"],"eDate":"2026-07-25","eName":"Mildlife","genre":null,"price":"$55.97","supports":[],"ticketUrl":null,"time":" 7:30pm"},{"categories":["Music"],"eDate":"2026-07-25","eName":"Harvey Sutherland (DJ Set)","genre":"Electronic","price":"$19.90","supports":["AKANE"],"ticketUrl":null,"time":"11pm"}],"vName":"The Night Cat"},"type":"Feature"},{"geometry":{"coordinates":[145.0141502,-37.8117556],"type":"Point"},"properties":{"events":[{"categories":["Music"],"eDate":"2026-07-25","eName":"Sonic Horizons","genre":"Experimental","price":"$40.00","supports":[],"ticketUrl":null,"time":" 7pm"}],"vName":"The Open Space"},"type":"Feature"},{"geometry":{"coordinates":[145.1818891,-37.8163371],"type":"Point"},"properties":{"events":[{"categories":["Other \"Dance \""],"eDate":"2026-07-25","eName":"Arterial","genre":null,"price":"$48.00","supports":[],"ticketUrl":null,"time":" 8pm"}],"vName":"The Round"},"type":"Feature"},{"geometry":{"coordinates":[144.9769451,-37.8055776],"type":"Point"},"properties":{"events":[{"categories":["Music"],"eDate":"2026-07-25","eName":"Xanthe","genre":"Soul/Funk","price":"$17.85","supports":["Javiera Diaz"," Jasmine Matthews"],"ticketUrl":null,"time":" 8pm"}],"vName":"The Workers Club"},"type":"Feature"},{"geometry":{"coordinates":[144.9661635,-37.8176298],"type":"Point"},"properties":{"events":[{"categories":["Music"],"eDate":"2026-07-25","eName":"TRIBE","genre":"Electronic","price":"$27.40 - 32.90","supports":["Eden"," Santerres"," Immy"," Rosemond"],"ticketUrl":null,"time":"10pm"}],"vName":"Wax Music Lounge"},"type":"Feature"},{"geometry":{"coordinates":[144.9984324,-37.7729134],"type":"Point"},"properties":{"events":[{"categories":["Music"],"eDate":"2026-07-25","eName":"Retratos Ensemble","genre":"Jazz","price":"Free","supports":[],"ticketUrl":null,"time":" 6pm"}],"vName":"Wesley Anne"},"type":"Feature"}],"type":"FeatureCollection"}