{"features":[{"geometry":{"coordinates":[144.978682,-37.7981225],"type":"Point"},"properties":{"events":[{"categories":["Free","Music"],"eDate":"2025-08-24","eName":"Liliana","genre":null,"price":"Free","supports":[],"ticketUrl":null,"time":" 9pm"}],"vName":"Baxter's Lot"},"type":"Feature"},{"geometry":{"coordinates":[144.9501312,-37.8042459],"type":"Point"},"properties":{"events":[{"categories":["Comedy"],"eDate":"2025-08-24","eName":"Sunday Night Comedy","genre":null,"price":"$10.00","supports":[],"ticketUrl":null,"time":" 7:30pm"}],"vName":"Club Voltaire"},"type":"Feature"},{"geometry":{"coordinates":[144.9777885,-37.8597831],"type":"Point"},"properties":{"events":[{"categories":["Music"],"eDate":"2025-08-24","eName":"Lee Spence Country Duo","genre":"Country/Folk","price":"Free","supports":[],"ticketUrl":null,"time":" 5:30pm"}],"vName":"Freddie Wimpoles"},"type":"Feature"},{"geometry":{"coordinates":[144.9758231,-37.7929991],"type":"Point"},"properties":{"events":[{"categories":["Music"],"eDate":"2025-08-24","eName":"Don Hillman’s Secret Beach","genre":null,"price":"Free","supports":[],"ticketUrl":null,"time":" 4pm"}],"vName":"Railway Hotel"},"type":"Feature"},{"geometry":{"coordinates":[144.9879283,-37.7505509],"type":"Point"},"properties":{"events":[{"categories":["Music"],"eDate":"2025-08-24","eName":"Georgia Ray","genre":"Acoustic","price":"Free","supports":[],"ticketUrl":null,"time":" 4pm"}],"vName":"The Merri Bar"},"type":"Feature"},{"geometry":{"coordinates":[144.957991,-38.3859573],"type":"Point"},"properties":{"events":[{"categories":["Music"],"eDate":"2025-08-24","eName":"Matt Arthur & The Lazybones: Eric Clapton’s “Unplugged & Hits”","genre":"Blues","price":"$35.00","supports":[],"ticketUrl":null,"time":" 3pm"}],"vName":"The Shed @ The Pig & Whistle"},"type":"Feature"},{"geometry":{"coordinates":[144.9651425,-37.8119429],"type":"Point"},"properties":{"events":[{"categories":["Music"],"eDate":"2025-08-24","eName":"Ninajirachi + umru + MGNA Crrrta","genre":"Electronic","price":"$43.86","supports":[],"ticketUrl":null,"time":" 7pm"}],"vName":"The Toff In Town"},"type":"Feature"}],"type":"FeatureCollection"}