{"features":[{"geometry":{"coordinates":[144.99828116650363,-37.7713296],"type":"Point"},"properties":{"events":[{"categories":["Free","Music"],"eDate":"2024-08-17","eName":"Rudi Sound","genre":"Global","price":"Free","supports":["Sasquatch Sound System"],"ticketUrl":null,"time":" 8pm"}],"vName":"Bar 303"},"type":"Feature"},{"geometry":{"coordinates":[144.978682,-37.7981225],"type":"Point"},"properties":{"events":[{"categories":["Free","Music"],"eDate":"2024-08-17","eName":"HH +Sax Gawn","genre":null,"price":"Free","supports":[],"ticketUrl":null,"time":" 9:30pm"},{"categories":["Music"],"eDate":"2024-08-17","eName":"Damien Mack","genre":"Indie","price":"Free","supports":[],"ticketUrl":null,"time":"10pm"}],"vName":"Baxter's Lot"},"type":"Feature"},{"geometry":{"coordinates":[144.9607158,-37.776327],"type":"Point"},"properties":{"events":[{"categories":["Music"],"eDate":"2024-08-17","eName":"Echo Bravo Festival 2024","genre":"Rock","price":"$38.25","supports":[],"ticketUrl":null,"time":" 3:30pm"}],"vName":"Bergy Bandroom"},"type":"Feature"},{"geometry":{"coordinates":[144.99266639479475,-37.82488935],"type":"Point"},"properties":{"events":[{"categories":["Music"],"eDate":"2024-08-17","eName":"The Buoys","genre":"Rock","price":"$38.35","supports":[],"ticketUrl":null,"time":" 8:30pm"}],"vName":"Corner Hotel"},"type":"Feature"},{"geometry":{"coordinates":[144.9875917,-37.7963837],"type":"Point"},"properties":{"events":[{"categories":["Free","Music"],"eDate":"2024-08-17","eName":"Fly! Charity Show","genre":null,"price":"Free","supports":[],"ticketUrl":null,"time":" 8pm"}],"vName":"Gem Bar"},"type":"Feature"},{"geometry":{"coordinates":[144.9787445,-37.7967357],"type":"Point"},"properties":{"events":[{"categories":["Music"],"eDate":"2024-08-17","eName":"Glamorama Saturdays: DJ JNETT","genre":"Electronic","price":"$21.97","supports":["Tom Kirby"," Jo Christy"," Matt Radovich"],"ticketUrl":null,"time":" 9pm"}],"vName":"Glamorama"},"type":"Feature"},{"geometry":{"coordinates":[144.9679835243618,-37.8201575],"type":"Point"},"properties":{"events":[{"categories":["Dance"],"eDate":"2024-08-17","eName":"BIG Live presents Ballet International Gala V","genre":null,"price":"$64.00 - 154.00","supports":[],"ticketUrl":null,"time":" 7pm"}],"vName":"Hamer Hall (Arts Centre Melbourne)"},"type":"Feature"},{"geometry":{"coordinates":[144.90043927513608,-37.8115247],"type":"Point"},"properties":{"events":[{"categories":["Music"],"eDate":"2024-08-17","eName":"The Rebelles","genre":"Soul/Funk","price":"$27.64","supports":["Backbeat"," DJ Lady Lovepotion"],"ticketUrl":null,"time":" 7pm"}],"vName":"Kindred Bandroom"},"type":"Feature"},{"geometry":{"coordinates":[144.96741062735794,-37.82454855],"type":"Point"},"properties":{"events":[{"categories":["Music"],"eDate":"2024-08-17","eName":"Australian Girls Choir in Concert","genre":"Acoustic","price":"$45.00","supports":[],"ticketUrl":null,"time":" 4:30pm"}],"vName":"Melbourne Recital Centre"},"type":"Feature"},{"geometry":{"coordinates":[144.9786817,-37.8671902],"type":"Point"},"properties":{"events":[{"categories":["Music","Other \"Cabaret\""],"eDate":"2024-08-17","eName":"A Night With TINA: A Tina Turner Drag Cabaret","genre":"Pop","price":"$45.00 - 65.00","supports":[],"ticketUrl":null,"time":" 7pm"}],"vName":"Memo Music Hall"},"type":"Feature"},{"geometry":{"coordinates":[144.9712356,-37.812902],"type":"Point"},"properties":{"events":[{"categories":["Comedy"],"eDate":"2024-08-17","eName":"Basement Comedy Club","genre":null,"price":"$26.00","supports":["more"],"ticketUrl":null,"time":" 8pm"}],"vName":"Morris House"},"type":"Feature"},{"geometry":{"coordinates":[144.998414,-37.771471],"type":"Point"},"properties":{"events":[{"categories":["Music"],"eDate":"2024-08-17","eName":"Snowy Band","genre":"Indie","price":"$25.00","supports":["Kosmetika"," Lower Plenty"],"ticketUrl":null,"time":" 8:30pm"}],"vName":"Northcote Social Club"},"type":"Feature"},{"geometry":{"coordinates":[144.97711,-37.79833],"type":"Point"},"properties":{"events":[{"categories":["Music"],"eDate":"2024-08-17","eName":"Kyoto Indie Rock Experiments","genre":"Rock","price":"$23.50","supports":[],"ticketUrl":null,"time":" 8pm"}],"vName":"Old Bar"},"type":"Feature"},{"geometry":{"coordinates":[144.97609011199125,-37.867583041643705],"type":"Point"},"properties":{"events":[{"categories":["Music"],"eDate":"2024-08-17","eName":"Mike Oldfield's Tubular Bells Live in Concert","genre":null,"price":"$99.00 - 149.90","supports":[],"ticketUrl":null,"time":" 6pm"}],"vName":"Palais Theatre"},"type":"Feature"},{"geometry":{"coordinates":[144.9605705,-37.8132486],"type":"Point"},"properties":{"events":[{"categories":["Music"],"eDate":"2024-08-17","eName":"Alanna & Old Hat","genre":"Jazz","price":"$45.00","supports":[],"ticketUrl":null,"time":" 6pm"},{"categories":["Music"],"eDate":"2024-08-17","eName":"Unplugged: The Music of Eric Clapton with Matt Arthur & The Lazybones","genre":"Blues","price":"$45.00","supports":[],"ticketUrl":null,"time":" 6:30pm"},{"categories":["Music"],"eDate":"2024-08-17","eName":"Not So Big Band: Best of Bublé","genre":"Jazz","price":"$45.00","supports":[],"ticketUrl":null,"time":" 9pm"},{"categories":["Music"],"eDate":"2024-08-17","eName":"Jazz Label Giants: Classics from the Blue Note, Impulse, Verve, Atlantic & Columbia Record Labels","genre":"Jazz","price":"$45.00","supports":[],"ticketUrl":null,"time":" 9:30pm"}],"vName":"Paris Cat Jazz Club"},"type":"Feature"},{"geometry":{"coordinates":[144.9615882,-37.7711432],"type":"Point"},"properties":{"events":[{"categories":["Music"],"eDate":"2024-08-17","eName":"Wren Bellette & The Restless Few","genre":"Country/Folk","price":"Free","supports":["Nathan Seeckts"],"ticketUrl":null,"time":" 2pm"},{"categories":["Music"],"eDate":"2024-08-17","eName":"Sounds of Abya Yala","genre":null,"price":"$15.00 - 25.00","supports":["SunSeeds"," Cotērra"],"ticketUrl":null,"time":" 7:30pm"}],"vName":"Retreat Hotel"},"type":"Feature"},{"geometry":{"coordinates":[144.9631913,-37.7617818],"type":"Point"},"properties":{"events":[{"categories":["Music"],"eDate":"2024-08-17","eName":"The Thorazines","genre":"Punk","price":"$10.00 - 15.00","supports":["Forklift Assassins"," Strawberry Lipstick"],"ticketUrl":null,"time":" 8pm"}],"vName":"Ringo Barr"},"type":"Feature"},{"geometry":{"coordinates":[144.9607404,-37.7743469],"type":"Point"},"properties":{"events":[{"categories":["Music"],"eDate":"2024-08-17","eName":"Call Me Maybe + Best Of Both Worlds: Glee vs Pitch Perfect","genre":"Pop","price":"$14.30 - 22.00","supports":[],"ticketUrl":null,"time":"11pm"}],"vName":"Stay Gold"},"type":"Feature"},{"geometry":{"coordinates":[144.9706095,-37.7783326],"type":"Point"},"properties":{"events":[{"categories":["Free","Music"],"eDate":"2024-08-17","eName":"Cat Crawl","genre":"Rock","price":"Free","supports":["Ze Wisenheimer"," The Nation Two"],"ticketUrl":null,"time":" 9pm"}],"vName":"The Beast"},"type":"Feature"},{"geometry":{"coordinates":[144.9585654,-37.8059962],"type":"Point"},"properties":{"events":[{"categories":["Free","Music"],"eDate":"2024-08-17","eName":"The Dead Pharaohs","genre":"Rock","price":"Free","supports":["Monkey Butler"," Abselom"],"ticketUrl":null,"time":" 2pm"},{"categories":["Music"],"eDate":"2024-08-17","eName":"HAVITTAJAT","genre":"Metal","price":"$15.00","supports":["Katorga"," Cryptid"," Paroxys"],"ticketUrl":null,"time":" 8pm"}],"vName":"The Last Chance Rock & Roll Bar"},"type":"Feature"},{"geometry":{"coordinates":[144.9708437,-37.7973184],"type":"Point"},"properties":{"events":[{"categories":["Free","Music"],"eDate":"2024-08-17","eName":"Jazz Arvos","genre":"Jazz","price":"Free","supports":[],"ticketUrl":null,"time":" 5pm"},{"categories":["Music"],"eDate":"2024-08-17","eName":"Phoenix Street","genre":"Rock","price":"$10.13","supports":[],"ticketUrl":null,"time":" 8pm"},{"categories":["Comedy"],"eDate":"2024-08-17","eName":"The Big HOO HAA!","genre":null,"price":"$30.39","supports":[],"ticketUrl":null,"time":" 8:30pm"}],"vName":"The Motley Bauhaus"},"type":"Feature"},{"geometry":{"coordinates":[144.9622,-37.7679857],"type":"Point"},"properties":{"events":[{"categories":["Free","Music"],"eDate":"2024-08-17","eName":"BREAKNBREAD Birthday Bash","genre":"Electronic","price":"Free","supports":[],"ticketUrl":null,"time":" 6:30pm"}],"vName":"The Penny Black"},"type":"Feature"},{"geometry":{"coordinates":[144.9618426,-37.8125531],"type":"Point"},"properties":{"events":[{"categories":["Free","Music"],"eDate":"2024-08-17","eName":"Rendezvous","genre":null,"price":"Free","supports":["Yugo B"],"ticketUrl":null,"time":" 2pm"}],"vName":"Whitehart Bar"},"type":"Feature"}],"type":"FeatureCollection"}