{"features":[{"geometry":{"coordinates":[144.353924,-38.1629265],"type":"Point"},"properties":{"events":[{"categories":["Music"],"eDate":"2026-07-09","eName":"Donni Heat","genre":null,"price":"$15.00","supports":["Crox"," Malicy"," A Study in Red"],"ticketUrl":null,"time":" 7pm"}],"vName":"Barwon Club Hotel"},"type":"Feature"},{"geometry":{"coordinates":[144.978682,-37.7981225],"type":"Point"},"properties":{"events":[{"categories":["Free","Music"],"eDate":"2026-07-09","eName":"B’s Open Keys","genre":null,"price":"Free","supports":[],"ticketUrl":null,"time":" 9pm"}],"vName":"Baxter's Lot"},"type":"Feature"},{"geometry":{"coordinates":[144.959768,-37.831777],"type":"Point"},"properties":{"events":[{"categories":["Other \"Food \"","Music"],"eDate":"2026-07-09","eName":"JMQ Thursday Jazz: Anastasia Aspeling + Jayden Blockley","genre":"Jazz","price":"$20.00","supports":[],"ticketUrl":null,"time":" 6:30pm"}],"vName":"Golden Gate Hotel"},"type":"Feature"},{"geometry":{"coordinates":[144.973013,-37.8640582],"type":"Point"},"properties":{"events":[{"categories":["Music"],"eDate":"2026-07-09","eName":"The Resignators","genre":null,"price":"Free","supports":["Banjzig"],"ticketUrl":null,"time":" 7pm"}],"vName":"Hotel Esplanade (aka The Espy)"},"type":"Feature"},{"geometry":{"coordinates":[144.9794553,-37.7982653],"type":"Point"},"properties":{"events":[{"categories":["Music"],"eDate":"2026-07-09","eName":"Sports","genre":null,"price":"$55.85","supports":[],"ticketUrl":null,"time":" 7:30pm"}],"vName":"The Night Cat"},"type":"Feature"},{"geometry":{"coordinates":[144.9870814,-37.799406],"type":"Point"},"properties":{"events":[{"categories":["Music"],"eDate":"2026-07-09","eName":"The Mavis’s","genre":null,"price":"$50.50","supports":["HZED"," Big League"],"ticketUrl":null,"time":" 7:30pm"}],"vName":"The Tote Hotel"},"type":"Feature"}],"type":"FeatureCollection"}