{"features":[{"geometry":{"coordinates":[144.9679835243618,-37.8201575],"type":"Point"},"properties":{"events":[{"categories":["Theatre"],"eDate":"2024-10-02","eName":"Pride & Prejudice: An Adaptation In Words & Music","genre":null,"price":"$79.00 - 109.00","supports":["Madeleine Easton"," Dan Le"],"ticketUrl":null,"time":" 7pm"}],"vName":"Arts Centre Melbourne"},"type":"Feature"},{"geometry":{"coordinates":[144.978425,-37.79773],"type":"Point"},"properties":{"events":[{"categories":["Music"],"eDate":"2024-10-02","eName":"Kick On Residency Night 1","genre":null,"price":"$8.20","supports":["Pink Lady"," Smoking Caterpillar"],"ticketUrl":null,"time":" 8pm"},{"categories":["Music"],"eDate":"2024-10-02","eName":"Kick On Residency Night 1","genre":"Rock","price":"$8.20","supports":["Pink Lady"," Smoking Caterpillar"],"ticketUrl":null,"time":" 8pm"}],"vName":"Bar Open"},"type":"Feature"},{"geometry":{"coordinates":[144.9947908,-37.8491931],"type":"Point"},"properties":{"events":[{"categories":["Theatre"],"eDate":"2024-10-02","eName":"I hope this means something","genre":null,"price":"$45.00","supports":[],"ticketUrl":null,"time":" 7:30pm"}],"vName":"Chapel Off Chapel"},"type":"Feature"},{"geometry":{"coordinates":[144.9615882,-37.7711432],"type":"Point"},"properties":{"events":[{"categories":["Music"],"eDate":"2024-10-02","eName":"The South East Gents","genre":null,"price":"$15.00","supports":[],"ticketUrl":null,"time":" 7pm"}],"vName":"Retreat Hotel"},"type":"Feature"},{"geometry":{"coordinates":[144.9708437,-37.7973184],"type":"Point"},"properties":{"events":[{"categories":["Theatre"],"eDate":"2024-10-02","eName":"The Passion Of Pauline: A Live Documentary","genre":null,"price":"$25.00 - 38.00","supports":[],"ticketUrl":null,"time":" 9pm"}],"vName":"The Motley Bauhaus"},"type":"Feature"}],"type":"FeatureCollection"}