{"features":[{"geometry":{"coordinates":[144.9679835,-37.8201575],"type":"Point"},"properties":{"events":[{"categories":["Other \"Dance \""],"eDate":"2026-05-20","eName":"Punk the beat! Let’s W_ack!","genre":null,"price":"$20.00","supports":[],"ticketUrl":null,"time":" 7pm"}],"vName":"Arts Centre Melbourne"},"type":"Feature"},{"geometry":{"coordinates":[144.9762881,-37.798246],"type":"Point"},"properties":{"events":[{"categories":["Music"],"eDate":"2026-05-20","eName":"Moving Forward EP1","genre":null,"price":"$15.00","supports":["50","000 Bees"," Microwave Dinner"," Lifetime Warranty"],"ticketUrl":null,"time":" 6:30pm"}],"vName":"Bad Decisions Bar"},"type":"Feature"},{"geometry":{"coordinates":[144.978682,-37.7981225],"type":"Point"},"properties":{"events":[{"categories":["Free","Music"],"eDate":"2026-05-20","eName":"Live and Local hosted by Xander Cuming","genre":null,"price":"Free","supports":[],"ticketUrl":null,"time":" 9pm"}],"vName":"Baxter's Lot"},"type":"Feature"},{"geometry":{"coordinates":[144.9945274,-37.8001115],"type":"Point"},"properties":{"events":[{"categories":["Other \"Food \"","Music","Free"],"eDate":"2026-05-20","eName":"The Cosmic Jams","genre":null,"price":"Free","supports":[],"ticketUrl":null,"time":" 7:30pm"}],"vName":"Bodriggy Brewing Company"},"type":"Feature"},{"geometry":{"coordinates":[144.9617083,-37.7704205],"type":"Point"},"properties":{"events":[{"categories":["Music","Other \"Film\""],"eDate":"2026-05-20","eName":"Mike Rudd Documentary Film & Live Band Event","genre":"Rock","price":"$50.00","supports":[],"ticketUrl":null,"time":" 8pm"}],"vName":"Brunswick Ballroom"},"type":"Feature"},{"geometry":{"coordinates":[145.1334272,-37.9135736],"type":"Point"},"properties":{"events":[{"categories":["Music"],"eDate":"2026-05-20","eName":"Daryl McKenzie Jazz Orchestra with Raleigh Williams","genre":"Jazz","price":"$15.00 - 30.00","supports":[],"ticketUrl":null,"time":" 7:30pm"}],"vName":"The Ian Potter Centre for Performing Arts"},"type":"Feature"}],"type":"FeatureCollection"}