{"features":[{"geometry":{"coordinates":[144.978425,-37.79773],"type":"Point"},"properties":{"events":[{"categories":["Free","Music"],"eDate":"2024-12-20","eName":"The Four Scoops","genre":"Jazz","price":"Free","supports":[],"ticketUrl":null,"time":" 6:30pm"},{"categories":["Music"],"eDate":"2024-12-20","eName":"Forrer","genre":"Country/Folk","price":"$15.00","supports":["Githmi"," Isabella Fortuna"],"ticketUrl":null,"time":" 8:30pm"}],"vName":"Bar Open"},"type":"Feature"},{"geometry":{"coordinates":[144.978682,-37.7981225],"type":"Point"},"properties":{"events":[{"categories":["Free","Music"],"eDate":"2024-12-20","eName":"Woody Samson","genre":null,"price":"Free","supports":[],"ticketUrl":null,"time":" 9pm"},{"categories":["Music"],"eDate":"2024-12-20","eName":"DJ Nomar Jr","genre":"Electronic","price":"Free","supports":[],"ticketUrl":null,"time":"10pm"}],"vName":"Baxter's Lot"},"type":"Feature"},{"geometry":{"coordinates":[144.9607158,-37.776327],"type":"Point"},"properties":{"events":[{"categories":["Music"],"eDate":"2024-12-20","eName":"Slay Belles 2","genre":"Metal","price":"$22.95","supports":[],"ticketUrl":null,"time":" 7pm"}],"vName":"Bergy Bandroom"},"type":"Feature"},{"geometry":{"coordinates":[144.99266639479475,-37.82488935],"type":"Point"},"properties":{"events":[{"categories":["Music"],"eDate":"2024-12-20","eName":"A Pool House Christmas Presents The Smith Street Band + Press Club","genre":"Punk","price":"$50.00","supports":[],"ticketUrl":null,"time":" 8pm"}],"vName":"Corner Hotel"},"type":"Feature"},{"geometry":{"coordinates":[144.96947,-37.816565],"type":"Point"},"properties":{"events":[{"categories":["Music"],"eDate":"2024-12-20","eName":"Ben Abraham","genre":"Country/Folk","price":"$69.90","supports":[],"ticketUrl":null,"time":" 7:30pm"}],"vName":"Forum Melbourne"},"type":"Feature"},{"geometry":{"coordinates":[145.12326813392298,-38.14614695],"type":"Point"},"properties":{"events":[{"categories":["Music"],"eDate":"2024-12-20","eName":"Tim Rogers","genre":"Rock","price":"$64.00","supports":["Sarah Carroll"],"ticketUrl":null,"time":" 8pm"}],"vName":"Frankston Arts Centre"},"type":"Feature"},{"geometry":{"coordinates":[144.9875917,-37.7963837],"type":"Point"},"properties":{"events":[{"categories":["Free","Music"],"eDate":"2024-12-20","eName":"Ben Wright Smith & Friends + Ellen James & The Waning Crescents","genre":"Country/Folk","price":"Free","supports":[],"ticketUrl":null,"time":" 8pm"}],"vName":"Gem Bar"},"type":"Feature"},{"geometry":{"coordinates":[144.973013,-37.8640582],"type":"Point"},"properties":{"events":[{"categories":["Music"],"eDate":"2024-12-20","eName":"Swiftmas: Taylor Swift Xmas Party","genre":"Pop","price":"$12.37 - 30.00","supports":[],"ticketUrl":null,"time":" 9pm"}],"vName":"Hotel Esplanade (aka The Espy)"},"type":"Feature"},{"geometry":{"coordinates":[144.9596527,-37.7720304],"type":"Point"},"properties":{"events":[{"categories":["Music"],"eDate":"2024-12-20","eName":"A Very KB Christmas with Kitschen Boy & Friends","genre":"Rock","price":"$23.46","supports":[],"ticketUrl":null,"time":" 7pm"}],"vName":"Howler"},"type":"Feature"},{"geometry":{"coordinates":[145.0008148,-37.8107158],"type":"Point"},"properties":{"events":[{"categories":["Music"],"eDate":"2024-12-20","eName":"Christmas With Albert Salt","genre":"Electronic","price":"$20.00","supports":["Alisha.K"],"ticketUrl":null,"time":" 8pm"}],"vName":"Leadbeater Hotel"},"type":"Feature"},{"geometry":{"coordinates":[144.8971518,-37.8054274],"type":"Point"},"properties":{"events":[{"categories":["Free","Music"],"eDate":"2024-12-20","eName":"Rhysics","genre":null,"price":"Free","supports":["Public Figures"," Ice Cream In A Mug"],"ticketUrl":null,"time":" 6pm"}],"vName":"Mamma Chen's"},"type":"Feature"},{"geometry":{"coordinates":[144.9786817,-37.8671902],"type":"Point"},"properties":{"events":[{"categories":["Music"],"eDate":"2024-12-20","eName":"A Very Big Band Christmas","genre":"Jazz","price":"$45.00 - 65.00","supports":[],"ticketUrl":null,"time":" 7pm"}],"vName":"Memo Music Hall"},"type":"Feature"},{"geometry":{"coordinates":[144.9712356,-37.812902],"type":"Point"},"properties":{"events":[{"categories":["Comedy"],"eDate":"2024-12-20","eName":"Basement Comedy Club","genre":null,"price":"$24.00","supports":["more"],"ticketUrl":null,"time":" 8pm"}],"vName":"Morris House"},"type":"Feature"},{"geometry":{"coordinates":[144.998414,-37.771471],"type":"Point"},"properties":{"events":[{"categories":["Music"],"eDate":"2024-12-20","eName":"La Descarga + ISU TAKI (End of Year Fiesta)","genre":"Jazz","price":"$24.00","supports":[],"ticketUrl":null,"time":" 8pm"}],"vName":"Northcote Social Club"},"type":"Feature"},{"geometry":{"coordinates":[144.97711,-37.79833],"type":"Point"},"properties":{"events":[{"categories":["Music"],"eDate":"2024-12-20","eName":"Willie J’s 6v6s + Scarnon","genre":"Country/Folk","price":"$15.00","supports":[],"ticketUrl":null,"time":" 8pm"}],"vName":"Old Bar"},"type":"Feature"},{"geometry":{"coordinates":[144.9981771,-37.7742773],"type":"Point"},"properties":{"events":[{"categories":["Music"],"eDate":"2024-12-20","eName":"Los Cojones","genre":"Jazz","price":"$15.00 - 25.00","supports":[],"ticketUrl":null,"time":" 9:30pm"}],"vName":"Open Studio"},"type":"Feature"},{"geometry":{"coordinates":[144.9605705,-37.8132486],"type":"Point"},"properties":{"events":[{"categories":["Music"],"eDate":"2024-12-20","eName":"The Syncopators","genre":"Jazz","price":"$45.00","supports":[],"ticketUrl":null,"time":" 6pm"},{"categories":["Music"],"eDate":"2024-12-20","eName":"Miss George & The Boys From Ipanema","genre":"Jazz","price":"$45.00","supports":[],"ticketUrl":null,"time":" 6:30pm"},{"categories":["Music"],"eDate":"2024-12-20","eName":"Someday at Christmas with Stevie Wonder FUL","genre":"Jazz","price":"$45.00","supports":[],"ticketUrl":null,"time":" 9pm"},{"categories":["Music"],"eDate":"2024-12-20","eName":"The Shuffle Club","genre":"Jazz","price":"$45.00","supports":[],"ticketUrl":null,"time":" 9:30pm"}],"vName":"Paris Cat Jazz Club"},"type":"Feature"},{"geometry":{"coordinates":[144.97817073839508,-37.8014757],"type":"Point"},"properties":{"events":[{"categories":["Music"],"eDate":"2024-12-20","eName":"New Delica X-mas Show","genre":"Rock","price":"$15.00","supports":["Seamus Mcorry & The Televised Mind"," Albert Gray"],"ticketUrl":null,"time":" 7pm"}],"vName":"Perseverance Hotel"},"type":"Feature"},{"geometry":{"coordinates":[144.90239079583333,-37.79990865],"type":"Point"},"properties":{"events":[{"categories":["Comedy","Trivia"],"eDate":"2024-12-20","eName":"Pride Drag Bingo","genre":null,"price":"$10.00","supports":[],"ticketUrl":null,"time":" 7pm"}],"vName":"Pride Of Our Footscray Community Bar"},"type":"Feature"},{"geometry":{"coordinates":[144.9828155,-37.8567825],"type":"Point"},"properties":{"events":[{"categories":["Music"],"eDate":"2024-12-20","eName":"Land Down Under","genre":"Rock","price":"$39.80","supports":[],"ticketUrl":null,"time":" 7:30pm"}],"vName":"Prince Bandroom"},"type":"Feature"},{"geometry":{"coordinates":[144.9615882,-37.7711432],"type":"Point"},"properties":{"events":[{"categories":["Free","Music"],"eDate":"2024-12-20","eName":"Headphones Jones: 10th Birthday Show","genre":"Rock","price":"$25.00","supports":[],"ticketUrl":null,"time":" 7:30pm"}],"vName":"Retreat Hotel"},"type":"Feature"},{"geometry":{"coordinates":[144.9607404,-37.7743469],"type":"Point"},"properties":{"events":[{"categories":["Music","Dance","Other \"Cabaret\""],"eDate":"2024-12-20","eName":"The Soft Machine Presents: Flesh Rituals & Siren Songs","genre":"Electronic","price":"$29.13 - 68.80","supports":[],"ticketUrl":null,"time":" 7pm"}],"vName":"Stay Gold"},"type":"Feature"},{"geometry":{"coordinates":[144.960725,-37.7762687],"type":"Point"},"properties":{"events":[{"categories":["Music"],"eDate":"2024-12-20","eName":"Roots Time Soundsystem","genre":"Global","price":"Free","supports":[],"ticketUrl":null,"time":" 6pm"}],"vName":"The Bergy Seltzer"},"type":"Feature"},{"geometry":{"coordinates":[144.9657057,-37.8061581],"type":"Point"},"properties":{"events":[{"categories":["Music"],"eDate":"2024-12-20","eName":"Scott And Charlene's Wedding: A Very SACW Christmas","genre":"Rock","price":"$22.85","supports":["Hot Tubs Time Machine"," Lacky Band"],"ticketUrl":null,"time":" 8pm"}],"vName":"The Curtin"},"type":"Feature"},{"geometry":{"coordinates":[144.9555612,-37.8066759],"type":"Point"},"properties":{"events":[{"categories":["Music"],"eDate":"2024-12-20","eName":"Traditional Irish Music Session","genre":"Country/Folk","price":"Free","supports":[],"ticketUrl":null,"time":" 6pm"}],"vName":"The Drunken Poet"},"type":"Feature"},{"geometry":{"coordinates":[145.0034466,-37.9505927],"type":"Point"},"properties":{"events":[{"categories":["Music"],"eDate":"2024-12-20","eName":"GTR: Good Time Rock","genre":"Rock","price":"$10.00","supports":[],"ticketUrl":null,"time":" 8:30pm"}],"vName":"The Hobson Stores"},"type":"Feature"},{"geometry":{"coordinates":[144.958676,-37.7669571],"type":"Point"},"properties":{"events":[{"categories":["Music"],"eDate":"2024-12-20","eName":"Cannonball with Chantal Mitvalsky","genre":"Jazz","price":"$35.00 - 40.00","supports":[],"ticketUrl":null,"time":" 8pm"}],"vName":"The Jazzlab"},"type":"Feature"},{"geometry":{"coordinates":[144.9585654,-37.8059962],"type":"Point"},"properties":{"events":[{"categories":["Music"],"eDate":"2024-12-20","eName":"Caution:Thieves","genre":"Metal","price":"$16.35","supports":["Misery Guts"," Some Heard Trouble"," Le Bongé"],"ticketUrl":null,"time":" 7:30pm"}],"vName":"The Last Chance Rock & Roll Bar"},"type":"Feature"},{"geometry":{"coordinates":[144.9830837,-37.7988316],"type":"Point"},"properties":{"events":[{"categories":["Music"],"eDate":"2024-12-20","eName":"DJ PGZ","genre":"Electronic","price":"$20.00","supports":[],"ticketUrl":null,"time":"11pm"},{"categories":["Music"],"eDate":"2024-12-20","eName":"DJ PGZ","genre":"Electronic","price":"$20.00","supports":[],"ticketUrl":null,"time":"11pm"}],"vName":"The Rochester"},"type":"Feature"},{"geometry":{"coordinates":[144.9651425,-37.8119429],"type":"Point"},"properties":{"events":[{"categories":["Free","Music"],"eDate":"2024-12-20","eName":"Hyper Toff","genre":"Pop","price":"Free","supports":[],"ticketUrl":null,"time":"11pm"}],"vName":"The Toff In Town"},"type":"Feature"},{"geometry":{"coordinates":[144.9846126,-37.7989941],"type":"Point"},"properties":{"events":[{"categories":["Music"],"eDate":"2024-12-20","eName":"Select All","genre":"Rock","price":"$11.25","supports":["Chloe Booth"," Blyss"],"ticketUrl":null,"time":" 8pm"}],"vName":"The Tote Hotel"},"type":"Feature"},{"geometry":{"coordinates":[144.9769450659087,-37.8055776],"type":"Point"},"properties":{"events":[{"categories":["Music"],"eDate":"2024-12-20","eName":"The Ronson Hangup (Christmas Show)","genre":"Rock","price":"$39.05","supports":["Pinkerton Pendlebury"," Nayls & Pinko"],"ticketUrl":null,"time":" 8pm"}],"vName":"The Workers Club"},"type":"Feature"},{"geometry":{"coordinates":[144.9807148,-37.7801461],"type":"Point"},"properties":{"events":[{"categories":["Free","Music"],"eDate":"2024-12-20","eName":"Racoo","genre":null,"price":"Free","supports":["soft star"],"ticketUrl":null,"time":" 8pm"}],"vName":"Tramway Hotel"},"type":"Feature"},{"geometry":{"coordinates":[144.9618426,-37.8125531],"type":"Point"},"properties":{"events":[{"categories":["Free","Music"],"eDate":"2024-12-20","eName":"Fridays With Mike Gurrieri","genre":null,"price":"Free","supports":["Colette"," Andy Elston"],"ticketUrl":null,"time":" 4pm"}],"vName":"Whitehart Bar"},"type":"Feature"}],"type":"FeatureCollection"}