{"features":[{"geometry":{"coordinates":[144.9679369,-37.8120109],"type":"Point"},"properties":{"events":[{"categories":["Music"],"eDate":"2024-02-18","eName":"I Am Me Foundation VIP Launch Party","genre":"Electronic","price":"$64.99","supports":["DJ Jesse R.E.O"," more"],"ticketUrl":null,"time":" 7pm"}],"vName":"170 Russell"},"type":"Feature"},{"geometry":{"coordinates":[144.978425,-37.79773],"type":"Point"},"properties":{"events":[{"categories":["Free","Music"],"eDate":"2024-02-18","eName":"Duncan Graham & Jan Palethorpe","genre":"Acoustic","price":"Free","supports":[],"ticketUrl":null,"time":" 5:30pm"}],"vName":"Bar Open"},"type":"Feature"},{"geometry":{"coordinates":[144.9614487,-37.7701405],"type":"Point"},"properties":{"events":[{"categories":["Free","Music"],"eDate":"2024-02-18","eName":"Steamboat Whistlers","genre":"Jazz","price":"Free","supports":[],"ticketUrl":null,"time":" 4pm"}],"vName":"Brunswick Green"},"type":"Feature"},{"geometry":{"coordinates":[144.9941396,-37.799833],"type":"Point"},"properties":{"events":[{"categories":["Music"],"eDate":"2024-02-18","eName":"Harvey Sutherland: In It For The Long Haul","genre":null,"price":"Free","supports":["Kuzco"],"ticketUrl":null,"time":" 2pm"}],"vName":"Dr Morse"},"type":"Feature"},{"geometry":{"coordinates":[144.96947,-37.816565],"type":"Point"},"properties":{"events":[{"categories":["Music"],"eDate":"2024-02-18","eName":"The Butterfly Effect","genre":"Rock","price":"$79.90","supports":[],"ticketUrl":null,"time":" 7pm"}],"vName":"Forum Melbourne"},"type":"Feature"},{"geometry":{"coordinates":[144.9875917,-37.7963837],"type":"Point"},"properties":{"events":[{"categories":["Music"],"eDate":"2024-02-18","eName":"The Westernairs","genre":"Country/Folk","price":"Free","supports":[],"ticketUrl":null,"time":" 4pm"}],"vName":"Gem Bar"},"type":"Feature"},{"geometry":{"coordinates":[144.9679835243618,-37.8201575],"type":"Point"},"properties":{"events":[{"categories":["Music","Other \"Spoken Word\"","Other \"Poetry & Forums\""],"eDate":"2024-02-18","eName":"Neil Gaiman & FourPlay String Quartet","genre":"Classical","price":"$79.00","supports":[],"ticketUrl":null,"time":" 7:30pm"}],"vName":"Hamer Hall (Arts Centre Melbourne)"},"type":"Feature"},{"geometry":{"coordinates":[144.95436919999997,-37.8016691],"type":"Point"},"properties":{"events":[{"categories":["Theatre"],"eDate":"2024-02-18","eName":"The Duchess of Malfi","genre":null,"price":"$45.00","supports":[],"ticketUrl":null,"time":" 7:30pm"}],"vName":"Melbourne Meat Market"},"type":"Feature"},{"geometry":{"coordinates":[145.0142411,-37.7310367],"type":"Point"},"properties":{"events":[{"categories":["Free","Music"],"eDate":"2024-02-18","eName":"Sunday Sunset Sessions","genre":"Jazz","price":"Free","supports":[],"ticketUrl":null,"time":" 6pm"}],"vName":"Ragtime Tavern"},"type":"Feature"},{"geometry":{"coordinates":[144.9631913,-37.7617818],"type":"Point"},"properties":{"events":[{"categories":["Music"],"eDate":"2024-02-18","eName":"The Distant South","genre":"Country/Folk","price":"$10.00","supports":[],"ticketUrl":null,"time":" 2pm"},{"categories":["Music"],"eDate":"2024-02-18","eName":"Vulcara + Propane Trio","genre":"Rock","price":"$20.00","supports":[],"ticketUrl":null,"time":" 8pm"}],"vName":"Ringo Barr"},"type":"Feature"}],"type":"FeatureCollection"}