{"features":[{"geometry":{"coordinates":[144.9679835243618,-37.8201575],"type":"Point"},"properties":{"events":[{"categories":["Comedy"],"eDate":"2024-04-13","eName":"Kaboom!","genre":null,"price":"$25.00 - 115.00","supports":[],"ticketUrl":null,"time":" 2pm"},{"categories":["Comedy","Theatre"],"eDate":"2024-04-13","eName":"Circus Oz: Smash It!","genre":null,"price":"$20.00 - 111.00","supports":[],"ticketUrl":null,"time":" 3:45pm"},{"categories":["Comedy","Other \"Food & Drink\""],"eDate":"2024-04-13","eName":"Merrick Watts: An Idiot's Guide to Wine - Volume Two","genre":null,"price":"$60.00 - 70.00","supports":[],"ticketUrl":null,"time":" 6pm"}],"vName":"Arts Centre Melbourne"},"type":"Feature"},{"geometry":{"coordinates":[144.9500257,-37.8032773],"type":"Point"},"properties":{"events":[{"categories":["Free","Art"],"eDate":"2024-04-13","eName":"ನಿರೀಕ್ಷಣೆ nireekshane","genre":null,"price":"Free","supports":[],"ticketUrl":null,"time":"11am"},{"categories":["Free","Art"],"eDate":"2024-04-13","eName":"ಒಡಲಾಳ Odalala","genre":null,"price":"Free","supports":[],"ticketUrl":null,"time":"11am"}],"vName":"Arts House"},"type":"Feature"},{"geometry":{"coordinates":[144.9763781,-37.7983136],"type":"Point"},"properties":{"events":[{"categories":["Music"],"eDate":"2024-04-13","eName":"Stem Flock Presents: Feed Me","genre":"Hip Hop","price":"$21.68","supports":["Jiimii Shunobi"," Huey G"],"ticketUrl":null,"time":" 7:30pm"},{"categories":["Music"],"eDate":"2024-04-13","eName":"Stem Flock Presents: Feed Me","genre":"Hip Hop","price":"$21.68","supports":["Stem Flock"," Jiimii Shunobi"," Huey G"," Velenosa"],"ticketUrl":null,"time":" 7:30pm"}],"vName":"Bad Decisions Bar"},"type":"Feature"},{"geometry":{"coordinates":[144.978425,-37.79773],"type":"Point"},"properties":{"events":[{"categories":["Music"],"eDate":"2024-04-13","eName":"MARC","genre":"Jazz","price":"$17.35","supports":["Art Department"," Gooey Drop"],"ticketUrl":null,"time":" 8:30pm"},{"categories":["Free","Music"],"eDate":"2024-04-13","eName":"Midnight Circuitry / Synaptic Dreams","genre":"Electronic","price":"Free","supports":[],"ticketUrl":null,"time":"11pm"}],"vName":"Bar Open"},"type":"Feature"},{"geometry":{"coordinates":[144.9607158,-37.776327],"type":"Point"},"properties":{"events":[{"categories":["Music"],"eDate":"2024-04-13","eName":"Aardvark","genre":"Metal","price":"$15.00 - 20.00","supports":["The Stripp"," Street Sweeper"],"ticketUrl":null,"time":" 8pm"}],"vName":"Bergy Bandroom"},"type":"Feature"},{"geometry":{"coordinates":[144.9617018,-37.7704566],"type":"Point"},"properties":{"events":[{"categories":["Music"],"eDate":"2024-04-13","eName":"Songs for Suzanne: The Music and Poetry of Leonard Cohen","genre":"Rock","price":"$69.90","supports":[],"ticketUrl":null,"time":" 2pm"},{"categories":["Music"],"eDate":"2024-04-13","eName":"Lost Ragas","genre":"Country/Folk","price":"$33.76","supports":[],"ticketUrl":null,"time":" 8:30pm"}],"vName":"Brunswick Ballroom"},"type":"Feature"},{"geometry":{"coordinates":[144.9713425,-37.8128595],"type":"Point"},"properties":{"events":[{"categories":["Music"],"eDate":"2024-04-13","eName":"Mac The Knife","genre":"Punk","price":"$17.48","supports":["Mr Industry"," Human Noise"],"ticketUrl":null,"time":" 8pm"}],"vName":"Cherry Bar"},"type":"Feature"},{"geometry":{"coordinates":[144.99266639479475,-37.82488935],"type":"Point"},"properties":{"events":[{"categories":["Music"],"eDate":"2024-04-13","eName":"Tora","genre":"Indie","price":"$56.80","supports":["Fractures"," AKA Lui"],"ticketUrl":null,"time":" 8:30pm"}],"vName":"Corner Hotel"},"type":"Feature"},{"geometry":{"coordinates":[144.9875917,-37.7963837],"type":"Point"},"properties":{"events":[{"categories":["Free","Music"],"eDate":"2024-04-13","eName":"Bob Log III","genre":"Rock","price":"Free","supports":["Spunk"," The Salmon Sistes"],"ticketUrl":null,"time":" 4pm"}],"vName":"Gem Bar"},"type":"Feature"},{"geometry":{"coordinates":[144.90043927513608,-37.8115247],"type":"Point"},"properties":{"events":[{"categories":["Free","Music"],"eDate":"2024-04-13","eName":"Ras Jahknow (18th Birthday Edition)","genre":"Electronic","price":"Free","supports":["N’fa Jones"," Sensible J"],"ticketUrl":null,"time":" 4pm"}],"vName":"Kindred Bandroom"},"type":"Feature"},{"geometry":{"coordinates":[144.9764962,-37.7983139],"type":"Point"},"properties":{"events":[{"categories":["Music"],"eDate":"2024-04-13","eName":"Cosmic Reality Afterparty","genre":null,"price":"$20.00","supports":[],"ticketUrl":null,"time":" 6pm"},{"categories":["Music"],"eDate":"2024-04-13","eName":"LAUNDRY - Saturdays","genre":null,"price":"$16.53","supports":[],"ticketUrl":null,"time":"10pm"}],"vName":"Laundry Bar"},"type":"Feature"},{"geometry":{"coordinates":[144.8971518,-37.8054274],"type":"Point"},"properties":{"events":[{"categories":["Free","Music"],"eDate":"2024-04-13","eName":"Ishta & The Quarter Life Crisis","genre":null,"price":"Free","supports":["Erin Will Be Mad"," Disgruntled Civil Servant"," Elijah Kelly"],"ticketUrl":null,"time":" 2pm"},{"categories":["Free","Music"],"eDate":"2024-04-13","eName":"The Soggy Pockets","genre":null,"price":"Free","supports":["They Might Be Dead Frogs"," Chloe Booth"],"ticketUrl":null,"time":" 7:45pm"}],"vName":"Mamma Chen's"},"type":"Feature"},{"geometry":{"coordinates":[144.96741062735794,-37.82454855],"type":"Point"},"properties":{"events":[{"categories":["Music"],"eDate":"2024-04-13","eName":"Folk Bitch Trio","genre":"Country/Folk","price":"$37.00","supports":[],"ticketUrl":null,"time":" 7pm"}],"vName":"Melbourne Recital Centre"},"type":"Feature"},{"geometry":{"coordinates":[144.9712356,-37.812902],"type":"Point"},"properties":{"events":[{"categories":["Comedy"],"eDate":"2024-04-13","eName":"Josh Earl: Don't You Know Who I Am? Live","genre":null,"price":"$20.50 - 65.50","supports":[],"ticketUrl":null,"time":" 3pm"}],"vName":"Morris House"},"type":"Feature"},{"geometry":{"coordinates":[144.998414,-37.771471],"type":"Point"},"properties":{"events":[{"categories":["Music"],"eDate":"2024-04-13","eName":"Codeine (Matinee Session)","genre":"Indie","price":"$67.00","supports":["A Broken Sail"," more"],"ticketUrl":null,"time":" 1:30pm"}],"vName":"Northcote Social Club"},"type":"Feature"},{"geometry":{"coordinates":[144.9977626,-37.7755001],"type":"Point"},"properties":{"events":[{"categories":["Music"],"eDate":"2024-04-13","eName":"The Grogans","genre":"Country/Folk","price":"$51.10","supports":["The Vovos"," Bones & Jones"],"ticketUrl":null,"time":" 7:30pm"}],"vName":"Northcote Theatre"},"type":"Feature"},{"geometry":{"coordinates":[144.9981771,-37.7742773],"type":"Point"},"properties":{"events":[{"categories":["Music"],"eDate":"2024-04-13","eName":"The Hornstars","genre":null,"price":"$18.00","supports":[],"ticketUrl":null,"time":" 6pm"}],"vName":"Open Studio"},"type":"Feature"},{"geometry":{"coordinates":[144.9631913,-37.7617818],"type":"Point"},"properties":{"events":[{"categories":["Music"],"eDate":"2024-04-13","eName":"McAlice Band + Chelsea Elder","genre":null,"price":"$15.00","supports":[],"ticketUrl":null,"time":" 8pm"}],"vName":"Ringo Barr"},"type":"Feature"},{"geometry":{"coordinates":[144.9715321,-37.8098002],"type":"Point"},"properties":{"events":[{"categories":["Comedy"],"eDate":"2024-04-13","eName":"Two Little Dickheads: Slot Fillers","genre":null,"price":"$20.00 - 25.00","supports":[],"ticketUrl":null,"time":" 8pm"}],"vName":"StoryVille"},"type":"Feature"},{"geometry":{"coordinates":[144.9706095,-37.7783326],"type":"Point"},"properties":{"events":[{"categories":["Free","Music"],"eDate":"2024-04-13","eName":"Dear Thieves","genre":null,"price":"Free","supports":[],"ticketUrl":null,"time":" 9pm"}],"vName":"The Beast"},"type":"Feature"},{"geometry":{"coordinates":[144.9651425,-37.8119429],"type":"Point"},"properties":{"events":[{"categories":["Free","Music"],"eDate":"2024-04-13","eName":"DECADENCE","genre":"Electronic","price":"Free","supports":[],"ticketUrl":null,"time":"11pm"}],"vName":"The Toff In Town"},"type":"Feature"},{"geometry":{"coordinates":[144.9846126,-37.7989941],"type":"Point"},"properties":{"events":[{"categories":["Music"],"eDate":"2024-04-13","eName":"FORTYPALOOZA: 40 Years Off The Rails","genre":"Rock","price":"$34.20","supports":[],"ticketUrl":null,"time":" 6pm"}],"vName":"The Tote Hotel"},"type":"Feature"},{"geometry":{"coordinates":[144.9769450659087,-37.8055776],"type":"Point"},"properties":{"events":[{"categories":["Music"],"eDate":"2024-04-13","eName":"Sammy White","genre":"Indie","price":"$33.40","supports":["Jarrad Wrigley"," more"],"ticketUrl":null,"time":" 8pm"}],"vName":"The Workers Club"},"type":"Feature"}],"type":"FeatureCollection"}