{"features":[{"geometry":{"coordinates":[144.99828116650363,-37.7713296],"type":"Point"},"properties":{"events":[{"categories":["Free","Music"],"eDate":"2025-01-11","eName":"The Clunk Orchestra","genre":"Jazz","price":"Free","supports":[],"ticketUrl":null,"time":" 4pm"},{"categories":["Free","Music"],"eDate":"2025-01-11","eName":"Rudi Sound","genre":"Global","price":"Free","supports":[],"ticketUrl":null,"time":" 8pm"}],"vName":"Bar 303"},"type":"Feature"},{"geometry":{"coordinates":[144.978425,-37.79773],"type":"Point"},"properties":{"events":[{"categories":["Comedy"],"eDate":"2025-01-11","eName":"Ant Eye Comedy","genre":null,"price":"$2.00","supports":[],"ticketUrl":null,"time":" 6pm"},{"categories":["Free","Music"],"eDate":"2025-01-11","eName":"Hoodoo Trio with Jules Boult","genre":"Jazz","price":"Free","supports":[],"ticketUrl":null,"time":" 6:30pm"}],"vName":"Bar Open"},"type":"Feature"},{"geometry":{"coordinates":[144.978682,-37.7981225],"type":"Point"},"properties":{"events":[{"categories":["Free","Music"],"eDate":"2025-01-11","eName":"Xander","genre":null,"price":"Free","supports":[],"ticketUrl":null,"time":" 9pm"},{"categories":["Music"],"eDate":"2025-01-11","eName":"DJ Gerry Murphy","genre":"Electronic","price":"Free","supports":[],"ticketUrl":null,"time":"10pm"}],"vName":"Baxter's Lot"},"type":"Feature"},{"geometry":{"coordinates":[144.9713425,-37.8128595],"type":"Point"},"properties":{"events":[{"categories":["Music"],"eDate":"2025-01-11","eName":"Jaded State","genre":"Rock","price":"$15.43","supports":["Chloe Booth"," The Ivy Walkers"],"ticketUrl":null,"time":" 8pm"}],"vName":"Cherry Bar"},"type":"Feature"},{"geometry":{"coordinates":[144.8971518,-37.8054274],"type":"Point"},"properties":{"events":[{"categories":["Free","Music"],"eDate":"2025-01-11","eName":"Mark Hall Trio","genre":null,"price":"Free","supports":["Brian Morley"," Sharaz Cavernet"],"ticketUrl":null,"time":" 2pm"},{"categories":["Music"],"eDate":"2025-01-11","eName":"Ã˜TRERA","genre":null,"price":"$19.95 - 25.00","supports":["Select All"," Volt Jolt"],"ticketUrl":null,"time":" 7:30pm"}],"vName":"Mamma Chen's"},"type":"Feature"},{"geometry":{"coordinates":[144.9605705,-37.8132486],"type":"Point"},"properties":{"events":[{"categories":["Music"],"eDate":"2025-01-11","eName":"Not So Big Band: Swingardium Leviosa (The Music of Harry Potter)","genre":"Jazz","price":"$45.00","supports":[],"ticketUrl":null,"time":" 6pm"},{"categories":["Music"],"eDate":"2025-01-11","eName":"The Shuffle Club","genre":"Jazz","price":"$45.00","supports":[],"ticketUrl":null,"time":" 9:30pm"}],"vName":"Paris Cat Jazz Club"},"type":"Feature"},{"geometry":{"coordinates":[144.965405,-37.8117457],"type":"Point"},"properties":{"events":[{"categories":["Free","Music"],"eDate":"2025-01-11","eName":"More Styles","genre":null,"price":"Free","supports":[],"ticketUrl":null,"time":" 6pm"}],"vName":"Section 8"},"type":"Feature"},{"geometry":{"coordinates":[144.9607404,-37.7743469],"type":"Point"},"properties":{"events":[{"categories":["Music"],"eDate":"2025-01-11","eName":"Ojay","genre":"Metal","price":"$10.98","supports":["Outer Worlds"," Awaking Tyler"," The Satts"],"ticketUrl":null,"time":" 7pm"},{"categories":["Music"],"eDate":"2025-01-11","eName":"On Repeat: $uicideboy$","genre":"Hip Hop","price":"$13.80 - 22.00","supports":[],"ticketUrl":null,"time":"11pm"}],"vName":"Stay Gold"},"type":"Feature"},{"geometry":{"coordinates":[144.9657057,-37.8061581],"type":"Point"},"properties":{"events":[{"categories":["Free","Music"],"eDate":"2025-01-11","eName":"NPCEDE","genre":"Electronic","price":"Free","supports":["Solder"," Who Cares?"],"ticketUrl":null,"time":" 7:30pm"}],"vName":"The Curtin"},"type":"Feature"},{"geometry":{"coordinates":[144.9708437,-37.7973184],"type":"Point"},"properties":{"events":[{"categories":["Free","Music"],"eDate":"2025-01-11","eName":"Jazz Arvos","genre":"Jazz","price":"Free","supports":[],"ticketUrl":null,"time":" 5pm"},{"categories":["Comedy"],"eDate":"2025-01-11","eName":"The Big HOO HAA!","genre":null,"price":"$30.39","supports":[],"ticketUrl":null,"time":" 8:30pm"}],"vName":"The Motley Bauhaus"},"type":"Feature"},{"geometry":{"coordinates":[144.99987967655426,-37.76165125],"type":"Point"},"properties":{"events":[{"categories":["Music"],"eDate":"2025-01-11","eName":"Music Victoria & The Thornbury Local present 100 MOODS","genre":"Indie","price":"Free","supports":[],"ticketUrl":null,"time":" 8pm"}],"vName":"The Thornbury Local"},"type":"Feature"},{"geometry":{"coordinates":[144.9651425,-37.8119429],"type":"Point"},"properties":{"events":[{"categories":["Free","Music"],"eDate":"2025-01-11","eName":"Rhythm Express: DJ Jnett & Friends","genre":"Electronic","price":"Free","supports":["DJ Kiti"," Raph Wall"],"ticketUrl":null,"time":" 9pm"},{"categories":["Free","Music"],"eDate":"2025-01-11","eName":"Ominous: The Collective Prowess","genre":"Electronic","price":"Free","supports":[],"ticketUrl":null,"time":"10pm"}],"vName":"The Toff In Town"},"type":"Feature"},{"geometry":{"coordinates":[144.9846126,-37.7989941],"type":"Point"},"properties":{"events":[{"categories":["Music"],"eDate":"2025-01-11","eName":"Golpe","genre":"Punk","price":"$34.20","supports":[],"ticketUrl":null,"time":" 8pm"}],"vName":"The Tote Hotel"},"type":"Feature"},{"geometry":{"coordinates":[144.9769450659087,-37.8055776],"type":"Point"},"properties":{"events":[{"categories":["Music"],"eDate":"2025-01-11","eName":"Alexis Remi","genre":"Indie","price":"$17.85","supports":["Paradise Valley"," Jules Seater"],"ticketUrl":null,"time":" 8pm"}],"vName":"The Workers Club"},"type":"Feature"}],"type":"FeatureCollection"}