{"features":[{"geometry":{"coordinates":[144.9679835,-37.8201575],"type":"Point"},"properties":{"events":[{"categories":["Comedy"],"eDate":"2026-04-12","eName":"Murder Village: An Improvised Whodunnit","genre":null,"price":"$32.00 - 37.00","supports":[],"ticketUrl":null,"time":" 8:15pm"}],"vName":"Arts Centre Melbourne"},"type":"Feature"},{"geometry":{"coordinates":[144.9684781,-37.8120553],"type":"Point"},"properties":{"events":[{"categories":["Comedy"],"eDate":"2026-04-12","eName":"Maitreyi Karanth: Maitriarchy","genre":null,"price":"$22.00 - 28.00","supports":[],"ticketUrl":null,"time":" 6pm"},{"categories":["Comedy"],"eDate":"2026-04-12","eName":"Maitreyi Karanth: Maitriarchy","genre":null,"price":"$22.00 - 32.00","supports":[],"ticketUrl":null,"time":" 6pm"}],"vName":"Ballers Clubhouse"},"type":"Feature"},{"geometry":{"coordinates":[144.978682,-37.7981225],"type":"Point"},"properties":{"events":[{"categories":["Music","Free"],"eDate":"2026-04-12","eName":"Xander Cuming","genre":null,"price":"Free","supports":[],"ticketUrl":null,"time":" 9pm"}],"vName":"Baxter's Lot"},"type":"Feature"},{"geometry":{"coordinates":[144.9891167,-37.7996488],"type":"Point"},"properties":{"events":[{"categories":["Music"],"eDate":"2026-04-12","eName":"Hazy Sundays: Surf ‘n’ Turf Edition","genre":"Rock","price":"Free","supports":["Future Primitives"],"ticketUrl":null,"time":" 3pm"}],"vName":"Bendigo Hotel"},"type":"Feature"},{"geometry":{"coordinates":[144.9945274,-37.8001115],"type":"Point"},"properties":{"events":[{"categories":["Free","Music","Festival","Other \"Food \""],"eDate":"2026-04-12","eName":"Szara Fox & The Midnight Secrets","genre":null,"price":"Free","supports":[],"ticketUrl":null,"time":" 4pm"},{"categories":["Comedy","Other \"Food \"","Festival"],"eDate":"2026-04-12","eName":"On The Gags: Comedy Fest Extravaganza","genre":null,"price":"$20.00 - 25.00","supports":[],"ticketUrl":null,"time":" 8pm"}],"vName":"Bodriggy Brewing Company"},"type":"Feature"},{"geometry":{"coordinates":[145.0002585,-37.7592368],"type":"Point"},"properties":{"events":[{"categories":["Music"],"eDate":"2026-04-12","eName":"James Brook & L’Roy","genre":null,"price":"Free","supports":["Zoe Zac"," Elijah Augustine"],"ticketUrl":null,"time":" 5pm"}],"vName":"Cafe Gummo"},"type":"Feature"},{"geometry":{"coordinates":[144.9501312,-37.8042459],"type":"Point"},"properties":{"events":[{"categories":["Comedy"],"eDate":"2026-04-12","eName":"Sunday Night Comedy","genre":null,"price":"$10.00","supports":[],"ticketUrl":null,"time":" 7:30pm"}],"vName":"Club Voltaire"},"type":"Feature"},{"geometry":{"coordinates":[144.9879283,-37.7505509],"type":"Point"},"properties":{"events":[{"categories":["Music"],"eDate":"2026-04-12","eName":"Nick Hyde","genre":null,"price":"Free","supports":[],"ticketUrl":null,"time":" 4pm"}],"vName":"The Merri Bar"},"type":"Feature"},{"geometry":{"coordinates":[144.9661635,-37.8176298],"type":"Point"},"properties":{"events":[{"categories":["Music"],"eDate":"2026-04-12","eName":"BRAINWAVES","genre":null,"price":"$15.00","supports":[],"ticketUrl":null,"time":" 9pm"}],"vName":"Wax Music Lounge"},"type":"Feature"}],"type":"FeatureCollection"}