{"features":[{"geometry":{"coordinates":[144.9762881,-37.798246],"type":"Point"},"properties":{"events":[{"categories":["Music"],"eDate":"2025-11-14","eName":"Rare Phenomenon","genre":null,"price":"$16.31","supports":[],"ticketUrl":null,"time":" 7:30pm"}],"vName":"Bad Decisions Bar"},"type":"Feature"},{"geometry":{"coordinates":[144.9982812,-37.7713296],"type":"Point"},"properties":{"events":[{"categories":["Music"],"eDate":"2025-11-14","eName":"Superdiver","genre":"Rock","price":"$15.00 - 20.00","supports":["Leipzig Lab"," Empirical Prey"],"ticketUrl":null,"time":" 8pm"}],"vName":"Bar 303"},"type":"Feature"},{"geometry":{"coordinates":[144.978682,-37.7981225],"type":"Point"},"properties":{"events":[{"categories":["Free","Music"],"eDate":"2025-11-14","eName":"Lewis Toms","genre":null,"price":"Free","supports":[],"ticketUrl":null,"time":" 9pm"}],"vName":"Baxter's Lot"},"type":"Feature"},{"geometry":{"coordinates":[144.9891167,-37.7996488],"type":"Point"},"properties":{"events":[{"categories":["Music"],"eDate":"2025-11-14","eName":"Smierc","genre":"Metal","price":"$28.05","supports":["Jalang"," Diploid"," Shove"," Paroxys"],"ticketUrl":null,"time":" 8pm"}],"vName":"Bendigo Hotel"},"type":"Feature"},{"geometry":{"coordinates":[144.9607158,-37.776327],"type":"Point"},"properties":{"events":[{"categories":["Music"],"eDate":"2025-11-14","eName":"Hachiku","genre":"Indie","price":"$22.95","supports":["Tamara & The Dreams"," Lieverd"],"ticketUrl":null,"time":" 8pm"}],"vName":"Bergy Bandroom"},"type":"Feature"},{"geometry":{"coordinates":[145.1227673,-37.8252636],"type":"Point"},"properties":{"events":[{"categories":["Music"],"eDate":"2025-11-14","eName":"The Boîte presents Pal Mar","genre":null,"price":"$25.00 - 33.00","supports":[],"ticketUrl":null,"time":" 7:30pm"}],"vName":"Box Hill Community Arts Centre"},"type":"Feature"},{"geometry":{"coordinates":[144.9617083,-37.7704205],"type":"Point"},"properties":{"events":[{"categories":["Music"],"eDate":"2025-11-14","eName":"The Gnomes","genre":"Rock","price":"$28.15","supports":["Loose Lips"," The Pearlies"," Riviera"],"ticketUrl":null,"time":" 8:30pm"}],"vName":"Brunswick Ballroom"},"type":"Feature"},{"geometry":{"coordinates":[144.9926664,-37.8248893],"type":"Point"},"properties":{"events":[{"categories":["Music","Other \"Spoken Word, Poetry \""],"eDate":"2025-11-14","eName":"Love Letter to Music","genre":"Rock","price":"$199.60","supports":[],"ticketUrl":null,"time":"12:30pm"},{"categories":["Music"],"eDate":"2025-11-14","eName":"Skunkhour","genre":"Rock","price":"$59.90","supports":[],"ticketUrl":null,"time":" 8pm"}],"vName":"Corner Hotel"},"type":"Feature"},{"geometry":{"coordinates":[144.96904143685853,-37.81799793179876],"type":"Point"},"properties":{"events":[{"categories":["Free","Music"],"eDate":"2025-11-14","eName":"High Voltage featuring Amyl & The Sniffers","genre":"Punk","price":"Free","supports":["Public Figures"],"ticketUrl":null,"time":" 7:30pm"}],"vName":"Federation Square"},"type":"Feature"},{"geometry":{"coordinates":[144.9693768,-37.8164414],"type":"Point"},"properties":{"events":[{"categories":["Music"],"eDate":"2025-11-14","eName":"Jeremy Zucker","genre":"Pop","price":"$79.90","supports":[],"ticketUrl":null,"time":" 7pm"}],"vName":"Forum Melbourne"},"type":"Feature"},{"geometry":{"coordinates":[144.9875792,-37.7963739],"type":"Point"},"properties":{"events":[{"categories":["Music"],"eDate":"2025-11-14","eName":"gregory","genre":"Indie","price":"$18.10","supports":["Serendipiti"," Meraki Minds"],"ticketUrl":null,"time":" 8pm"}],"vName":"Gem Bar"},"type":"Feature"},{"geometry":{"coordinates":[144.9679835,-37.8201575],"type":"Point"},"properties":{"events":[{"categories":["Music"],"eDate":"2025-11-14","eName":"Piano Man: Celebrating the Music of Billy Joel","genre":"Classical","price":"$73.00","supports":[],"ticketUrl":null,"time":" 7:30pm"}],"vName":"Hamer Hall (Arts Centre Melbourne)"},"type":"Feature"},{"geometry":{"coordinates":[144.973013,-37.8640582],"type":"Point"},"properties":{"events":[{"categories":["Music"],"eDate":"2025-11-14","eName":"daezy","genre":"Indie","price":"$15.85","supports":[],"ticketUrl":null,"time":" 7:30pm"},{"categories":["Music"],"eDate":"2025-11-14","eName":"Call Me Maybe Presents: 2000s + 2010s Party","genre":"Pop","price":"$14.80 - 22.95","supports":[],"ticketUrl":null,"time":" 9pm"}],"vName":"Hotel Esplanade (aka The Espy)"},"type":"Feature"},{"geometry":{"coordinates":[144.9596527,-37.7720304],"type":"Point"},"properties":{"events":[{"categories":["Music"],"eDate":"2025-11-14","eName":"Keli Holiday","genre":"Electronic","price":"Free","supports":[],"ticketUrl":null,"time":" 8pm"}],"vName":"Howler"},"type":"Feature"},{"geometry":{"coordinates":[145.0314658,-37.8067273],"type":"Point"},"properties":{"events":[{"categories":["Music","Comedy","Theatre","Other \"Cabaret\""],"eDate":"2025-11-14","eName":"Kew Court House Live: Geraldine Quinn – The Passion of Saint Nicholas","genre":"Soul/Funk","price":"$20.00","supports":[],"ticketUrl":null,"time":" 7:30pm"}],"vName":"Kew Court House"},"type":"Feature"},{"geometry":{"coordinates":[144.9675876,-37.8240849],"type":"Point"},"properties":{"events":[{"categories":["Music"],"eDate":"2025-11-14","eName":"Sarava: Panorama Brasil with Doug de Vries","genre":"Jazz","price":"$45.00","supports":[],"ticketUrl":null,"time":" 7pm"},{"categories":["Music"],"eDate":"2025-11-14","eName":"Witch","genre":"Soul/Funk","price":"$55.00","supports":["Larry Maluma"],"ticketUrl":null,"time":" 7:30pm"}],"vName":"Melbourne Recital Centre"},"type":"Feature"},{"geometry":{"coordinates":[144.998414,-37.771471],"type":"Point"},"properties":{"events":[{"categories":["Music"],"eDate":"2025-11-14","eName":"Winter McQuinn","genre":"Country/Folk","price":"$25.00","supports":["Lewis Coleman"," Za Noon"],"ticketUrl":null,"time":" 8pm"}],"vName":"Northcote Social Club"},"type":"Feature"},{"geometry":{"coordinates":[144.9982706,-37.7737068],"type":"Point"},"properties":{"events":[{"categories":["Music"],"eDate":"2025-11-14","eName":"The Original Wailers: Perform Legend","genre":"Soul/Funk","price":"$89.90","supports":[],"ticketUrl":null,"time":" 7:30pm"}],"vName":"Northcote Theatre"},"type":"Feature"},{"geometry":{"coordinates":[144.97711,-37.79833],"type":"Point"},"properties":{"events":[{"categories":["Music"],"eDate":"2025-11-14","eName":"Doom Scroll + Rent Strike","genre":null,"price":"$35.00","supports":["The Crop Tops"," The Dead Peasants"],"ticketUrl":null,"time":" 8pm"}],"vName":"Old Bar"},"type":"Feature"},{"geometry":{"coordinates":[144.96084,-37.813514],"type":"Point"},"properties":{"events":[{"categories":["Music"],"eDate":"2025-11-14","eName":"The Marilyn Monroe Revelation: Not Just a Blonde with Alia Milano","genre":"Jazz","price":"$48.00","supports":[],"ticketUrl":null,"time":" 6pm"},{"categories":["Music"],"eDate":"2025-11-14","eName":"A Celebration of BB King & Etta James with Nardia & Jimi Hocking","genre":"Jazz","price":"$45.00","supports":[],"ticketUrl":null,"time":" 6:30pm"},{"categories":["Music"],"eDate":"2025-11-14","eName":"The Leigh Barker Band presents Cross Street","genre":"Soul/Funk","price":"$45.00","supports":[],"ticketUrl":null,"time":" 9pm"},{"categories":["Music"],"eDate":"2025-11-14","eName":"A Celebration of BB King & Etta James with Nardia & Jimi Hocking (Later Session)","genre":"Jazz","price":"$45.00","supports":[],"ticketUrl":null,"time":" 9:30pm"}],"vName":"Paris Cat Jazz Club"},"type":"Feature"},{"geometry":{"coordinates":[144.9615882,-37.7711432],"type":"Point"},"properties":{"events":[{"categories":["Music"],"eDate":"2025-11-14","eName":"Isabelle Skye","genre":"Indie","price":"$15.68","supports":["Butternut Sweetheart"," CCTV"],"ticketUrl":null,"time":" 7:30pm"}],"vName":"Retreat Hotel"},"type":"Feature"},{"geometry":{"coordinates":[144.993413,-37.8506652],"type":"Point"},"properties":{"events":[{"categories":["Music"],"eDate":"2025-11-14","eName":"Jaded State","genre":"Rock","price":"$16.32","supports":["Cass Aware"," Cellophanes"],"ticketUrl":null,"time":" 7pm"}],"vName":"Revolver Upstairs"},"type":"Feature"},{"geometry":{"coordinates":[145.0013923,-37.7559265],"type":"Point"},"properties":{"events":[{"categories":["Music"],"eDate":"2025-11-14","eName":"Emu","genre":"Rock","price":"$18.35","supports":["Fly!"," Giant"," Shadow Tussle"],"ticketUrl":null,"time":" 7pm"}],"vName":"Shotkickers"},"type":"Feature"},{"geometry":{"coordinates":[145.3534507,-37.9100746],"type":"Point"},"properties":{"events":[{"categories":["Music"],"eDate":"2025-11-14","eName":"Smoke Stack Rhino: Homecoming Shindig","genre":null,"price":"$27.60","supports":["RL Sunds"],"ticketUrl":null,"time":" 7pm"}],"vName":"Sooki Lounge"},"type":"Feature"},{"geometry":{"coordinates":[144.9607404,-37.7743469],"type":"Point"},"properties":{"events":[{"categories":["Music"],"eDate":"2025-11-14","eName":"Al Matcott","genre":"Rock","price":"$17.48","supports":["Alex Hamilton & His Band"," Tambourine Jesus"],"ticketUrl":null,"time":" 7pm"}],"vName":"Stay Gold"},"type":"Feature"},{"geometry":{"coordinates":[144.9706211,-37.778276],"type":"Point"},"properties":{"events":[{"categories":["Free","Music"],"eDate":"2025-11-14","eName":"Big Moist & The Smoking Durries","genre":"Punk","price":"Free","supports":["Exiles"," Keyo Rose & The Flying Circus"],"ticketUrl":null,"time":" 9:30pm"}],"vName":"The Beast"},"type":"Feature"},{"geometry":{"coordinates":[144.9657057,-37.8061581],"type":"Point"},"properties":{"events":[{"categories":["Music"],"eDate":"2025-11-14","eName":"Asteroid B612","genre":"Rock","price":"$38.70","supports":["Swedish Magazines"," Simon Juliff Band"],"ticketUrl":null,"time":" 8pm"}],"vName":"The Curtin"},"type":"Feature"},{"geometry":{"coordinates":[144.9463641,-37.8047757],"type":"Point"},"properties":{"events":[{"categories":["Music"],"eDate":"2025-11-14","eName":"Dead Mall","genre":"Punk","price":"$16.35","supports":[],"ticketUrl":null,"time":" 8pm"}],"vName":"The Last Chance Rock & Roll Bar"},"type":"Feature"},{"geometry":{"coordinates":[144.9621651,-37.7679775],"type":"Point"},"properties":{"events":[{"categories":["Music"],"eDate":"2025-11-14","eName":"‘She Is’: gregory & Real Feels Music","genre":null,"price":"$18.10","supports":["Meraki Minds"," Serendipiti"],"ticketUrl":null,"time":" 8pm"}],"vName":"The Penny Black"},"type":"Feature"},{"geometry":{"coordinates":[144.9998797,-37.7616512],"type":"Point"},"properties":{"events":[{"categories":["Music"],"eDate":"2025-11-14","eName":"Faces in the Street","genre":"Country/Folk","price":"Free","supports":[],"ticketUrl":null,"time":" 8pm"}],"vName":"The Thornbury Local"},"type":"Feature"},{"geometry":{"coordinates":[144.9651425,-37.8119429],"type":"Point"},"properties":{"events":[{"categories":["Free","Music"],"eDate":"2025-11-14","eName":"Rewired Rhythms presents Rewired Toff","genre":"Electronic","price":"Free","supports":[],"ticketUrl":null,"time":"11pm"}],"vName":"The Toff In Town"},"type":"Feature"},{"geometry":{"coordinates":[144.9785414,-37.8674567],"type":"Point"},"properties":{"events":[{"categories":["Music"],"eDate":"2025-11-14","eName":"Saga City + Alyssa Drago","genre":"Soul/Funk","price":"$10.00","supports":[],"ticketUrl":null,"time":" 8:30pm"}],"vName":"The Vineyard Restaurant & Bar"},"type":"Feature"},{"geometry":{"coordinates":[144.9769451,-37.8055776],"type":"Point"},"properties":{"events":[{"categories":["Music"],"eDate":"2025-11-14","eName":"Greasy","genre":"Rock","price":"$17.85","supports":["The Groundswell"," Sanguine"],"ticketUrl":null,"time":" 8pm"}],"vName":"The Workers Club"},"type":"Feature"},{"geometry":{"coordinates":[144.2195588,-37.0663699],"type":"Point"},"properties":{"events":[{"categories":["Music"],"eDate":"2025-11-14","eName":"The Human Highway: The Music Of Neil Young","genre":"Country/Folk","price":"$39.90","supports":[],"ticketUrl":null,"time":" 7:30pm"}],"vName":"Theatre Royal Castlemaine"},"type":"Feature"},{"geometry":{"coordinates":[144.9789774,-37.7885137],"type":"Point"},"properties":{"events":[{"categories":["Music"],"eDate":"2025-11-14","eName":"Maxine Gillon","genre":null,"price":"Free","supports":["Mystery Shopper"],"ticketUrl":null,"time":" 8pm"}],"vName":"Tramway Hotel"},"type":"Feature"},{"geometry":{"coordinates":[144.9984324,-37.7729134],"type":"Point"},"properties":{"events":[{"categories":["Music"],"eDate":"2025-11-14","eName":"Yorke","genre":"Pop","price":"$25.25","supports":[],"ticketUrl":null,"time":" 7pm"}],"vName":"Wesley Anne"},"type":"Feature"}],"type":"FeatureCollection"}