{"features":[{"geometry":{"coordinates":[144.978682,-37.7981225],"type":"Point"},"properties":{"events":[{"categories":["Free","Music"],"eDate":"2025-05-14","eName":"Jack Milligan","genre":null,"price":"Free","supports":[],"ticketUrl":null,"time":" 9pm"}],"vName":"Baxter's Lot"},"type":"Feature"},{"geometry":{"coordinates":[144.9945274,-37.8001115],"type":"Point"},"properties":{"events":[{"categories":["Free","Music","Other \"Food \""],"eDate":"2025-05-14","eName":"Deep Cuts Jam Session with Jake Amy & Friends","genre":null,"price":"Free","supports":["Iliya Zakharov"," Davin Ojala"],"ticketUrl":null,"time":" 7:30pm"}],"vName":"Bodriggy Brewing Company"},"type":"Feature"},{"geometry":{"coordinates":[145.0314658,-37.8067273],"type":"Point"},"properties":{"events":[{"categories":["Music"],"eDate":"2025-05-14","eName":"Kew Court House Live: Apolline","genre":"Jazz","price":"$20.00","supports":["Glòr"],"ticketUrl":null,"time":" 7:30pm"}],"vName":"Kew Court House"},"type":"Feature"},{"geometry":{"coordinates":[144.9023908,-37.7999086],"type":"Point"},"properties":{"events":[{"categories":["Theatre","Other \"Trivia \"","Other \"Film\""],"eDate":"2025-05-14","eName":"Pride Movie Night: Josie & The Pussycats","genre":null,"price":"$15.00","supports":["Courtex"],"ticketUrl":null,"time":" 6:30pm"}],"vName":"Pride Of Our Footscray Community Bar"},"type":"Feature"},{"geometry":{"coordinates":[145.3534507,-37.9100746],"type":"Point"},"properties":{"events":[{"categories":["Music"],"eDate":"2025-05-14","eName":"Kickarse Karaoke","genre":"Acoustic","price":"Free","supports":[],"ticketUrl":null,"time":" 7pm"}],"vName":"Sooki Lounge"},"type":"Feature"},{"geometry":{"coordinates":[144.9995955,-37.762377],"type":"Point"},"properties":{"events":[{"categories":["Music"],"eDate":"2025-05-14","eName":"The Lemonheads","genre":"Rock","price":"$79.90","supports":[],"ticketUrl":null,"time":" 7:30pm"}],"vName":"The Croxton"},"type":"Feature"},{"geometry":{"coordinates":[145.1334272,-37.9135736],"type":"Point"},"properties":{"events":[{"categories":["Music"],"eDate":"2025-05-14","eName":"Mat Jodrell: Live at The Count’s","genre":"Jazz","price":"$15.00 - 29.00","supports":[],"ticketUrl":null,"time":" 6:30pm"}],"vName":"The Ian Potter Centre for Performing Arts"},"type":"Feature"}],"type":"FeatureCollection"}