{"features":[{"geometry":{"coordinates":[144.9982812,-37.7713296],"type":"Point"},"properties":{"events":[{"categories":["Music"],"eDate":"2025-10-24","eName":"Academy Drive","genre":"Indie","price":"$17.19","supports":["Sugargum"," Scarlett Mitch"],"ticketUrl":null,"time":" 7:30pm"}],"vName":"Bar 303"},"type":"Feature"},{"geometry":{"coordinates":[144.978682,-37.7981225],"type":"Point"},"properties":{"events":[{"categories":["Free","Music"],"eDate":"2025-10-24","eName":"Tejo D’Cruz","genre":null,"price":"Free","supports":[],"ticketUrl":null,"time":" 9pm"}],"vName":"Baxter's Lot"},"type":"Feature"},{"geometry":{"coordinates":[144.9607158,-37.776327],"type":"Point"},"properties":{"events":[{"categories":["Music"],"eDate":"2025-10-24","eName":"ANA","genre":"Metal","price":"$16.85","supports":["Demonhead"," Slime Dimension"],"ticketUrl":null,"time":" 7:30pm"}],"vName":"Bergy Bandroom"},"type":"Feature"},{"geometry":{"coordinates":[144.9568039,-37.8111442],"type":"Point"},"properties":{"events":[{"categories":["Music"],"eDate":"2025-10-24","eName":"The LG Project: It’s Never Too Late","genre":"Jazz","price":"$35.00","supports":[],"ticketUrl":null,"time":" 6pm"}],"vName":"Bird's Basement"},"type":"Feature"},{"geometry":{"coordinates":[144.9552495,-37.8146155],"type":"Point"},"properties":{"events":[{"categories":["Music"],"eDate":"2025-10-24","eName":"Nerve Melbourne 2025","genre":"Electronic","price":"$11.67 - 30.00","supports":[],"ticketUrl":null,"time":"10pm"}],"vName":"Brown Alley"},"type":"Feature"},{"geometry":{"coordinates":[144.9617083,-37.7704205],"type":"Point"},"properties":{"events":[{"categories":["Music"],"eDate":"2025-10-24","eName":"Bear’s Den","genre":"Rock","price":"Free","supports":["Chitra"],"ticketUrl":null,"time":" 8:30pm"}],"vName":"Brunswick Ballroom"},"type":"Feature"},{"geometry":{"coordinates":[145.0002585,-37.7592368],"type":"Point"},"properties":{"events":[{"categories":["Music"],"eDate":"2025-10-24","eName":"Buttercats","genre":null,"price":"$20.00","supports":["Rosa Mack"," Jinyu"," Yusf"],"ticketUrl":null,"time":" 8pm"}],"vName":"Cafe Gummo"},"type":"Feature"},{"geometry":{"coordinates":[144.9713425,-37.8128595],"type":"Point"},"properties":{"events":[{"categories":["Music"],"eDate":"2025-10-24","eName":"MöTLEY CRüE LÖÖKS THÄT KiLL Tribute Show","genre":"Rock","price":"$30.76","supports":[],"ticketUrl":null,"time":" 8pm"},{"categories":["Free","Music"],"eDate":"2025-10-24","eName":"CockRock From Sunset To Sunrise Party","genre":"Rock","price":"Free","supports":[],"ticketUrl":null,"time":"11pm"}],"vName":"Cherry Bar"},"type":"Feature"},{"geometry":{"coordinates":[144.9926664,-37.8248893],"type":"Point"},"properties":{"events":[{"categories":["Music"],"eDate":"2025-10-24","eName":"Pavlov’s Dog","genre":"Rock","price":"Free","supports":[],"ticketUrl":null,"time":" 8pm"}],"vName":"Corner Hotel"},"type":"Feature"},{"geometry":{"coordinates":[144.9627513,-37.760963],"type":"Point"},"properties":{"events":[{"categories":["Music"],"eDate":"2025-10-24","eName":"Glenn Waverley & The Mentones","genre":"Blues","price":"Free","supports":[],"ticketUrl":null,"time":" 8pm"}],"vName":"Edinburgh Castle Hotel"},"type":"Feature"},{"geometry":{"coordinates":[144.9489214,-37.8106039],"type":"Point"},"properties":{"events":[{"categories":["Music"],"eDate":"2025-10-24","eName":"Boomaraa Music Festival","genre":"Electronic","price":"$61.06","supports":[],"ticketUrl":null,"time":" 4:30pm"}],"vName":"Festival Hall"},"type":"Feature"},{"geometry":{"coordinates":[144.9693768,-37.8164414],"type":"Point"},"properties":{"events":[{"categories":["Music"],"eDate":"2025-10-24","eName":"Damiano David","genre":"Pop","price":"$65.30","supports":["Ixaras"],"ticketUrl":null,"time":" 8pm"}],"vName":"Forum Melbourne"},"type":"Feature"},{"geometry":{"coordinates":[144.9787378,-37.7954205],"type":"Point"},"properties":{"events":[{"categories":["Music"],"eDate":"2025-10-24","eName":"Interval: DJ Love + Pat De Ruiter","genre":"Electronic","price":"$15.00 - 20.00","supports":["Guhrl"," Zee"],"ticketUrl":null,"time":"10pm"}],"vName":"Glamorama"},"type":"Feature"},{"geometry":{"coordinates":[144.973013,-37.8640582],"type":"Point"},"properties":{"events":[{"categories":["Music"],"eDate":"2025-10-24","eName":"The Creature from Outer Bass: The Prog-Rock, Sci-Fi Musical","genre":"Rock","price":"$15.85","supports":["Guava Canal"],"ticketUrl":null,"time":" 7:30pm"},{"categories":["Music"],"eDate":"2025-10-24","eName":"Call Me Maybe & Superficial Present One Direction Vs 5 Seconds of Summer","genre":"Pop","price":"$14.80 - 22.95","supports":[],"ticketUrl":null,"time":" 9pm"}],"vName":"Hotel Esplanade (aka The Espy)"},"type":"Feature"},{"geometry":{"coordinates":[144.9596527,-37.7720304],"type":"Point"},"properties":{"events":[{"categories":["Music"],"eDate":"2025-10-24","eName":"Acopia","genre":"Indie","price":"$23.46 - 33.66","supports":["Misc. Meg"],"ticketUrl":null,"time":"11pm"}],"vName":"Howler"},"type":"Feature"},{"geometry":{"coordinates":[145.0314658,-37.8067273],"type":"Point"},"properties":{"events":[{"categories":["Music"],"eDate":"2025-10-24","eName":"Kew Court House Live: naked raven","genre":null,"price":"$20.00","supports":[],"ticketUrl":null,"time":" 7:30pm"}],"vName":"Kew Court House"},"type":"Feature"},{"geometry":{"coordinates":[145.0355738,-37.8205529],"type":"Point"},"properties":{"events":[{"categories":["Music"],"eDate":"2025-10-24","eName":"The Bluetone Assembly","genre":"Jazz","price":"$27.00 - 32.00","supports":[],"ticketUrl":null,"time":" 8pm"}],"vName":"Lido Jazz Room"},"type":"Feature"},{"geometry":{"coordinates":[144.9936498,-37.8000264],"type":"Point"},"properties":{"events":[{"categories":["Music"],"eDate":"2025-10-24","eName":"Child","genre":"Rock","price":"Free","supports":["TTTDC"],"ticketUrl":null,"time":" 9pm"}],"vName":"Lulie Tavern"},"type":"Feature"},{"geometry":{"coordinates":[144.9658499,-37.8147453],"type":"Point"},"properties":{"events":[{"categories":["Music"],"eDate":"2025-10-24","eName":"We Lost The Sea","genre":"Rock","price":"$54.10","supports":["Follow"],"ticketUrl":null,"time":" 8pm"}],"vName":"Max Watt's (Melbourne)"},"type":"Feature"},{"geometry":{"coordinates":[144.9675876,-37.8240849],"type":"Point"},"properties":{"events":[{"categories":["Other \"Spoken Word, Poetry \""],"eDate":"2025-10-24","eName":"Hannah Ferguson – CHEEK LIVE: Everything is F*cked","genre":null,"price":"$49.00 - 79.00","supports":["Dan Ilic"],"ticketUrl":null,"time":" 7:30pm"}],"vName":"Melbourne Recital Centre"},"type":"Feature"},{"geometry":{"coordinates":[144.9790251,-37.8675008],"type":"Point"},"properties":{"events":[{"categories":["Music"],"eDate":"2025-10-24","eName":"Bob Starkie’s Skyhooks Show","genre":"Rock","price":"$35.00 - 55.00","supports":[],"ticketUrl":null,"time":" 7pm"}],"vName":"Memo Music Hall"},"type":"Feature"},{"geometry":{"coordinates":[144.998414,-37.771471],"type":"Point"},"properties":{"events":[{"categories":["Music"],"eDate":"2025-10-24","eName":"Loretta Miller","genre":"Country/Folk","price":"$35.30","supports":[],"ticketUrl":null,"time":" 8:30pm"}],"vName":"Northcote Social Club"},"type":"Feature"},{"geometry":{"coordinates":[144.9982706,-37.7737068],"type":"Point"},"properties":{"events":[{"categories":["Music"],"eDate":"2025-10-24","eName":"Connor Price","genre":"Hip Hop","price":"Free","supports":["GRAHAM"],"ticketUrl":null,"time":" 7pm"}],"vName":"Northcote Theatre"},"type":"Feature"},{"geometry":{"coordinates":[144.97711,-37.79833],"type":"Point"},"properties":{"events":[{"categories":["Music"],"eDate":"2025-10-24","eName":"Lunar Dirt","genre":null,"price":"$13.30","supports":["Hot Tubs Time Machine"," Frons"],"ticketUrl":null,"time":" 8pm"},{"categories":["Music"],"eDate":"2025-10-24","eName":"DJ Ben Emes","genre":"Electronic","price":"Free","supports":[],"ticketUrl":null,"time":"11:30pm"}],"vName":"Old Bar"},"type":"Feature"},{"geometry":{"coordinates":[144.96084,-37.813514],"type":"Point"},"properties":{"events":[{"categories":["Music"],"eDate":"2025-10-24","eName":"Not So Big Band: A Tribute To Kind of Blue with Gianni Marinucci","genre":"Jazz","price":"$45.00","supports":[],"ticketUrl":null,"time":" 6pm"},{"categories":["Music"],"eDate":"2025-10-24","eName":"Liz Violi Sings Lady Ella","genre":"Soul/Funk","price":"$45.00","supports":[],"ticketUrl":null,"time":" 6:30pm"},{"categories":["Music"],"eDate":"2025-10-24","eName":"The Music of Fleetwood Mac with Amethyst Jane","genre":null,"price":"$45.00","supports":[],"ticketUrl":null,"time":" 9pm"},{"categories":["Music"],"eDate":"2025-10-24","eName":"Dai, Ciccio! presents: From Naples With Love","genre":"Jazz","price":"$45.00","supports":[],"ticketUrl":null,"time":" 9:30pm"}],"vName":"Paris Cat Jazz Club"},"type":"Feature"},{"geometry":{"coordinates":[144.9741326,-37.8619943],"type":"Point"},"properties":{"events":[{"categories":["Music"],"eDate":"2025-10-24","eName":"Emo Diva","genre":"Punk","price":"$14.30 - 29.60","supports":[],"ticketUrl":null,"time":" 9pm"}],"vName":"Prince Bandroom"},"type":"Feature"},{"geometry":{"coordinates":[144.993413,-37.8506652],"type":"Point"},"properties":{"events":[{"categories":["Music"],"eDate":"2025-10-24","eName":"Coffin Carousel","genre":"Metal","price":"$16.32","supports":["False Dichotomy"," Atriox"," All Monsters Are Human"],"ticketUrl":null,"time":" 7pm"}],"vName":"Revolver Upstairs"},"type":"Feature"},{"geometry":{"coordinates":[144.9607404,-37.7743469],"type":"Point"},"properties":{"events":[{"categories":["Music"],"eDate":"2025-10-24","eName":"Day of Contempt","genre":"Metal","price":"$29.13","supports":["Forewarned"," Demise"," Seven Hells"],"ticketUrl":null,"time":" 7pm"},{"categories":["Music"],"eDate":"2025-10-24","eName":"sugarush: Lana Del Rey Night","genre":"Indie","price":"$15.85 - 22.85","supports":[],"ticketUrl":null,"time":"11pm"}],"vName":"Stay Gold"},"type":"Feature"},{"geometry":{"coordinates":[144.9706211,-37.778276],"type":"Point"},"properties":{"events":[{"categories":["Free","Music"],"eDate":"2025-10-24","eName":"Casual Interplay","genre":"Rock","price":"Free","supports":[],"ticketUrl":null,"time":" 8:30pm"}],"vName":"The Beast"},"type":"Feature"},{"geometry":{"coordinates":[144.9770425,-37.8588717],"type":"Point"},"properties":{"events":[{"categories":["Music"],"eDate":"2025-10-24","eName":"Soul Obsession Trio + DJ Matty J","genre":null,"price":"Free","supports":[],"ticketUrl":null,"time":" 9pm"}],"vName":"The Fifth Province"},"type":"Feature"},{"geometry":{"coordinates":[144.996838,-37.7794356],"type":"Point"},"properties":{"events":[{"categories":["Music"],"eDate":"2025-10-24","eName":"Grand Baxter + Woolton","genre":"Country/Folk","price":"$17.19","supports":[],"ticketUrl":null,"time":" 8:30pm"}],"vName":"The Merri Creek Tavern"},"type":"Feature"},{"geometry":{"coordinates":[145.1818891,-37.8163371],"type":"Point"},"properties":{"events":[{"categories":["Comedy"],"eDate":"2025-10-24","eName":"Kaz & Jude’s Menopausal Night Out","genre":null,"price":"$64.00","supports":[],"ticketUrl":null,"time":" 7:30pm"}],"vName":"The Round"},"type":"Feature"},{"geometry":{"coordinates":[144.9998797,-37.7616512],"type":"Point"},"properties":{"events":[{"categories":["Music"],"eDate":"2025-10-24","eName":"Aftersun","genre":"Rock","price":"Free","supports":[],"ticketUrl":null,"time":" 8pm"}],"vName":"The Thornbury Local"},"type":"Feature"},{"geometry":{"coordinates":[144.9651425,-37.8119429],"type":"Point"},"properties":{"events":[{"categories":["Music"],"eDate":"2025-10-24","eName":"Space Jams At The Toff Vol 2","genre":"Jazz","price":"Free","supports":[],"ticketUrl":null,"time":"10pm"}],"vName":"The Toff In Town"},"type":"Feature"},{"geometry":{"coordinates":[144.9984324,-37.7729134],"type":"Point"},"properties":{"events":[{"categories":["Music"],"eDate":"2025-10-24","eName":"RETRATOS","genre":"Global","price":"Free","supports":[],"ticketUrl":null,"time":" 6pm"}],"vName":"Wesley Anne"},"type":"Feature"}],"type":"FeatureCollection"}