{"features":[{"geometry":{"coordinates":[144.9679835,-37.8201575],"type":"Point"},"properties":{"events":[{"categories":["Music"],"eDate":"2025-10-26","eName":"Samara Joy","genre":"Jazz","price":"$79.00 - 129.00","supports":[],"ticketUrl":null,"time":" 2pm"}],"vName":"Arts Centre Melbourne"},"type":"Feature"},{"geometry":{"coordinates":[145.0192156,-37.7562323],"type":"Point"},"properties":{"events":[{"categories":["Theatre","Music"],"eDate":"2025-10-26","eName":"Hair The Musical (Matinee Session)","genre":"Rock","price":"$59.00 - 139.00","supports":[],"ticketUrl":null,"time":" 1pm"},{"categories":["Theatre","Music"],"eDate":"2025-10-26","eName":"Hair The Musical","genre":"Rock","price":"$59.00 - 139.00","supports":[],"ticketUrl":null,"time":" 6:30pm"}],"vName":"Athenaeum Theatre"},"type":"Feature"},{"geometry":{"coordinates":[144.978682,-37.7981225],"type":"Point"},"properties":{"events":[{"categories":["Music","Free"],"eDate":"2025-10-26","eName":"Lewis Ciavarella","genre":null,"price":"Free","supports":[],"ticketUrl":null,"time":" 9pm"}],"vName":"Baxter's Lot"},"type":"Feature"},{"geometry":{"coordinates":[144.9607158,-37.776327],"type":"Point"},"properties":{"events":[{"categories":["Other \"Wrestling\"","Other \"Trivia \""],"eDate":"2025-10-26","eName":"WrestleBrainia SundaySlam","genre":null,"price":"$28.05","supports":[],"ticketUrl":null,"time":" 7:30pm"}],"vName":"Bergy Bandroom"},"type":"Feature"},{"geometry":{"coordinates":[144.97711,-37.79833],"type":"Point"},"properties":{"events":[{"categories":["Music"],"eDate":"2025-10-26","eName":"Powerplant","genre":"Electronic","price":"$30.00","supports":["Red Hell"," Zipper"," Baglicker"],"ticketUrl":null,"time":" 7pm"}],"vName":"Old Bar"},"type":"Feature"},{"geometry":{"coordinates":[144.9761619,-37.8230506],"type":"Point"},"properties":{"events":[{"categories":["Music"],"eDate":"2025-10-26","eName":"James Blunt","genre":"Indie","price":"$109.90 - 129.90","supports":[],"ticketUrl":null,"time":" 7pm"}],"vName":"Rod Laver Arena"},"type":"Feature"},{"geometry":{"coordinates":[144.9985126,-37.7588241],"type":"Point"},"properties":{"events":[{"categories":["Music","Comedy"],"eDate":"2025-10-26","eName":"Beats and Bowls Tour","genre":null,"price":"$35.00","supports":[],"ticketUrl":null,"time":" 1pm"}],"vName":"Thornbury Bowls Club"},"type":"Feature"}],"type":"FeatureCollection"}