{"features":[{"geometry":{"coordinates":[144.9633148,-37.8055511],"type":"Point"},"properties":{"events":[{"categories":["Other \"Cabaret\""],"eDate":"2025-07-10","eName":"The Melbourne Magic Festival Presents: The Gallery","genre":null,"price":"$22.00","supports":["Aby Thomas"," Michael Wan"," Gehan Somanader"," Chris Morant"," Kayj Barbosa"," Anurag Yadav"," Joe Williams"],"ticketUrl":null,"time":" 7:45pm"}],"vName":"Arrow on Swanston"},"type":"Feature"},{"geometry":{"coordinates":[144.9982812,-37.7713296],"type":"Point"},"properties":{"events":[{"categories":["Music"],"eDate":"2025-07-10","eName":"LUME","genre":"Jazz","price":"Free","supports":[],"ticketUrl":null,"time":" 8pm"}],"vName":"Bar 303"},"type":"Feature"},{"geometry":{"coordinates":[144.978682,-37.7981225],"type":"Point"},"properties":{"events":[{"categories":["Free","Music"],"eDate":"2025-07-10","eName":"Woody Samson","genre":null,"price":"Free","supports":[],"ticketUrl":null,"time":" 9pm"}],"vName":"Baxter's Lot"},"type":"Feature"},{"geometry":{"coordinates":[144.9891167,-37.7996488],"type":"Point"},"properties":{"events":[{"categories":["Music"],"eDate":"2025-07-10","eName":"Buck Wild Thursdays: SHUM","genre":"Rock","price":"$10.00","supports":["Keyo Roses Flying Circus"," Speed Bumps"],"ticketUrl":null,"time":" 7:30pm"}],"vName":"Bendigo Hotel"},"type":"Feature"},{"geometry":{"coordinates":[144.9568039,-37.8111442],"type":"Point"},"properties":{"events":[{"categories":["Music"],"eDate":"2025-07-10","eName":"Lachie Gill","genre":"Acoustic","price":"$30.00","supports":[],"ticketUrl":null,"time":" 7:30pm"}],"vName":"Bird's Basement"},"type":"Feature"},{"geometry":{"coordinates":[144.9945274,-37.8001115],"type":"Point"},"properties":{"events":[{"categories":["Free","Music","Other \"Art \"","Other \"Food \""],"eDate":"2025-07-10","eName":"Talking Pit + Blak Pearl Studio Exhibition Launch","genre":null,"price":"Free","supports":[],"ticketUrl":null,"time":" 6pm"}],"vName":"Bodriggy Brewing Company"},"type":"Feature"},{"geometry":{"coordinates":[144.9675876,-37.8240849],"type":"Point"},"properties":{"events":[{"categories":["Music"],"eDate":"2025-07-10","eName":"Sonorous XI: David Chesworth & Gail Priest","genre":"Electronic","price":"$37.00 - 50.00","supports":[],"ticketUrl":null,"time":" 7pm"},{"categories":["Music"],"eDate":"2025-07-10","eName":"Pastorale","genre":"Classical","price":"$72.00","supports":[],"ticketUrl":null,"time":" 7pm"}],"vName":"Melbourne Recital Centre"},"type":"Feature"},{"geometry":{"coordinates":[144.992953,-37.80245],"type":"Point"},"properties":{"events":[{"categories":["Music"],"eDate":"2025-07-10","eName":"Chris Alcoma","genre":"Indie","price":"$10.00","supports":["Tahlea"," Lantheria"],"ticketUrl":null,"time":" 7pm"}],"vName":"Mr Boogie Man BAR"},"type":"Feature"},{"geometry":{"coordinates":[144.998414,-37.771471],"type":"Point"},"properties":{"events":[{"categories":["Music"],"eDate":"2025-07-10","eName":"Domini Forster","genre":"Indie","price":"$25.00 - 30.00","supports":[],"ticketUrl":null,"time":" 7:30pm"}],"vName":"Northcote Social Club"},"type":"Feature"},{"geometry":{"coordinates":[144.96084,-37.813514],"type":"Point"},"properties":{"events":[{"categories":["Music"],"eDate":"2025-07-10","eName":"A Bunch Of Smooth Operators Presents: Further Explorations, To Bill Evans & Beyond","genre":"Jazz","price":"$40.00","supports":[],"ticketUrl":null,"time":" 7:30pm"},{"categories":["Music"],"eDate":"2025-07-10","eName":"Henry Manetta & The Trip","genre":"Jazz","price":"$40.00","supports":[],"ticketUrl":null,"time":" 8pm"}],"vName":"Paris Cat Jazz Club"},"type":"Feature"},{"geometry":{"coordinates":[144.9615882,-37.7711432],"type":"Point"},"properties":{"events":[{"categories":["Free","Music"],"eDate":"2025-07-10","eName":"Masters of the MonkeyVerse","genre":"Rock","price":"Free","supports":["Wykd Folk"," Cranes Against Clouds"],"ticketUrl":null,"time":" 7pm"}],"vName":"Retreat Hotel"},"type":"Feature"},{"geometry":{"coordinates":[144.965405,-37.8117457],"type":"Point"},"properties":{"events":[{"categories":["Music"],"eDate":"2025-07-10","eName":"Fanta’s Kitchen","genre":"Electronic","price":"Free","supports":[],"ticketUrl":null,"time":" 6pm"}],"vName":"Section 8"},"type":"Feature"},{"geometry":{"coordinates":[144.9607404,-37.7743469],"type":"Point"},"properties":{"events":[{"categories":["Music"],"eDate":"2025-07-10","eName":"Bands N’ Fans & Floravera Bookings Residency Night","genre":"Rock","price":"$19.99","supports":[],"ticketUrl":null,"time":" 7pm"}],"vName":"Stay Gold"},"type":"Feature"},{"geometry":{"coordinates":[144.996838,-37.7794356],"type":"Point"},"properties":{"events":[{"categories":["Music"],"eDate":"2025-07-10","eName":"Hamish Bloom","genre":"Indie","price":"$11.90","supports":["Coco Silver Bird"],"ticketUrl":null,"time":" 8pm"}],"vName":"The Merri Creek Tavern"},"type":"Feature"},{"geometry":{"coordinates":[144.9708437,-37.7973184],"type":"Point"},"properties":{"events":[{"categories":["Free","Music","Comedy"],"eDate":"2025-07-10","eName":"The ‘WHAM, BAM, THANK YOU’ Jam","genre":"Jazz","price":"Free","supports":[],"ticketUrl":null,"time":" 7:30pm"}],"vName":"The Motley Bauhaus"},"type":"Feature"},{"geometry":{"coordinates":[144.9769451,-37.8055776],"type":"Point"},"properties":{"events":[{"categories":["Music"],"eDate":"2025-07-10","eName":"Harvey Town","genre":null,"price":"$20.00","supports":["Aftergloom"," Chordie Flow"],"ticketUrl":null,"time":" 7pm"}],"vName":"The Workers Club"},"type":"Feature"},{"geometry":{"coordinates":[144.9984324,-37.7729134],"type":"Point"},"properties":{"events":[{"categories":["Music"],"eDate":"2025-07-10","eName":"Sam Nicholls + Jarrod Grant","genre":"Acoustic","price":"$17.35","supports":[],"ticketUrl":null,"time":" 8pm"}],"vName":"Wesley Anne"},"type":"Feature"}],"type":"FeatureCollection"}