{"features":[{"geometry":{"coordinates":[144.9982812,-37.7713296],"type":"Point"},"properties":{"events":[{"categories":["Free","Music"],"eDate":"2025-11-07","eName":"The Calabrians","genre":"Rock","price":"Free","supports":[],"ticketUrl":null,"time":" 5pm"},{"categories":["Music"],"eDate":"2025-11-07","eName":"Fuá da Tita","genre":"Jazz","price":"Free","supports":[],"ticketUrl":null,"time":" 9pm"}],"vName":"Bar 303"},"type":"Feature"},{"geometry":{"coordinates":[144.978682,-37.7981225],"type":"Point"},"properties":{"events":[{"categories":["Free","Music"],"eDate":"2025-11-07","eName":"Tejo D’Cruz","genre":null,"price":"Free","supports":[],"ticketUrl":null,"time":" 9pm"}],"vName":"Baxter's Lot"},"type":"Feature"},{"geometry":{"coordinates":[144.9891167,-37.7996488],"type":"Point"},"properties":{"events":[{"categories":["Music"],"eDate":"2025-11-07","eName":"Hot Machine","genre":"Rock","price":"$22.95","supports":["Mongrel"," Vixen Scream"],"ticketUrl":null,"time":" 9pm"}],"vName":"Bendigo Hotel"},"type":"Feature"},{"geometry":{"coordinates":[144.9607158,-37.776327],"type":"Point"},"properties":{"events":[{"categories":["Music"],"eDate":"2025-11-07","eName":"Skyscraper Stan","genre":"Country/Folk","price":"$38.25","supports":["Dominic Hoey"," more"],"ticketUrl":null,"time":" 8pm"}],"vName":"Bergy Bandroom"},"type":"Feature"},{"geometry":{"coordinates":[144.9568039,-37.8111442],"type":"Point"},"properties":{"events":[{"categories":["Music"],"eDate":"2025-11-07","eName":"Fleetwood Max","genre":"Rock","price":"$40.00","supports":[],"ticketUrl":null,"time":" 7:30pm"}],"vName":"Bird's Basement"},"type":"Feature"},{"geometry":{"coordinates":[144.9713425,-37.8128595],"type":"Point"},"properties":{"events":[{"categories":["Music"],"eDate":"2025-11-07","eName":"Intrepid","genre":"Rock","price":"$15.43","supports":["The Opals"," Backo"],"ticketUrl":null,"time":" 8pm"}],"vName":"Cherry Bar"},"type":"Feature"},{"geometry":{"coordinates":[144.9926664,-37.8248893],"type":"Point"},"properties":{"events":[{"categories":["Music"],"eDate":"2025-11-07","eName":"James Reyne","genre":"Rock","price":"$70.00","supports":["Taxiride"],"ticketUrl":null,"time":" 8:30pm"}],"vName":"Corner Hotel"},"type":"Feature"},{"geometry":{"coordinates":[144.9489214,-37.8106039],"type":"Point"},"properties":{"events":[{"categories":["Music"],"eDate":"2025-11-07","eName":"Lauren Spencer Smith","genre":"Pop","price":"$92.71","supports":["Henry Moodie"," Maisy Kay"],"ticketUrl":null,"time":" 7pm"}],"vName":"Festival Hall"},"type":"Feature"},{"geometry":{"coordinates":[144.9693768,-37.8164414],"type":"Point"},"properties":{"events":[{"categories":["Music"],"eDate":"2025-11-07","eName":"Suicidal Tendencies","genre":"Punk","price":"$89.90","supports":["Big Noter"],"ticketUrl":null,"time":" 7pm"}],"vName":"Forum Melbourne"},"type":"Feature"},{"geometry":{"coordinates":[144.973013,-37.8640582],"type":"Point"},"properties":{"events":[{"categories":["Music"],"eDate":"2025-11-07","eName":"Trousdale","genre":"Indie","price":"$69.90","supports":["LOVELOVELOVE"],"ticketUrl":null,"time":" 7pm"},{"categories":["Music"],"eDate":"2025-11-07","eName":"Max Jackson","genre":"Country/Folk","price":"$35.70","supports":[],"ticketUrl":null,"time":" 7:30pm"}],"vName":"Hotel Esplanade (aka The Espy)"},"type":"Feature"},{"geometry":{"coordinates":[144.9596527,-37.7720304],"type":"Point"},"properties":{"events":[{"categories":["Music"],"eDate":"2025-11-07","eName":"Pony Face","genre":"Country/Folk","price":"Free","supports":["Mo’Ju"," Loretta Miller"," Shane O'Mara"],"ticketUrl":null,"time":" 8pm"}],"vName":"Howler"},"type":"Feature"},{"geometry":{"coordinates":[145.0314658,-37.8067273],"type":"Point"},"properties":{"events":[{"categories":["Music"],"eDate":"2025-11-07","eName":"Kew Court House Live: Delsinki & The Quiet Coachmen","genre":null,"price":"$20.00","supports":[],"ticketUrl":null,"time":" 7:30pm"}],"vName":"Kew Court House"},"type":"Feature"},{"geometry":{"coordinates":[144.9658499,-37.8147453],"type":"Point"},"properties":{"events":[{"categories":["Music"],"eDate":"2025-11-07","eName":"Third Eye presents Souls in Motion: An Evening of TOOL","genre":"Metal","price":"$33.15","supports":[],"ticketUrl":null,"time":" 7pm"}],"vName":"Max Watt's (Melbourne)"},"type":"Feature"},{"geometry":{"coordinates":[144.9675876,-37.8240849],"type":"Point"},"properties":{"events":[{"categories":["Music"],"eDate":"2025-11-07","eName":"Affinity Quartet: Incantation (Matinee Session)","genre":"Classical","price":"$45.00 - 55.00","supports":[],"ticketUrl":null,"time":" 2pm"},{"categories":["Music"],"eDate":"2025-11-07","eName":"Affinity Quartet: Incantation","genre":"Classical","price":"$45.00 - 55.00","supports":[],"ticketUrl":null,"time":" 6pm"},{"categories":["Music"],"eDate":"2025-11-07","eName":"Josh Pyke","genre":"Indie","price":"$59.00 - 79.00","supports":["Bec Sykes"],"ticketUrl":null,"time":" 7:30pm"}],"vName":"Melbourne Recital Centre"},"type":"Feature"},{"geometry":{"coordinates":[144.9790251,-37.8675008],"type":"Point"},"properties":{"events":[{"categories":["Music"],"eDate":"2025-11-07","eName":"The L.A Woman","genre":"Rock","price":"$39.00 - 59.00","supports":[],"ticketUrl":null,"time":" 7pm"}],"vName":"Memo Music Hall"},"type":"Feature"},{"geometry":{"coordinates":[144.998414,-37.771471],"type":"Point"},"properties":{"events":[{"categories":["Music"],"eDate":"2025-11-07","eName":"Emily Wurramara","genre":"Country/Folk","price":"$51.10","supports":[],"ticketUrl":null,"time":" 8pm"}],"vName":"Northcote Social Club"},"type":"Feature"},{"geometry":{"coordinates":[144.9982706,-37.7737068],"type":"Point"},"properties":{"events":[{"categories":["Music"],"eDate":"2025-11-07","eName":"Parra For Cuva","genre":"Electronic","price":"$36.92 - 67.52","supports":["The Oddness"," Nacanā"],"ticketUrl":null,"time":" 8pm"}],"vName":"Northcote Theatre"},"type":"Feature"},{"geometry":{"coordinates":[144.96084,-37.813514],"type":"Point"},"properties":{"events":[{"categories":["Music"],"eDate":"2025-11-07","eName":"Sondheim: unbound with Elissa Rodger","genre":"Jazz","price":"$45.00","supports":[],"ticketUrl":null,"time":" 6pm"},{"categories":["Music"],"eDate":"2025-11-07","eName":"Blue Note ‘62","genre":"Jazz","price":"$45.00","supports":[],"ticketUrl":null,"time":" 6:30pm"},{"categories":["Music"],"eDate":"2025-11-07","eName":"We May Never Meet Again: The Music Of Amy Winehouse with Elly Poletti","genre":"Jazz","price":"$48.00","supports":[],"ticketUrl":null,"time":" 9pm"},{"categories":["Music"],"eDate":"2025-11-07","eName":"Angela Fabian & The Romans present: A Tribute to the Kings & Queens of Soul","genre":"Soul/Funk","price":"$48.00","supports":[],"ticketUrl":null,"time":" 9:30pm"}],"vName":"Paris Cat Jazz Club"},"type":"Feature"},{"geometry":{"coordinates":[144.9615882,-37.7711432],"type":"Point"},"properties":{"events":[{"categories":["Music"],"eDate":"2025-11-07","eName":"Simply West","genre":"Country/Folk","price":"$29.34","supports":[],"ticketUrl":null,"time":" 7pm"}],"vName":"Retreat Hotel"},"type":"Feature"},{"geometry":{"coordinates":[144.993413,-37.8506652],"type":"Point"},"properties":{"events":[{"categories":["Music"],"eDate":"2025-11-07","eName":"SoSo","genre":"Punk","price":"$21.42 - 38.76","supports":["All Regards"," Ivy Black"],"ticketUrl":null,"time":" 7pm"}],"vName":"Revolver Upstairs"},"type":"Feature"},{"geometry":{"coordinates":[145.0013923,-37.7559265],"type":"Point"},"properties":{"events":[{"categories":["Music"],"eDate":"2025-11-07","eName":"The Overits","genre":"Jazz","price":"$28.00","supports":["Loonee Tunes"],"ticketUrl":null,"time":" 8pm"}],"vName":"Shotkickers"},"type":"Feature"},{"geometry":{"coordinates":[144.9607404,-37.7743469],"type":"Point"},"properties":{"events":[{"categories":["Music"],"eDate":"2025-11-07","eName":"Damage Inc.: Official Night Before Pre-Party","genre":"Metal","price":"$49.90","supports":[],"ticketUrl":null,"time":" 7pm"}],"vName":"Stay Gold"},"type":"Feature"},{"geometry":{"coordinates":[144.9657057,-37.8061581],"type":"Point"},"properties":{"events":[{"categories":["Music"],"eDate":"2025-11-07","eName":"WILSN","genre":"Soul/Funk","price":"$33.45","supports":[],"ticketUrl":null,"time":" 8pm"}],"vName":"The Curtin"},"type":"Feature"},{"geometry":{"coordinates":[144.9655277,-37.7344052],"type":"Point"},"properties":{"events":[{"categories":["Music"],"eDate":"2025-11-07","eName":"No Hope","genre":null,"price":"$15.00","supports":["Lakeview"," As Long As It Bleeds"," Cruelty in the Constellations"],"ticketUrl":null,"time":" 7pm"}],"vName":"The Graveyard Bar"},"type":"Feature"},{"geometry":{"coordinates":[144.9463641,-37.8047757],"type":"Point"},"properties":{"events":[{"categories":["Music"],"eDate":"2025-11-07","eName":"Baby Mullet","genre":"Rock","price":"$16.35","supports":["Property"," Favoured State"],"ticketUrl":null,"time":" 8:30pm"}],"vName":"The Last Chance Rock & Roll Bar"},"type":"Feature"},{"geometry":{"coordinates":[144.9708437,-37.7973184],"type":"Point"},"properties":{"events":[{"categories":["Music"],"eDate":"2025-11-07","eName":"Maisie B","genre":null,"price":"$15.00","supports":["aeriqah"," Norwood"],"ticketUrl":null,"time":" 7pm"}],"vName":"The Motley Bauhaus"},"type":"Feature"},{"geometry":{"coordinates":[144.9998797,-37.7616512],"type":"Point"},"properties":{"events":[{"categories":["Music"],"eDate":"2025-11-07","eName":"The Mean Times","genre":"Rock","price":"Free","supports":["The Vendettas"],"ticketUrl":null,"time":" 8pm"}],"vName":"The Thornbury Local"},"type":"Feature"},{"geometry":{"coordinates":[144.9769451,-37.8055776],"type":"Point"},"properties":{"events":[{"categories":["Music"],"eDate":"2025-11-07","eName":"Sarah McLeod","genre":"Rock","price":"$44.15","supports":[],"ticketUrl":null,"time":" 8pm"}],"vName":"The Workers Club"},"type":"Feature"},{"geometry":{"coordinates":[144.9661635,-37.8176298],"type":"Point"},"properties":{"events":[{"categories":["Music"],"eDate":"2025-11-07","eName":"UK Garage with DJ Lady Erica","genre":"Electronic","price":"Free","supports":[],"ticketUrl":null,"time":" 9pm"}],"vName":"Wax Music Lounge"},"type":"Feature"},{"geometry":{"coordinates":[144.9984324,-37.7729134],"type":"Point"},"properties":{"events":[{"categories":["Music"],"eDate":"2025-11-07","eName":"Michael Day","genre":"Country/Folk","price":"Free","supports":[],"ticketUrl":null,"time":" 6pm"},{"categories":["Music"],"eDate":"2025-11-07","eName":"Jack Ladder","genre":"Rock","price":"$50.00","supports":[],"ticketUrl":null,"time":" 8pm"}],"vName":"Wesley Anne"},"type":"Feature"}],"type":"FeatureCollection"}