{"features":[{"geometry":{"coordinates":[144.9945274,-37.8001115],"type":"Point"},"properties":{"events":[{"categories":["Free","Music","Other \"Art \"","Other \"Food \""],"eDate":"2025-08-06","eName":"Deep Cuts Jam: Roy Ayers Special","genre":null,"price":"Free","supports":[],"ticketUrl":null,"time":" 7pm"}],"vName":"Bodriggy Brewing Company"},"type":"Feature"},{"geometry":{"coordinates":[144.9712356,-37.812902],"type":"Point"},"properties":{"events":[{"categories":["Free","Comedy"],"eDate":"2025-08-06","eName":"Chat Bot Comedy: A Stand-Up Experiment with Bron Lewis & The Buddy Telco Chat Bot","genre":null,"price":"Free","supports":[],"ticketUrl":null,"time":" 6:30pm"}],"vName":"Morris House"},"type":"Feature"},{"geometry":{"coordinates":[145.1334272,-37.9135736],"type":"Point"},"properties":{"events":[{"categories":["Music"],"eDate":"2025-08-06","eName":"David Dower Trio with Bulgarian Voices – Sonder Album Launch: Live at The Count’s","genre":"Jazz","price":"$15.00 - 29.00","supports":[],"ticketUrl":null,"time":" 7:30pm"}],"vName":"The Ian Potter Centre for Performing Arts"},"type":"Feature"},{"geometry":{"coordinates":[144.9879283,-37.7505509],"type":"Point"},"properties":{"events":[{"categories":["Other \"Food \""],"eDate":"2025-08-06","eName":"Whisky Wednesdays @ The Merri Bar","genre":null,"price":"Free","supports":[],"ticketUrl":null,"time":" 6pm"},{"categories":["Music"],"eDate":"2025-08-06","eName":"The Fireside Sessions: Mr. Alford + Ricki Wood","genre":"Acoustic","price":"Free","supports":[],"ticketUrl":null,"time":" 6:30pm"}],"vName":"The Merri Bar"},"type":"Feature"},{"geometry":{"coordinates":[144.9870814,-37.799406],"type":"Point"},"properties":{"events":[{"categories":["Music"],"eDate":"2025-08-06","eName":"Big Scary Indian","genre":null,"price":"$20.00","supports":["Hulluck/Bolt Ensemble"," Sapphire Street"," Mike Nigro"],"ticketUrl":null,"time":" 7:30pm"}],"vName":"The Tote Hotel"},"type":"Feature"}],"type":"FeatureCollection"}