{"features":[{"geometry":{"coordinates":[144.9763781,-37.7983136],"type":"Point"},"properties":{"events":[{"categories":["Music"],"eDate":"2024-02-10","eName":"Ice Nine Kills Party","genre":"Metal","price":"Free","supports":[],"ticketUrl":null,"time":" 6pm"},{"categories":["Music"],"eDate":"2024-02-10","eName":"[livin hell] TakeOva3","genre":null,"price":"$10.00","supports":["GREYISDEAD"," Flowermansion"," SKUNKZ"],"ticketUrl":null,"time":" 8pm"}],"vName":"Bad Decisions Bar"},"type":"Feature"},{"geometry":{"coordinates":[144.978425,-37.79773],"type":"Point"},"properties":{"events":[{"categories":["Music"],"eDate":"2024-02-10","eName":"Coolabah Kings","genre":"Rock","price":"$17.35","supports":["TVB+"," Room Noise"," Dylan Beast"],"ticketUrl":null,"time":" 8:30pm"}],"vName":"Bar Open"},"type":"Feature"},{"geometry":{"coordinates":[144.9607158,-37.776327],"type":"Point"},"properties":{"events":[{"categories":["Music"],"eDate":"2024-02-10","eName":"Fifth Dawn","genre":"Metal","price":"$28.05","supports":["Aurateque"," New Million"," 50fifty"],"ticketUrl":null,"time":" 8pm"}],"vName":"Bergy Bandroom"},"type":"Feature"},{"geometry":{"coordinates":[144.9617018,-37.7704566],"type":"Point"},"properties":{"events":[{"categories":["Free","Music","Art"],"eDate":"2024-02-10","eName":"A Photography Exhibition by Danysha Harriott (Opening Night)","genre":null,"price":"Free","supports":[],"ticketUrl":null,"time":" 5:30pm"}],"vName":"Brunswick Artists' Bar"},"type":"Feature"},{"geometry":{"coordinates":[144.9617018,-37.7704566],"type":"Point"},"properties":{"events":[{"categories":["Music"],"eDate":"2024-02-10","eName":"2 Inch Tape","genre":"Rock","price":"$23.05","supports":[],"ticketUrl":null,"time":" 2pm"},{"categories":["Music"],"eDate":"2024-02-10","eName":"Lisa O'Neill","genre":"Country/Folk","price":"$49.06","supports":[],"ticketUrl":null,"time":" 8pm"}],"vName":"Brunswick Ballroom"},"type":"Feature"},{"geometry":{"coordinates":[145.00025846036164,-37.7592368],"type":"Point"},"properties":{"events":[{"categories":["Music"],"eDate":"2024-02-10","eName":"The Freaks Are Coming!","genre":"Metal","price":"$15.00","supports":["Cherish"," Shove"," Serpette"],"ticketUrl":null,"time":" 8pm"}],"vName":"Cafe Gummo"},"type":"Feature"},{"geometry":{"coordinates":[144.9713425,-37.8128595],"type":"Point"},"properties":{"events":[{"categories":["Free","Music"],"eDate":"2024-02-10","eName":"Soul Central","genre":"Soul/Funk","price":"Free","supports":[],"ticketUrl":null,"time":" 8pm"}],"vName":"Cherry Bar"},"type":"Feature"},{"geometry":{"coordinates":[144.99266639479475,-37.82488935],"type":"Point"},"properties":{"events":[{"categories":["Music"],"eDate":"2024-02-10","eName":"Bob Marley Birthday Bash","genre":"Global","price":"$29.10","supports":[],"ticketUrl":null,"time":" 8pm"}],"vName":"Corner Hotel"},"type":"Feature"},{"geometry":{"coordinates":[144.9628440552175,-37.76100605],"type":"Point"},"properties":{"events":[{"categories":["Music"],"eDate":"2024-02-10","eName":"Steph Brett","genre":"Country/Folk","price":"Free","supports":[],"ticketUrl":null,"time":" 6pm"}],"vName":"Edinburgh Castle Hotel"},"type":"Feature"},{"geometry":{"coordinates":[144.98535244416098,-37.79426315],"type":"Point"},"properties":{"events":[{"categories":["Music"],"eDate":"2024-02-10","eName":"Fur Blossom","genre":"Rock","price":"$10.00 - 15.00","supports":["Dom Brinkley"," Peach Fuzz"],"ticketUrl":null,"time":" 7:30pm"}],"vName":"Gasometer Hotel"},"type":"Feature"},{"geometry":{"coordinates":[144.9875917,-37.7963837],"type":"Point"},"properties":{"events":[{"categories":["Free","Music"],"eDate":"2024-02-10","eName":"Docks + Licklash","genre":"Country/Folk","price":"Free","supports":[],"ticketUrl":null,"time":" 4pm"}],"vName":"Gem Bar"},"type":"Feature"},{"geometry":{"coordinates":[144.9596527,-37.7720304],"type":"Point"},"properties":{"events":[{"categories":["Music"],"eDate":"2024-02-10","eName":"Jack Davies & The Bush Chooks","genre":"Electronic","price":"$38.76","supports":[],"ticketUrl":null,"time":" 8pm"}],"vName":"Howler"},"type":"Feature"},{"geometry":{"coordinates":[145.0293642,-37.8073947],"type":"Point"},"properties":{"events":[{"categories":["Music"],"eDate":"2024-02-10","eName":"Bête Noire","genre":"Jazz","price":"$22.00 - 26.00","supports":["Isidro Martínez García"],"ticketUrl":null,"time":" 8pm"}],"vName":"Kew Court House"},"type":"Feature"},{"geometry":{"coordinates":[144.90043927513608,-37.8115247],"type":"Point"},"properties":{"events":[{"categories":["Music"],"eDate":"2024-02-10","eName":"Canisha","genre":"Soul/Funk","price":"$22.23","supports":["Kiwat Kennell"," Aria Clemmet-Kennedy"],"ticketUrl":null,"time":" 7pm"}],"vName":"Kindred Bandroom"},"type":"Feature"},{"geometry":{"coordinates":[144.9764962,-37.7983139],"type":"Point"},"properties":{"events":[{"categories":["Music"],"eDate":"2024-02-10","eName":"Flux","genre":"Hip Hop","price":"$20.00","supports":["Outsider"," DJ Nero"," DJ Tino"," DJ GloW"],"ticketUrl":null,"time":" 8pm"}],"vName":"Laundry Bar"},"type":"Feature"},{"geometry":{"coordinates":[145.0008148,-37.8107158],"type":"Point"},"properties":{"events":[{"categories":["Music"],"eDate":"2024-02-10","eName":"Grave Upheaval","genre":"Metal","price":"$25.00","supports":["Cemetery Urn"," Munitions"," Petrol"," Haste"," Cult of the Night"],"ticketUrl":null,"time":" 6pm"}],"vName":"Leadbeater Hotel"},"type":"Feature"},{"geometry":{"coordinates":[144.96741062735794,-37.82454855],"type":"Point"},"properties":{"events":[{"categories":["Music","Other \"Spoken Word\"","Other \"Poetry & Forums\""],"eDate":"2024-02-10","eName":"True North","genre":"Acoustic","price":"$34.00","supports":[],"ticketUrl":null,"time":" 4pm"}],"vName":"Melbourne Recital Centre"},"type":"Feature"},{"geometry":{"coordinates":[144.9712356,-37.812902],"type":"Point"},"properties":{"events":[{"categories":["Comedy"],"eDate":"2024-02-10","eName":"Basement Comedy Club Saturdays","genre":null,"price":"$22.00","supports":[],"ticketUrl":null,"time":" 8pm"}],"vName":"Morris House"},"type":"Feature"},{"geometry":{"coordinates":[144.998414,-37.771471],"type":"Point"},"properties":{"events":[{"categories":["Music"],"eDate":"2024-02-10","eName":"Willowbank Grove","genre":"Rock","price":"$31.15","supports":["Champ Ruby"," Ramona Sky"],"ticketUrl":null,"time":" 8:30pm"}],"vName":"Northcote Social Club"},"type":"Feature"},{"geometry":{"coordinates":[145.08963741959553,-37.896857600000004],"type":"Point"},"properties":{"events":[{"categories":["Music"],"eDate":"2024-02-10","eName":"BLOOM Sings Fleetwood Mac Classics, Stevie Nicks, Linda Ronstadt & Carole King","genre":"Pop","price":"$50.00","supports":[],"ticketUrl":null,"time":" 8:30pm"}],"vName":"Oakleigh Lounge"},"type":"Feature"},{"geometry":{"coordinates":[144.9615882,-37.7711432],"type":"Point"},"properties":{"events":[{"categories":["Music"],"eDate":"2024-02-10","eName":"Jack Spencer","genre":"Country/Folk","price":"$10.00 - 15.00","supports":["Kisses"," Dan Cross Band"],"ticketUrl":null,"time":" 7:30pm"}],"vName":"Retreat Hotel"},"type":"Feature"},{"geometry":{"coordinates":[144.9631913,-37.7617818],"type":"Point"},"properties":{"events":[{"categories":["Music"],"eDate":"2024-02-10","eName":"Maddy Petch + Yours, Georgina + Amber Farnan","genre":"Indie","price":"$17.00","supports":[],"ticketUrl":null,"time":" 8pm"}],"vName":"Ringo Barr"},"type":"Feature"},{"geometry":{"coordinates":[144.9706095,-37.7783326],"type":"Point"},"properties":{"events":[{"categories":["Free","Music"],"eDate":"2024-02-10","eName":"Ellie Gibson","genre":"Indie","price":"Free","supports":["Mia Pisano"],"ticketUrl":null,"time":" 9pm"}],"vName":"The Beast"},"type":"Feature"},{"geometry":{"coordinates":[144.99959550357977,-37.762376950000004],"type":"Point"},"properties":{"events":[{"categories":["Music"],"eDate":"2024-02-10","eName":"Katatonia","genre":"Metal","price":"$89.90","supports":[],"ticketUrl":null,"time":" 8pm"}],"vName":"The Croxton"},"type":"Feature"},{"geometry":{"coordinates":[144.9657057,-37.8061581],"type":"Point"},"properties":{"events":[{"categories":["Music"],"eDate":"2024-02-10","eName":"Checkpoint","genre":"Punk","price":"$17.75","supports":["Kosmetika"," It Thing"," DJ Devlin"," DJ Buckwild"],"ticketUrl":null,"time":" 8:30pm"}],"vName":"The Curtin"},"type":"Feature"},{"geometry":{"coordinates":[144.9846126,-37.7989941],"type":"Point"},"properties":{"events":[{"categories":["Music"],"eDate":"2024-02-10","eName":"Pleasurefest","genre":"Punk","price":"$37.25","supports":["more"],"ticketUrl":null,"time":" 3pm"},{"categories":["Music"],"eDate":"2024-02-10","eName":"HEAT","genre":"Metal","price":"$23.50","supports":["Horsepower"," Stressed"," Mindrace"],"ticketUrl":null,"time":" 7pm"}],"vName":"The Tote Hotel"},"type":"Feature"},{"geometry":{"coordinates":[144.94904484115614,-37.80420155],"type":"Point"},"properties":{"events":[{"categories":["Music"],"eDate":"2024-02-10","eName":"TTTDC + Porcus vs Equus","genre":"Rock","price":"Free","supports":[],"ticketUrl":null,"time":" 8pm"}],"vName":"Town Hall Hotel"},"type":"Feature"},{"geometry":{"coordinates":[144.9531861,-37.7734411],"type":"Point"},"properties":{"events":[{"categories":["Free","Music"],"eDate":"2024-02-10","eName":"Henry Hugo & The Kindred Souls","genre":"Indie","price":"Free","supports":["Little Faiths"],"ticketUrl":null,"time":" 8pm"}],"vName":"Union Hotel Brunswick"},"type":"Feature"}],"type":"FeatureCollection"}