{"features":[{"geometry":{"coordinates":[144.9679835243618,-37.8201575],"type":"Point"},"properties":{"events":[{"categories":["Theatre"],"eDate":"2024-05-11","eName":"A Midsummer Night's Dream (Matinee)","genre":null,"price":"$40.00 - 110.00","supports":[],"ticketUrl":null,"time":" 2pm"},{"categories":["Theatre"],"eDate":"2024-05-11","eName":"A Midsummer Night's Dream (Second Matinee)","genre":null,"price":"$40.00 - 110.00","supports":[],"ticketUrl":null,"time":" 4pm"}],"vName":"Arts Centre Melbourne"},"type":"Feature"},{"geometry":{"coordinates":[144.9763781,-37.7983136],"type":"Point"},"properties":{"events":[{"categories":["Music"],"eDate":"2024-05-11","eName":"Ambulance + Vicious Blonde","genre":null,"price":"$14.46","supports":["The Deadbeats"," Gun Laws"," Gesunolike"],"ticketUrl":null,"time":" 8pm"}],"vName":"Bad Decisions Bar"},"type":"Feature"},{"geometry":{"coordinates":[144.99828116650363,-37.7713296],"type":"Point"},"properties":{"events":[{"categories":["Free","Music"],"eDate":"2024-05-11","eName":"The Salarymen + Siberian Heatwave","genre":"Rock","price":"Free","supports":[],"ticketUrl":null,"time":" 3:30pm"},{"categories":["Music"],"eDate":"2024-05-11","eName":"Mandeng Groove + Big Soap","genre":"Rock","price":"$25.00","supports":["Terrestrials"," Verona Lights"],"ticketUrl":null,"time":" 7pm"}],"vName":"Bar 303"},"type":"Feature"},{"geometry":{"coordinates":[144.9713425,-37.8128595],"type":"Point"},"properties":{"events":[{"categories":["Music"],"eDate":"2024-05-11","eName":"The Golden Gaytimes","genre":"Rock","price":"$17.48","supports":[],"ticketUrl":null,"time":" 8pm"}],"vName":"Cherry Bar"},"type":"Feature"},{"geometry":{"coordinates":[144.96564318571427,-37.745964314285715],"type":"Point"},"properties":{"events":[{"categories":["Free","Music"],"eDate":"2024-05-11","eName":"No Sleep Till Texas","genre":"Country/Folk","price":"Free","supports":[],"ticketUrl":null,"time":" 6pm"}],"vName":"Coburg RSL Club"},"type":"Feature"},{"geometry":{"coordinates":[145.12326813392298,-38.14614695],"type":"Point"},"properties":{"events":[{"categories":["Music"],"eDate":"2024-05-11","eName":"50 Years of Hits! Ross Wilson & The Peaceniks","genre":"Rock","price":"$69.00","supports":[],"ticketUrl":null,"time":" 8pm"}],"vName":"Frankston Arts Centre"},"type":"Feature"},{"geometry":{"coordinates":[145.0293642,-37.8073947],"type":"Point"},"properties":{"events":[{"categories":["Music"],"eDate":"2024-05-11","eName":"Emily Soon with Invictus Quartet","genre":null,"price":"$20.00 - 26.00","supports":[],"ticketUrl":null,"time":" 8pm"}],"vName":"Kew Court House"},"type":"Feature"},{"geometry":{"coordinates":[144.9764962,-37.7983139],"type":"Point"},"properties":{"events":[{"categories":["Music"],"eDate":"2024-05-11","eName":"LAUNDRY Saturdays","genre":null,"price":"$16.53","supports":[],"ticketUrl":null,"time":"10pm"}],"vName":"Laundry Bar"},"type":"Feature"},{"geometry":{"coordinates":[144.96741062735794,-37.82454855],"type":"Point"},"properties":{"events":[{"categories":["Music"],"eDate":"2024-05-11","eName":"Olivia Chindamo & Matthew Sheens","genre":"Jazz","price":"$37.00","supports":[],"ticketUrl":null,"time":" 7pm"},{"categories":["Music"],"eDate":"2024-05-11","eName":"Brandenburg: Baroque Kaleidoscope","genre":"Classical","price":"$30.00","supports":[],"ticketUrl":null,"time":" 7pm"}],"vName":"Melbourne Recital Centre"},"type":"Feature"},{"geometry":{"coordinates":[145.3553553,-37.9078552],"type":"Point"},"properties":{"events":[{"categories":["Music"],"eDate":"2024-05-11","eName":"Geoff Achison & The Souldiggers","genre":null,"price":"$10.00","supports":[],"ticketUrl":null,"time":" 8:30pm"}],"vName":"Micawber Tavern"},"type":"Feature"},{"geometry":{"coordinates":[145.1496717,-37.7125259],"type":"Point"},"properties":{"events":[{"categories":["Music"],"eDate":"2024-05-11","eName":"Gypsy: The Australian Fleetwood Mac Show","genre":"Rock","price":"$35.00","supports":[],"ticketUrl":null,"time":" 9pm"}],"vName":"Missing Gorilla"},"type":"Feature"},{"geometry":{"coordinates":[144.998414,-37.771471],"type":"Point"},"properties":{"events":[{"categories":["Music"],"eDate":"2024-05-11","eName":"Keiynan Lonsdale","genre":"R&B","price":"$35.30 - 40.40","supports":["Akosia"],"ticketUrl":null,"time":" 8:30pm"}],"vName":"Northcote Social Club"},"type":"Feature"},{"geometry":{"coordinates":[144.97711,-37.79833],"type":"Point"},"properties":{"events":[{"categories":["Music"],"eDate":"2024-05-11","eName":"Sun Run","genre":"Punk","price":"$15.00","supports":["Garage Sale"," World Sick"],"ticketUrl":null,"time":" 8pm"}],"vName":"Old Bar"},"type":"Feature"},{"geometry":{"coordinates":[144.9615882,-37.7711432],"type":"Point"},"properties":{"events":[{"categories":["Music"],"eDate":"2024-05-11","eName":"The Ians","genre":null,"price":"$15.00","supports":["Abselom"," Mellowing"],"ticketUrl":null,"time":" 7:30pm"}],"vName":"Retreat Hotel"},"type":"Feature"},{"geometry":{"coordinates":[144.9706095,-37.7783326],"type":"Point"},"properties":{"events":[{"categories":["Free","Music"],"eDate":"2024-05-11","eName":"Malla","genre":"Jazz","price":"Free","supports":["Jake Amy Trio"],"ticketUrl":null,"time":" 9:30pm"}],"vName":"The Beast"},"type":"Feature"},{"geometry":{"coordinates":[144.9657057,-37.8061581],"type":"Point"},"properties":{"events":[{"categories":["Free","Music"],"eDate":"2024-05-11","eName":"Zombeaches","genre":"Rock","price":"Free","supports":["Chimers"],"ticketUrl":null,"time":" 3pm"},{"categories":["Music","Art"],"eDate":"2024-05-11","eName":"Hydra Fashion Week with dandd920","genre":"Electronic","price":"$22.85","supports":["NPCEDE"," Boyfriend TV"," Cong Josie"],"ticketUrl":null,"time":" 8pm"}],"vName":"The Curtin"},"type":"Feature"},{"geometry":{"coordinates":[144.9585654,-37.8059962],"type":"Point"},"properties":{"events":[{"categories":["Music"],"eDate":"2024-05-11","eName":"Mammon's Throne","genre":"Metal","price":"$16.35","supports":["Sundowner"," AGLO"],"ticketUrl":null,"time":" 8pm"}],"vName":"The Last Chance Rock & Roll Bar"},"type":"Feature"},{"geometry":{"coordinates":[144.99987967655426,-37.76165125],"type":"Point"},"properties":{"events":[{"categories":["Free","Music"],"eDate":"2024-05-11","eName":"Mitchell Burt","genre":"Indie","price":"Free","supports":[],"ticketUrl":null,"time":" 8pm"}],"vName":"The Thornbury Local"},"type":"Feature"},{"geometry":{"coordinates":[144.9651425,-37.8119429],"type":"Point"},"properties":{"events":[{"categories":["Music"],"eDate":"2024-05-11","eName":"Bel Kil","genre":"Indie","price":"$21.42","supports":["Mood Spill"],"ticketUrl":null,"time":" 7:30pm"},{"categories":["Free","Music"],"eDate":"2024-05-11","eName":"DECADANCE","genre":"Electronic","price":"Free","supports":[],"ticketUrl":null,"time":"11pm"}],"vName":"The Toff In Town"},"type":"Feature"}],"type":"FeatureCollection"}