{"features":[{"geometry":{"coordinates":[144.9627513,-37.760963],"type":"Point"},"properties":{"events":[{"categories":["Music","Free"],"eDate":"2026-01-10","eName":"Moonee Valley Drifters","genre":"Country/Folk","price":"Free","supports":[],"ticketUrl":null,"time":" 8pm"}],"vName":"Edinburgh Castle Hotel"},"type":"Feature"},{"geometry":{"coordinates":[144.9785611,-37.7965465],"type":"Point"},"properties":{"events":[{"categories":["Music"],"eDate":"2026-01-10","eName":"Nicolas Cage Fighter","genre":"Metal","price":"$25.00","supports":["Cultists"],"ticketUrl":null,"time":" 8pm"}],"vName":"Evelyn Hotel"},"type":"Feature"},{"geometry":{"coordinates":[144.9875792,-37.7963739],"type":"Point"},"properties":{"events":[{"categories":["Music"],"eDate":"2026-01-10","eName":"Dog Watch","genre":null,"price":"$13.00","supports":["Fly!"],"ticketUrl":null,"time":" 8:30pm"}],"vName":"Gem Bar"},"type":"Feature"},{"geometry":{"coordinates":[144.998414,-37.771471],"type":"Point"},"properties":{"events":[{"categories":["Music"],"eDate":"2026-01-10","eName":"Jimmy Stanfield","genre":"Indie","price":"$25.00","supports":["Roller One"," Jules Sheldon"," The Boundary Riders"],"ticketUrl":null,"time":" 8pm"},{"categories":["Music"],"eDate":"2026-01-10","eName":"Jimmy Stanfield","genre":"Indie","price":"$25.00","supports":["Roller One"," Jules Sheldon"],"ticketUrl":null,"time":" 8pm"}],"vName":"Northcote Social Club"},"type":"Feature"},{"geometry":{"coordinates":[144.9879283,-37.7505509],"type":"Point"},"properties":{"events":[{"categories":["Music"],"eDate":"2026-01-10","eName":"Wild Flowers","genre":"Indie","price":"Free","supports":["Teresa Duffy-Richards"],"ticketUrl":null,"time":" 7pm"}],"vName":"The Merri Bar"},"type":"Feature"},{"geometry":{"coordinates":[144.9794553,-37.7982653],"type":"Point"},"properties":{"events":[{"categories":["Music"],"eDate":"2026-01-10","eName":"Jigitz","genre":"Electronic","price":"$50.00","supports":[],"ticketUrl":null,"time":"10pm"}],"vName":"The Night Cat"},"type":"Feature"},{"geometry":{"coordinates":[144.9651425,-37.8119429],"type":"Point"},"properties":{"events":[{"categories":["Music"],"eDate":"2026-01-10","eName":"Rewired Rhythms","genre":"Soul/Funk","price":"Free","supports":[],"ticketUrl":null,"time":"11pm"}],"vName":"The Toff In Town"},"type":"Feature"},{"geometry":{"coordinates":[144.9769451,-37.8055776],"type":"Point"},"properties":{"events":[{"categories":["Music"],"eDate":"2026-01-10","eName":"New Year, New Invasion","genre":"Rock","price":"$12.75","supports":["Queen Hyena"," Sands"," Cloven Fang"],"ticketUrl":null,"time":" 8pm"}],"vName":"The Workers Club"},"type":"Feature"},{"geometry":{"coordinates":[144.9789774,-37.7885137],"type":"Point"},"properties":{"events":[{"categories":["Music"],"eDate":"2026-01-10","eName":"Lomalux","genre":null,"price":"$10.00","supports":[],"ticketUrl":null,"time":" 4pm"}],"vName":"Tramway Hotel"},"type":"Feature"},{"geometry":{"coordinates":[144.9984324,-37.7729134],"type":"Point"},"properties":{"events":[{"categories":["Music"],"eDate":"2026-01-10","eName":"LCO Trio","genre":"Jazz","price":"Free","supports":[],"ticketUrl":null,"time":" 6pm"},{"categories":["Music"],"eDate":"2026-01-10","eName":"Forest Folk Presents: Collapsing Stars + Maxon + Kris Mizzi","genre":"Country/Folk","price":"$23.20","supports":[],"ticketUrl":null,"time":" 7pm"}],"vName":"Wesley Anne"},"type":"Feature"}],"type":"FeatureCollection"}