{"features":[{"geometry":{"coordinates":[144.9679835243618,-37.8201575],"type":"Point"},"properties":{"events":[{"categories":["Comedy"],"eDate":"2024-04-07","eName":"Kaboom!","genre":null,"price":"$25.00 - 115.00","supports":[],"ticketUrl":null,"time":" 1:15pm"},{"categories":["Comedy","Other \"Food & Drink\""],"eDate":"2024-04-07","eName":"Merrick Watts: An Idiot's Guide to Wine - Volume Two","genre":null,"price":"$60.00 - 70.00","supports":[],"ticketUrl":null,"time":" 2pm"},{"categories":["Comedy"],"eDate":"2024-04-07","eName":"Geraldine Hickey: Don't Tease Me About My Gloves","genre":null,"price":"$35.00 - 48.00","supports":[],"ticketUrl":null,"time":" 5:15pm"}],"vName":"Arts Centre Melbourne"},"type":"Feature"},{"geometry":{"coordinates":[144.978425,-37.79773],"type":"Point"},"properties":{"events":[{"categories":["Free","Music"],"eDate":"2024-04-07","eName":"Steamboat Whistlers","genre":"Jazz","price":"Free","supports":[],"ticketUrl":null,"time":" 5:30pm"}],"vName":"Bar Open"},"type":"Feature"},{"geometry":{"coordinates":[144.9945274,-37.8001115],"type":"Point"},"properties":{"events":[{"categories":["Free","Festival","Comedy","Other \"Food & Drink\""],"eDate":"2024-04-07","eName":"On The Gags Comedy Fest Extravaganza","genre":"Indie","price":"Free","supports":[],"ticketUrl":null,"time":" 7:30pm"}],"vName":"Bodriggy Brewing Company"},"type":"Feature"},{"geometry":{"coordinates":[144.9745581,-37.7694446],"type":"Point"},"properties":{"events":[{"categories":["Music"],"eDate":"2024-04-07","eName":"PSI PHI","genre":null,"price":"$25.00 - 30.00","supports":["Tambourine Jesus"," Mad Vantage"],"ticketUrl":null,"time":" 3:30pm"}],"vName":"Cross Street Music Hall"},"type":"Feature"},{"geometry":{"coordinates":[144.9627231,-37.8073581],"type":"Point"},"properties":{"events":[{"categories":["Comedy"],"eDate":"2024-04-07","eName":"Paul Williams: Mamiya 7","genre":null,"price":"$25.00 - 35.00","supports":[],"ticketUrl":null,"time":" 6:40pm"}],"vName":"Melbourne Town Hall"},"type":"Feature"},{"geometry":{"coordinates":[144.9712356,-37.812902],"type":"Point"},"properties":{"events":[{"categories":["Comedy"],"eDate":"2024-04-07","eName":"Do Go On: Live Podcasts","genre":null,"price":"$25.50 - 65.50","supports":[],"ticketUrl":null,"time":" 3:30pm"},{"categories":["Comedy"],"eDate":"2024-04-07","eName":"Tom Cashman: Everything","genre":null,"price":"$25.50 - 35.50","supports":[],"ticketUrl":null,"time":" 7:45pm"}],"vName":"Morris House"},"type":"Feature"},{"geometry":{"coordinates":[144.998414,-37.771471],"type":"Point"},"properties":{"events":[{"categories":["Music"],"eDate":"2024-04-07","eName":"Josh Owen","genre":"Acoustic","price":"$29.00","supports":["Nick Barker"],"ticketUrl":null,"time":" 1pm"}],"vName":"Northcote Social Club"},"type":"Feature"},{"geometry":{"coordinates":[144.97711,-37.79833],"type":"Point"},"properties":{"events":[{"categories":["Music"],"eDate":"2024-04-07","eName":"Maxine Gillon: Old Bar Residency","genre":"Indie","price":"$10.00","supports":["Molly Mckew"],"ticketUrl":null,"time":" 7pm"}],"vName":"Old Bar"},"type":"Feature"},{"geometry":{"coordinates":[145.0142411,-37.7310367],"type":"Point"},"properties":{"events":[{"categories":["Free","Music"],"eDate":"2024-04-07","eName":"Sunday Sunset Sessions","genre":"Jazz","price":"Free","supports":[],"ticketUrl":null,"time":" 6pm"}],"vName":"Ragtime Tavern"},"type":"Feature"},{"geometry":{"coordinates":[144.9631913,-37.7617818],"type":"Point"},"properties":{"events":[{"categories":["Free","Music"],"eDate":"2024-04-07","eName":"Swan Dry","genre":"Indie","price":"Free","supports":["Morphemme"," Transmissions From The Water-Tower"],"ticketUrl":null,"time":" 2pm"},{"categories":["Free","Music"],"eDate":"2024-04-07","eName":"Alethia","genre":"R&B","price":"Free","supports":[],"ticketUrl":null,"time":" 8pm"}],"vName":"Ringo Barr"},"type":"Feature"},{"geometry":{"coordinates":[144.9948802,-37.8431403],"type":"Point"},"properties":{"events":[{"categories":["Free","Music","Other \"Food & Drink\""],"eDate":"2024-04-07","eName":"Sunday Sessions @ Temperance Hotel","genre":"Acoustic","price":"Free","supports":[],"ticketUrl":null,"time":" 3pm"}],"vName":"Temperance Hotel"},"type":"Feature"},{"geometry":{"coordinates":[144.9657057,-37.8061581],"type":"Point"},"properties":{"events":[{"categories":["Music"],"eDate":"2024-04-07","eName":"Fluxcore94","genre":null,"price":"$20.00","supports":["Mike Gurrieri"," DJ Shio"],"ticketUrl":null,"time":" 6:30pm"}],"vName":"The Curtin"},"type":"Feature"},{"geometry":{"coordinates":[145.13337431967784,-37.91372355],"type":"Point"},"properties":{"events":[{"categories":["Music"],"eDate":"2024-04-07","eName":"Sundays in The Sound Gallery: Lisa Moore","genre":"Classical","price":"$20.00 - 35.00","supports":[],"ticketUrl":null,"time":" 3pm"}],"vName":"The Ian Potter Centre for Performing Arts"},"type":"Feature"},{"geometry":{"coordinates":[144.9968036,-37.7794807],"type":"Point"},"properties":{"events":[{"categories":["Music"],"eDate":"2024-04-07","eName":"BATTS: April Residency","genre":"Indie","price":"$15.00","supports":["Al Parkinson"," Dan Arnott"],"ticketUrl":null,"time":" 5pm"}],"vName":"The Merri Creek Tavern"},"type":"Feature"},{"geometry":{"coordinates":[144.9651425,-37.8119429],"type":"Point"},"properties":{"events":[{"categories":["Comedy"],"eDate":"2024-04-07","eName":"Best Of The Festival: Comedy Superstars","genre":null,"price":"$30.00 - 35.00","supports":[],"ticketUrl":null,"time":" 5pm"},{"categories":["Comedy"],"eDate":"2024-04-07","eName":"Simon Taylor: Big Time","genre":null,"price":"$28.50 - 35.50","supports":[],"ticketUrl":null,"time":" 6:15pm"},{"categories":["Comedy"],"eDate":"2024-04-07","eName":"Mel & Sam: The Platonic Human Centipede","genre":null,"price":"$25.00 - 35.00","supports":[],"ticketUrl":null,"time":" 8:45pm"}],"vName":"The Toff In Town"},"type":"Feature"},{"geometry":{"coordinates":[144.9846126,-37.7989941],"type":"Point"},"properties":{"events":[{"categories":["Music"],"eDate":"2024-04-07","eName":"Lucas ‘Granpa’ Abela","genre":"Experimental","price":"$16.35","supports":["Yvette Ofa Agapow"," Teeth Dreams"],"ticketUrl":null,"time":" 7pm"}],"vName":"The Tote Hotel"},"type":"Feature"}],"type":"FeatureCollection"}