{"features":[{"geometry":{"coordinates":[144.9617018,-37.7704566],"type":"Point"},"properties":{"events":[{"categories":["Trivia"],"eDate":"2024-03-26","eName":"Human Love Quest","genre":null,"price":"$23.05","supports":[],"ticketUrl":null,"time":" 7:30pm"}],"vName":"Brunswick Ballroom"},"type":"Feature"},{"geometry":{"coordinates":[145.12326813392298,-38.14614695],"type":"Point"},"properties":{"events":[{"categories":["Dance"],"eDate":"2024-03-26","eName":"Ballroom Blitz","genre":null,"price":"$79.00 - 320.00","supports":[],"ticketUrl":null,"time":" 7:30pm"}],"vName":"Frankston Arts Centre"},"type":"Feature"},{"geometry":{"coordinates":[144.96741062735794,-37.82454855],"type":"Point"},"properties":{"events":[{"categories":["Music"],"eDate":"2024-03-26","eName":"Meshell Ndegeocello","genre":null,"price":"$55.00","supports":[],"ticketUrl":null,"time":" 7:30pm"}],"vName":"Melbourne Recital Centre"},"type":"Feature"},{"geometry":{"coordinates":[144.9555612,-37.8066759],"type":"Point"},"properties":{"events":[{"categories":["Free","Music"],"eDate":"2024-03-26","eName":"Tangled Up in Bluegrass","genre":"Country/Folk","price":"Free","supports":[],"ticketUrl":null,"time":" 8pm"}],"vName":"The Drunken Poet"},"type":"Feature"},{"geometry":{"coordinates":[144.9651425,-37.8119429],"type":"Point"},"properties":{"events":[{"categories":["Free","Music"],"eDate":"2024-03-26","eName":"Now.Here.This. Live Jazz","genre":"Jazz","price":"Free","supports":[],"ticketUrl":null,"time":" 5pm"}],"vName":"The Toff In Town"},"type":"Feature"}],"type":"FeatureCollection"}