{"features":[{"geometry":{"coordinates":[144.9982812,-37.7713296],"type":"Point"},"properties":{"events":[{"categories":["Free","Music"],"eDate":"2026-04-04","eName":"Rudi Soundsystem","genre":"Electronic","price":"Free","supports":[],"ticketUrl":null,"time":" 9pm"}],"vName":"Bar 303"},"type":"Feature"},{"geometry":{"coordinates":[144.978682,-37.7981225],"type":"Point"},"properties":{"events":[{"categories":["Free","Music"],"eDate":"2026-04-04","eName":"Lewis Toms","genre":null,"price":"Free","supports":[],"ticketUrl":null,"time":" 9pm"}],"vName":"Baxter's Lot"},"type":"Feature"},{"geometry":{"coordinates":[145.0004166,-37.7612582],"type":"Point"},"properties":{"events":[{"categories":["Music"],"eDate":"2026-04-04","eName":"Velatine","genre":null,"price":"$13.00","supports":["Suburban Spell"," Peaceworld"],"ticketUrl":null,"time":" 8pm"}],"vName":"Cactus Room"},"type":"Feature"},{"geometry":{"coordinates":[144.9713425,-37.8128595],"type":"Point"},"properties":{"events":[{"categories":["Free","Music"],"eDate":"2026-04-04","eName":"Willie J’s 6v6s","genre":"Rock","price":"Free","supports":[],"ticketUrl":null,"time":" 8:30pm"},{"categories":["Music"],"eDate":"2026-04-04","eName":"Boney M After Party","genre":null,"price":"Free","supports":[],"ticketUrl":null,"time":"11pm"}],"vName":"Cherry Bar"},"type":"Feature"},{"geometry":{"coordinates":[144.9627513,-37.760963],"type":"Point"},"properties":{"events":[{"categories":["Free","Music"],"eDate":"2026-04-04","eName":"Charlie Needs Braces x Little Legends Series","genre":"Country/Folk","price":"Free","supports":[],"ticketUrl":null,"time":" 2pm"}],"vName":"Edinburgh Castle Hotel"},"type":"Feature"},{"geometry":{"coordinates":[145.1232659,-38.1461351],"type":"Point"},"properties":{"events":[{"categories":["Comedy"],"eDate":"2026-04-04","eName":"Luke Kidgell: Good Intentions","genre":null,"price":"$55.00","supports":[],"ticketUrl":null,"time":" 7:30pm"}],"vName":"Frankston Arts Centre"},"type":"Feature"},{"geometry":{"coordinates":[144.9787378,-37.7954205],"type":"Point"},"properties":{"events":[{"categories":["Music"],"eDate":"2026-04-04","eName":"DRÉ + Slumdog","genre":"Electronic","price":"$0.00 - 30.00","supports":["Kerf"," Michael Cross"," Eddie Ridewood"," Nicole Hales"," EMP-P"],"ticketUrl":null,"time":" 8pm"}],"vName":"Glamorama"},"type":"Feature"},{"geometry":{"coordinates":[144.9679835,-37.8201575],"type":"Point"},"properties":{"events":[{"categories":["Music"],"eDate":"2026-04-04","eName":"Quick Fix at Half Six: Beethoven’s Second Symphony","genre":"Classical","price":"$20.00 - 99.00","supports":[],"ticketUrl":null,"time":" 6:30pm"}],"vName":"Hamer Hall (Arts Centre Melbourne)"},"type":"Feature"},{"geometry":{"coordinates":[145.0015248,-37.8258878],"type":"Point"},"properties":{"events":[{"categories":["Free","Music","Other \"Art \""],"eDate":"2026-04-04","eName":"Melb Blitz: Odeon Richmond 2nd Birthday","genre":"Electronic","price":"Free","supports":[],"ticketUrl":null,"time":" 7pm"}],"vName":"Odeon Richmond"},"type":"Feature"},{"geometry":{"coordinates":[144.96084,-37.813514],"type":"Point"},"properties":{"events":[{"categories":["Music"],"eDate":"2026-04-04","eName":"The Little Bourke Big Band: The Very Best of Nat King Cole with Ben McGill","genre":"Jazz","price":"Free","supports":[],"ticketUrl":null,"time":" 6pm"},{"categories":["Music"],"eDate":"2026-04-04","eName":"Stevie Wonder Ful","genre":"Soul/Funk","price":"Free","supports":[],"ticketUrl":null,"time":" 6:30pm"},{"categories":["Music"],"eDate":"2026-04-04","eName":"Paris Nocturne: A Celebration Of The Women Of Paris with Nikki Nouveau","genre":"Jazz","price":"$45.00","supports":[],"ticketUrl":null,"time":" 9pm"},{"categories":["Music"],"eDate":"2026-04-04","eName":"Oscar Bruten Septet Plays: The Music of Monk & Mingus","genre":"Jazz","price":"$45.00","supports":[],"ticketUrl":null,"time":" 9:30pm"}],"vName":"Paris Cat Jazz Club"},"type":"Feature"},{"geometry":{"coordinates":[144.9607404,-37.7743469],"type":"Point"},"properties":{"events":[{"categories":["Music"],"eDate":"2026-04-04","eName":"Deathbats Australia: A7X Tribute","genre":"Metal","price":"$30.00","supports":["Ausländers"," Aussietallica: The Metallica Tribute"," C()ntact"],"ticketUrl":null,"time":" 7pm"}],"vName":"Stay Gold"},"type":"Feature"},{"geometry":{"coordinates":[144.9657057,-37.8061581],"type":"Point"},"properties":{"events":[{"categories":["Music"],"eDate":"2026-04-04","eName":"Fairtrade Narcotics: Recession Pop Album Launch","genre":null,"price":"$25.00","supports":[],"ticketUrl":null,"time":" 8pm"}],"vName":"The Curtin"},"type":"Feature"},{"geometry":{"coordinates":[144.9879283,-37.7505509],"type":"Point"},"properties":{"events":[{"categories":["Music"],"eDate":"2026-04-04","eName":"The Deadly Apple-Johns","genre":"Country/Folk","price":"Free","supports":[],"ticketUrl":null,"time":" 7pm"}],"vName":"The Merri Bar"},"type":"Feature"},{"geometry":{"coordinates":[144.9794553,-37.7982653],"type":"Point"},"properties":{"events":[{"categories":["Music"],"eDate":"2026-04-04","eName":"Owelu Dreamhouse","genre":"Soul/Funk","price":"$39.69","supports":[],"ticketUrl":null,"time":" 7:30pm"}],"vName":"The Night Cat"},"type":"Feature"},{"geometry":{"coordinates":[144.9661635,-37.8176298],"type":"Point"},"properties":{"events":[{"categories":["Music"],"eDate":"2026-04-04","eName":"Muroki","genre":null,"price":"$34.90","supports":["Foley"],"ticketUrl":null,"time":" 8pm"}],"vName":"Wax Music Lounge"},"type":"Feature"},{"geometry":{"coordinates":[144.9984324,-37.7729134],"type":"Point"},"properties":{"events":[{"categories":["Music"],"eDate":"2026-04-04","eName":"Xanthe","genre":"R&B","price":"Free","supports":[],"ticketUrl":null,"time":" 6pm"}],"vName":"Wesley Anne"},"type":"Feature"}],"type":"FeatureCollection"}