{"features":[{"geometry":{"coordinates":[144.9982812,-37.7713296],"type":"Point"},"properties":{"events":[{"categories":["Music"],"eDate":"2025-06-04","eName":"Hector Harley Quartet + Mia Barham Group","genre":"Jazz","price":"$15.00","supports":[],"ticketUrl":null,"time":" 7:30pm"}],"vName":"Bar 303"},"type":"Feature"},{"geometry":{"coordinates":[144.978682,-37.7981225],"type":"Point"},"properties":{"events":[{"categories":["Free","Music"],"eDate":"2025-06-04","eName":"Maven Duo","genre":null,"price":"Free","supports":[],"ticketUrl":null,"time":" 9pm"}],"vName":"Baxter's Lot"},"type":"Feature"},{"geometry":{"coordinates":[144.9945274,-37.8001115],"type":"Point"},"properties":{"events":[{"categories":["Other \"Food \"","Music","Free"],"eDate":"2025-06-04","eName":"Deep Cuts Jam Session: J Dilla Special","genre":null,"price":"Free","supports":[],"ticketUrl":null,"time":" 7:30pm"}],"vName":"Bodriggy Brewing Company"},"type":"Feature"},{"geometry":{"coordinates":[145.0314658,-37.8067273],"type":"Point"},"properties":{"events":[{"categories":["Music"],"eDate":"2025-06-04","eName":"Kew Court House Live: Yours, Georgina + Riley Catherall","genre":"Indie","price":"$20.00","supports":[],"ticketUrl":null,"time":" 7:30pm"}],"vName":"Kew Court House"},"type":"Feature"},{"geometry":{"coordinates":[145.1334272,-37.9135736],"type":"Point"},"properties":{"events":[{"categories":["Music"],"eDate":"2025-06-04","eName":"Blakout: Jess Hitchcock","genre":"Pop","price":"$20.00 - 35.00","supports":[],"ticketUrl":null,"time":" 6:30pm"}],"vName":"The Ian Potter Centre for Performing Arts"},"type":"Feature"}],"type":"FeatureCollection"}