{"features":[{"geometry":{"coordinates":[144.9500257,-37.8032773],"type":"Point"},"properties":{"events":[{"categories":["Music","Other \"Art \""],"eDate":"2026-02-13","eName":"Worlds Only & Junior Major present Stable Confusion (Live A/V)","genre":"Electronic","price":"$40.00","supports":["Liam Keenan"," Nick Klein"],"ticketUrl":null,"time":" 7pm"}],"vName":"Arts House"},"type":"Feature"},{"geometry":{"coordinates":[144.9982812,-37.7713296],"type":"Point"},"properties":{"events":[{"categories":["Music"],"eDate":"2026-02-13","eName":"The Magic Garden Summer Carnival","genre":"Electronic","price":"Free","supports":[],"ticketUrl":null,"time":" 8:30pm"}],"vName":"Bar 303"},"type":"Feature"},{"geometry":{"coordinates":[144.978682,-37.7981225],"type":"Point"},"properties":{"events":[{"categories":["Free","Music"],"eDate":"2026-02-13","eName":"Tejo D’Cruz","genre":null,"price":"Free","supports":[],"ticketUrl":null,"time":" 9pm"}],"vName":"Baxter's Lot"},"type":"Feature"},{"geometry":{"coordinates":[144.9607158,-37.776327],"type":"Point"},"properties":{"events":[{"categories":["Music"],"eDate":"2026-02-13","eName":"Bootleg Rascal","genre":"Hip Hop","price":"$22.95 - 28.05","supports":[],"ticketUrl":null,"time":" 8pm"}],"vName":"Bergy Bandroom"},"type":"Feature"},{"geometry":{"coordinates":[144.9568039,-37.8111442],"type":"Point"},"properties":{"events":[{"categories":["Music"],"eDate":"2026-02-13","eName":"Tottie Goldsmith & Band Present: Olivia – The Songs & Stories Of My Life With Olivia Newton-John","genre":"Pop","price":"$40.00","supports":[],"ticketUrl":null,"time":" 6pm"}],"vName":"Bird's Basement"},"type":"Feature"},{"geometry":{"coordinates":[144.9617083,-37.7704205],"type":"Point"},"properties":{"events":[{"categories":["Free","Music"],"eDate":"2026-02-13","eName":"Jungle Jim","genre":"Blues","price":"Free","supports":[],"ticketUrl":null,"time":" 8:30pm"}],"vName":"Brunswick Artists' Bar"},"type":"Feature"},{"geometry":{"coordinates":[145.0004166,-37.7612582],"type":"Point"},"properties":{"events":[{"categories":["Music"],"eDate":"2026-02-13","eName":"Sansonus","genre":null,"price":"$15.00","supports":["Frons"," Confetti Western"],"ticketUrl":null,"time":" 8pm"},{"categories":["Music"],"eDate":"2026-02-13","eName":"sansonus","genre":null,"price":"$13.80","supports":["Frons"," Confetti Western"],"ticketUrl":null,"time":" 8pm"}],"vName":"Cactus Room"},"type":"Feature"},{"geometry":{"coordinates":[144.9713425,-37.8128595],"type":"Point"},"properties":{"events":[{"categories":["Music"],"eDate":"2026-02-13","eName":"Keli Holiday","genre":"Indie","price":"$10.00 - 12.00","supports":[],"ticketUrl":null,"time":" 5:30pm"},{"categories":["Free","Music"],"eDate":"2026-02-13","eName":"Cock Rock: From Sunset To Sunrise","genre":"Rock","price":"Free","supports":[],"ticketUrl":null,"time":" 9pm"},{"categories":["Free","Music"],"eDate":"2026-02-13","eName":"Cherryoke: Live Band Karaoke","genre":"Rock","price":"Free","supports":[],"ticketUrl":null,"time":" 9pm"}],"vName":"Cherry Bar"},"type":"Feature"},{"geometry":{"coordinates":[144.9926664,-37.8248893],"type":"Point"},"properties":{"events":[{"categories":["Music"],"eDate":"2026-02-13","eName":"NOASIS","genre":"Rock","price":"$49.10","supports":[],"ticketUrl":null,"time":" 7:30pm"}],"vName":"Corner Hotel"},"type":"Feature"},{"geometry":{"coordinates":[144.9784379,-37.7975956],"type":"Point"},"properties":{"events":[{"categories":["Music"],"eDate":"2026-02-13","eName":"Sasha Millar","genre":"Soul/Funk","price":"$30.00","supports":["Jay Jarome"," Tereza Biezaite"],"ticketUrl":null,"time":" 7pm"}],"vName":"Creatures of Habit Bar & Bandroom"},"type":"Feature"},{"geometry":{"coordinates":[144.9627513,-37.760963],"type":"Point"},"properties":{"events":[{"categories":["Free","Music"],"eDate":"2026-02-13","eName":"Get Rumpus","genre":null,"price":"Free","supports":[],"ticketUrl":null,"time":" 8pm"}],"vName":"Edinburgh Castle Hotel"},"type":"Feature"},{"geometry":{"coordinates":[144.9777885,-37.8597831],"type":"Point"},"properties":{"events":[{"categories":["Music"],"eDate":"2026-02-13","eName":"Cliff Raux Duo","genre":"Indie","price":"Free","supports":[],"ticketUrl":null,"time":" 8pm"},{"categories":["Music"],"eDate":"2026-02-13","eName":"DJ Lyndon","genre":"Electronic","price":"Free","supports":[],"ticketUrl":null,"time":"11pm"}],"vName":"Freddie Wimpoles"},"type":"Feature"},{"geometry":{"coordinates":[144.9780305,-37.8599731],"type":"Point"},"properties":{"events":[{"categories":["Music"],"eDate":"2026-02-13","eName":"Atomic: The Songs Of Blondie","genre":"Rock","price":"$48.00","supports":[],"ticketUrl":null,"time":" 7pm"}],"vName":"George Lane"},"type":"Feature"},{"geometry":{"coordinates":[144.983442,-37.804851],"type":"Point"},"properties":{"events":[{"categories":["Music"],"eDate":"2026-02-13","eName":"Uriel’s Bath","genre":"Indie","price":"$15.00 - 20.00","supports":["Absurd Cosmos Late Nite"," Alex MacFarlane"," Jack Hewitt"," Elena Hickey"],"ticketUrl":null,"time":" 7:30pm"}],"vName":"Grace Darling Hotel"},"type":"Feature"},{"geometry":{"coordinates":[144.9679835,-37.8201575],"type":"Point"},"properties":{"events":[{"categories":["Other \"Spoken Word, Poetry \""],"eDate":"2026-02-13","eName":"Pod Save America","genre":null,"price":"$89.90 - 109.90","supports":[],"ticketUrl":null,"time":" 8pm"}],"vName":"Hamer Hall (Arts Centre Melbourne)"},"type":"Feature"},{"geometry":{"coordinates":[144.9936498,-37.8000264],"type":"Point"},"properties":{"events":[{"categories":["Music"],"eDate":"2026-02-13","eName":"Little John","genre":"Indie","price":"Free","supports":["Nathan Hollywood"],"ticketUrl":null,"time":" 9pm"}],"vName":"Lulie Tavern"},"type":"Feature"},{"geometry":{"coordinates":[144.9712356,-37.812902],"type":"Point"},"properties":{"events":[{"categories":["Music"],"eDate":"2026-02-13","eName":"Marcus Knight","genre":"Electronic","price":"$16.85","supports":[],"ticketUrl":null,"time":" 6pm"},{"categories":["Music"],"eDate":"2026-02-13","eName":"Kayla Bruno","genre":"Electronic","price":"$16.85","supports":[],"ticketUrl":null,"time":"10pm"}],"vName":"Morris House"},"type":"Feature"},{"geometry":{"coordinates":[144.9833121,-37.8062477],"type":"Point"},"properties":{"events":[{"categories":["Music"],"eDate":"2026-02-13","eName":"Reasons: Snad + Neil","genre":"Electronic","price":"Free","supports":[],"ticketUrl":null,"time":"10pm"},{"categories":["Music"],"eDate":"2026-02-13","eName":"First Drop Events: New Guernica Takeover","genre":"Electronic","price":"$17.19","supports":[],"ticketUrl":null,"time":"10pm"},{"categories":["Music"],"eDate":"2026-02-13","eName":"Telemuzik Presents Eden Burns & Ed Kent","genre":"Electronic","price":"Free","supports":[],"ticketUrl":null,"time":"10pm"}],"vName":"New Guernica"},"type":"Feature"},{"geometry":{"coordinates":[144.998414,-37.771471],"type":"Point"},"properties":{"events":[{"categories":["Music"],"eDate":"2026-02-13","eName":"Sachiko Kanenobu","genre":"Country/Folk","price":"$40.40 - 60.00","supports":["Basty"],"ticketUrl":null,"time":" 8:30pm"}],"vName":"Northcote Social Club"},"type":"Feature"},{"geometry":{"coordinates":[144.97711,-37.79833],"type":"Point"},"properties":{"events":[{"categories":["Music"],"eDate":"2026-02-13","eName":"Knight Rider","genre":"Metal","price":"$11.25","supports":["Penalty"," Paper Street"],"ticketUrl":null,"time":" 8pm"},{"categories":["Music"],"eDate":"2026-02-13","eName":"DJ Asio","genre":"Electronic","price":"Free","supports":[],"ticketUrl":null,"time":"11:45pm"}],"vName":"Old Bar"},"type":"Feature"},{"geometry":{"coordinates":[144.96084,-37.813514],"type":"Point"},"properties":{"events":[{"categories":["Music"],"eDate":"2026-02-13","eName":"Georga Byrne Presents: Gatsby Jazz With A Twist","genre":"Jazz","price":"$45.00","supports":[],"ticketUrl":null,"time":" 6pm"},{"categories":["Music"],"eDate":"2026-02-13","eName":"Phoebe Sena Presents Love Deluxe: The Sade Tribute Show","genre":"R&B","price":"$48.00","supports":[],"ticketUrl":null,"time":" 6:30pm"},{"categories":["Music"],"eDate":"2026-02-13","eName":"R&R: Rebecca Cardamone & Richard Pavlidis","genre":"Jazz","price":"$45.00","supports":[],"ticketUrl":null,"time":" 9pm"},{"categories":["Music"],"eDate":"2026-02-13","eName":"The Aretha Franklin Project with Joys Njambi","genre":"Jazz","price":"$45.00","supports":[],"ticketUrl":null,"time":" 9:30pm"}],"vName":"Paris Cat Jazz Club"},"type":"Feature"},{"geometry":{"coordinates":[144.9583409,-37.7664168],"type":"Point"},"properties":{"events":[{"categories":["Music"],"eDate":"2026-02-13","eName":"Bistroteque #2: Bridget Small + Elsie","genre":"Electronic","price":"$17.10","supports":[],"ticketUrl":null,"time":" 9pm"}],"vName":"Quadraphonic Club"},"type":"Feature"},{"geometry":{"coordinates":[144.9746525926778,-37.823819181966286],"type":"Point"},"properties":{"events":[{"categories":["Free","Music"],"eDate":"2026-02-13","eName":"Melbourne Symphony Orchestra x Find Your Voice Collective","genre":"Classical","price":"Free","supports":[],"ticketUrl":null,"time":" 5pm"}],"vName":"Sidney Myer Music Bowl"},"type":"Feature"},{"geometry":{"coordinates":[144.9607404,-37.7743469],"type":"Point"},"properties":{"events":[{"categories":["Music"],"eDate":"2026-02-13","eName":"Aburden 10 Year Anniversary","genre":"Metal","price":"$25.00","supports":["Alera"," 50fifty"," Some Heard Trouble"],"ticketUrl":null,"time":" 7pm"}],"vName":"Stay Gold"},"type":"Feature"},{"geometry":{"coordinates":[145.1818891,-37.8163371],"type":"Point"},"properties":{"events":[{"categories":["Music","Theatre"],"eDate":"2026-02-13","eName":"Queen Forever","genre":"Rock","price":"$75.00","supports":[],"ticketUrl":null,"time":" 7:30pm"}],"vName":"The Round"},"type":"Feature"},{"geometry":{"coordinates":[144.9998797,-37.7616512],"type":"Point"},"properties":{"events":[{"categories":["Music"],"eDate":"2026-02-13","eName":"Jumpin Jack Jordan","genre":"Jazz","price":"Free","supports":[],"ticketUrl":null,"time":" 8pm"}],"vName":"The Thornbury Local"},"type":"Feature"},{"geometry":{"coordinates":[144.9651425,-37.8119429],"type":"Point"},"properties":{"events":[{"categories":["Music"],"eDate":"2026-02-13","eName":"PRYVT","genre":"Rock","price":"$54.06","supports":[],"ticketUrl":null,"time":" 7pm"}],"vName":"The Toff In Town"},"type":"Feature"},{"geometry":{"coordinates":[144.9769451,-37.8055776],"type":"Point"},"properties":{"events":[{"categories":["Music"],"eDate":"2026-02-13","eName":"Long Hours","genre":null,"price":"$12.75 - 15.00","supports":["Human Intrusion"," Blood In The Champagne"],"ticketUrl":null,"time":" 7pm"}],"vName":"The Workers Club"},"type":"Feature"},{"geometry":{"coordinates":[144.9661635,-37.8176298],"type":"Point"},"properties":{"events":[{"categories":["Free","Music"],"eDate":"2026-02-13","eName":"Downstairs Disco: Steely Ann & Guests","genre":"Electronic","price":"Free","supports":[],"ticketUrl":null,"time":" 9pm"}],"vName":"Wax Music Lounge"},"type":"Feature"},{"geometry":{"coordinates":[144.9984324,-37.7729134],"type":"Point"},"properties":{"events":[{"categories":["Music"],"eDate":"2026-02-13","eName":"Szara Fox & Andrew Darling","genre":"Acoustic","price":"Free","supports":[],"ticketUrl":null,"time":" 6pm"}],"vName":"Wesley Anne"},"type":"Feature"},{"geometry":{"coordinates":[144.9618781,-37.8126316],"type":"Point"},"properties":{"events":[{"categories":["Free","Music"],"eDate":"2026-02-13","eName":"Fridays With Mike Gurrieri: Mansa & Friends","genre":null,"price":"Free","supports":[],"ticketUrl":null,"time":" 4pm"}],"vName":"Whitehart Bar"},"type":"Feature"}],"type":"FeatureCollection"}