{"features":[{"geometry":{"coordinates":[144.9715791,-37.8140656],"type":"Point"},"properties":{"events":[{"categories":["Theatre"],"eDate":"2024-06-16","eName":"The Woman in Black (Matinee)","genre":null,"price":"$55.00 - 129.00","supports":[],"ticketUrl":null,"time":" 1pm"},{"categories":["Theatre"],"eDate":"2024-06-16","eName":"The Woman in Black","genre":null,"price":"$55.00 - 129.00","supports":[],"ticketUrl":null,"time":" 6pm"}],"vName":"Athenaeum Theatre"},"type":"Feature"},{"geometry":{"coordinates":[144.9945274,-37.8001115],"type":"Point"},"properties":{"events":[{"categories":["Free","Music","Other \"Food & Drink\""],"eDate":"2024-06-16","eName":"Gypsy King Jones + Nanas Mojito","genre":"Blues","price":"Free","supports":[],"ticketUrl":null,"time":" 4pm"}],"vName":"Bodriggy Brewing Company"},"type":"Feature"},{"geometry":{"coordinates":[144.9248037207342,-37.7656716],"type":"Point"},"properties":{"events":[{"categories":["Comedy"],"eDate":"2024-06-16","eName":"Club Clocktower: Comedy Night","genre":null,"price":"$10.00","supports":[],"ticketUrl":null,"time":" 6pm"}],"vName":"Clocktower Centre"},"type":"Feature"},{"geometry":{"coordinates":[144.9631913,-37.7617818],"type":"Point"},"properties":{"events":[{"categories":["Music"],"eDate":"2024-06-16","eName":"Line Experiment + Liam Perry","genre":"Jazz","price":"$10.00 - 15.00","supports":[],"ticketUrl":null,"time":" 8pm"}],"vName":"Ringo Barr"},"type":"Feature"},{"geometry":{"coordinates":[145.35345070507591,-37.9100746],"type":"Point"},"properties":{"events":[{"categories":["Music"],"eDate":"2024-06-16","eName":"Donovan Woods","genre":"Rock","price":"$52.05","supports":[],"ticketUrl":null,"time":" 7pm"}],"vName":"Sooki Lounge"},"type":"Feature"},{"geometry":{"coordinates":[144.9846126,-37.7989941],"type":"Point"},"properties":{"events":[{"categories":["Music"],"eDate":"2024-06-16","eName":"The Seventh Circle","genre":"Metal","price":"$11.25","supports":["Volt Jolt"," Psychosybin"],"ticketUrl":null,"time":" 7pm"}],"vName":"The Tote Hotel"},"type":"Feature"}],"type":"FeatureCollection"}