{"features":[{"geometry":{"coordinates":[144.978682,-37.7981225],"type":"Point"},"properties":{"events":[{"categories":["Free","Music"],"eDate":"2025-03-07","eName":"Lewis Ciavarella","genre":null,"price":"Free","supports":[],"ticketUrl":null,"time":" 9pm"},{"categories":["Music"],"eDate":"2025-03-07","eName":"DJ Nomar Jr","genre":"Electronic","price":"Free","supports":[],"ticketUrl":null,"time":"10pm"}],"vName":"Baxter's Lot"},"type":"Feature"},{"geometry":{"coordinates":[144.9607158,-37.776327],"type":"Point"},"properties":{"events":[{"categories":["Music"],"eDate":"2025-03-07","eName":"Turtle Skull","genre":"Rock","price":"$28.05","supports":["The Maggie Pills"," Bellhop"],"ticketUrl":null,"time":" 8pm"}],"vName":"Bergy Bandroom"},"type":"Feature"},{"geometry":{"coordinates":[144.9567859,-37.8111049],"type":"Point"},"properties":{"events":[{"categories":["Music"],"eDate":"2025-03-07","eName":"SING!","genre":"Pop","price":"$38.00","supports":[],"ticketUrl":null,"time":" 7:30pm"}],"vName":"Bird's Basement"},"type":"Feature"},{"geometry":{"coordinates":[144.9617018,-37.7704566],"type":"Point"},"properties":{"events":[{"categories":["Music"],"eDate":"2025-03-07","eName":"Brunswick Music Festival & The Brunswick Ballroom Presents: Sound Bites","genre":null,"price":"$54.67","supports":[],"ticketUrl":null,"time":" 7pm"}],"vName":"Brunswick Ballroom"},"type":"Feature"},{"geometry":{"coordinates":[145.00025846036164,-37.7592368],"type":"Point"},"properties":{"events":[{"categories":["Music"],"eDate":"2025-03-07","eName":"Out of this World","genre":"Pop","price":"$10.00","supports":[],"ticketUrl":null,"time":" 8pm"}],"vName":"Cafe Gummo"},"type":"Feature"},{"geometry":{"coordinates":[144.9248037207342,-37.7656716],"type":"Point"},"properties":{"events":[{"categories":["Other \"Spoken Word\"","Other \"Poetry & Forums\""],"eDate":"2025-03-07","eName":"International Women’s Day Breakfast","genre":null,"price":"$65.00","supports":[],"ticketUrl":null,"time":" 7am"}],"vName":"Clocktower Centre"},"type":"Feature"},{"geometry":{"coordinates":[144.9668096,-37.8133834],"type":"Point"},"properties":{"events":[{"categories":["Comedy"],"eDate":"2025-03-07","eName":"James Barr: Sorry I Hurt Your Son (Said My Ex To My Mum)","genre":null,"price":"$30.00","supports":[],"ticketUrl":null,"time":" 6:30pm"}],"vName":"Comedy Republic"},"type":"Feature"},{"geometry":{"coordinates":[144.99266639479475,-37.82488935],"type":"Point"},"properties":{"events":[{"categories":["Music"],"eDate":"2025-03-07","eName":"Queen Omega & The Royal Souls","genre":"Global","price":"$76.15","supports":["Housewife's Choice"," Troublemekka"," Itations"],"ticketUrl":null,"time":" 8pm"}],"vName":"Corner Hotel"},"type":"Feature"},{"geometry":{"coordinates":[144.1431519,-37.3411358],"type":"Point"},"properties":{"events":[{"categories":["Music","Dance"],"eDate":"2025-03-07","eName":"Welcome Drinks for Chillout Festival","genre":"Electronic","price":"$25.50","supports":[],"ticketUrl":null,"time":" 6pm"}],"vName":"Daylesford Hotel"},"type":"Feature"},{"geometry":{"coordinates":[144.98535244416098,-37.79426315],"type":"Point"},"properties":{"events":[{"categories":["Music"],"eDate":"2025-03-07","eName":"Inhibitor + Rat Tomb","genre":"Metal","price":"$28.60","supports":["Carthus"," Kniver"],"ticketUrl":null,"time":" 7pm"},{"categories":["Music"],"eDate":"2025-03-07","eName":"Letters To Lions","genre":"Rock","price":"$34.70","supports":[],"ticketUrl":null,"time":" 8pm"}],"vName":"Gasometer Hotel"},"type":"Feature"},{"geometry":{"coordinates":[144.9679835243618,-37.8201575],"type":"Point"},"properties":{"events":[{"categories":["Music"],"eDate":"2025-03-07","eName":"MSO Mornings: Tchaikovsky's Fourth Symphony","genre":"Classical","price":"$62.00","supports":[],"ticketUrl":null,"time":"11am"}],"vName":"Hamer Hall (Arts Centre Melbourne)"},"type":"Feature"},{"geometry":{"coordinates":[144.973013,-37.8640582],"type":"Point"},"properties":{"events":[{"categories":["Music"],"eDate":"2025-03-07","eName":"On Repeat: The 1975","genre":"Indie","price":"$11.75 - 22.95","supports":[],"ticketUrl":null,"time":" 9pm"}],"vName":"Hotel Esplanade (aka The Espy)"},"type":"Feature"},{"geometry":{"coordinates":[144.9596527,-37.7720304],"type":"Point"},"properties":{"events":[{"categories":["Music"],"eDate":"2025-03-07","eName":"Brunswick Music Festival: Pachyman","genre":"Electronic","price":"$44.37","supports":[],"ticketUrl":null,"time":" 8pm"}],"vName":"Howler"},"type":"Feature"},{"geometry":{"coordinates":[145.0355738,-37.8205529],"type":"Point"},"properties":{"events":[{"categories":["Music"],"eDate":"2025-03-07","eName":"Sarah Carso Quartet","genre":"Jazz","price":"$25.00 - 30.00","supports":[],"ticketUrl":null,"time":" 8pm"}],"vName":"Lido Jazz Room"},"type":"Feature"},{"geometry":{"coordinates":[144.8971518,-37.8054274],"type":"Point"},"properties":{"events":[{"categories":["Free","Music"],"eDate":"2025-03-07","eName":"Pink Rock Salt","genre":null,"price":"Free","supports":["Astral High"," Gesunolike"," The Clones"],"ticketUrl":null,"time":" 7:30pm"}],"vName":"Mamma Chen's"},"type":"Feature"},{"geometry":{"coordinates":[144.9786817,-37.8671902],"type":"Point"},"properties":{"events":[{"categories":["Music"],"eDate":"2025-03-07","eName":"AshenMoon","genre":"Rock","price":"$30.00 - 45.00","supports":[],"ticketUrl":null,"time":" 7pm"}],"vName":"Memo Music Hall"},"type":"Feature"},{"geometry":{"coordinates":[145.3553553,-37.9078552],"type":"Point"},"properties":{"events":[{"categories":["Free","Music","Other \"Food & Drink\""],"eDate":"2025-03-07","eName":"Labour Day Long Weekend","genre":"Acoustic","price":"Free","supports":[],"ticketUrl":null,"time":"12pm"}],"vName":"Micawber Tavern"},"type":"Feature"},{"geometry":{"coordinates":[144.9712356,-37.812902],"type":"Point"},"properties":{"events":[{"categories":["Comedy"],"eDate":"2025-03-07","eName":"Basement Comedy Club","genre":null,"price":"$24.00","supports":[],"ticketUrl":null,"time":" 8pm"}],"vName":"Morris House"},"type":"Feature"},{"geometry":{"coordinates":[144.998414,-37.771471],"type":"Point"},"properties":{"events":[{"categories":["Free","Other \"Film\""],"eDate":"2025-03-07","eName":"Gladiator (Film Screening)","genre":null,"price":"Free","supports":[],"ticketUrl":null,"time":" 7:30pm"}],"vName":"Northcote Social Club"},"type":"Feature"},{"geometry":{"coordinates":[144.97711,-37.79833],"type":"Point"},"properties":{"events":[{"categories":["Music"],"eDate":"2025-03-07","eName":"Lucy's Disorder","genre":"Rock","price":"$11.25","supports":["Assorted Pleasures"," The Clever References"],"ticketUrl":null,"time":" 8pm"}],"vName":"Old Bar"},"type":"Feature"},{"geometry":{"coordinates":[144.9605705,-37.8132486],"type":"Point"},"properties":{"events":[{"categories":["Music"],"eDate":"2025-03-07","eName":"Annemarie Sharry's BOSSARACH","genre":"Jazz","price":"$40.00","supports":[],"ticketUrl":null,"time":" 6pm"},{"categories":["Music"],"eDate":"2025-03-07","eName":"Born to Be Blue: Celebrating the musical life of Chet Baker","genre":"Jazz","price":"$45.00","supports":[],"ticketUrl":null,"time":" 6:30pm"},{"categories":["Music"],"eDate":"2025-03-07","eName":"The Radiohead Project with Amelia Evans","genre":"Jazz","price":"$45.00","supports":[],"ticketUrl":null,"time":" 9pm"},{"categories":["Music"],"eDate":"2025-03-07","eName":"Richard Pavlidis - Impressions: The Music Of John Coltrane","genre":"Jazz","price":"$45.00","supports":[],"ticketUrl":null,"time":" 9:30pm"}],"vName":"Paris Cat Jazz Club"},"type":"Feature"},{"geometry":{"coordinates":[144.9615882,-37.7711432],"type":"Point"},"properties":{"events":[{"categories":["Music"],"eDate":"2025-03-07","eName":"Large Mirage","genre":"Rock","price":"$15.00 - 20.00","supports":["Holiday Mystics"," Ramona Sky"],"ticketUrl":null,"time":" 7:30pm"}],"vName":"Retreat Hotel"},"type":"Feature"},{"geometry":{"coordinates":[144.993413,-37.8506652],"type":"Point"},"properties":{"events":[{"categories":["Music"],"eDate":"2025-03-07","eName":"Pirate Mafia","genre":null,"price":"$0.00 - 25.00","supports":["O_T"," Toxoid"," Lumes"," Discourse"," Trazy"," Crave"," DJ Wallzee"," Slap618"],"ticketUrl":null,"time":" 8:30pm"}],"vName":"Revolver Upstairs"},"type":"Feature"},{"geometry":{"coordinates":[144.9607404,-37.7743469],"type":"Point"},"properties":{"events":[{"categories":["Music"],"eDate":"2025-03-07","eName":"New Residence","genre":"Electronic","price":"$11.65","supports":[],"ticketUrl":null,"time":" 6pm"},{"categories":["Music"],"eDate":"2025-03-07","eName":"Deftones Appreciation Night III","genre":"Metal","price":"$14.00 - 19.90","supports":[],"ticketUrl":null,"time":"11pm"}],"vName":"Stay Gold"},"type":"Feature"},{"geometry":{"coordinates":[144.99959550357977,-37.762376950000004],"type":"Point"},"properties":{"events":[{"categories":["Music"],"eDate":"2025-03-07","eName":"Osees","genre":"Punk","price":"$72.45","supports":["Kissland"," Sleeper & Snake"],"ticketUrl":null,"time":" 7:30pm"}],"vName":"The Croxton"},"type":"Feature"},{"geometry":{"coordinates":[144.958676,-37.7669571],"type":"Point"},"properties":{"events":[{"categories":["Music"],"eDate":"2025-03-07","eName":"Rai Thistlethwayte with Ben Vanderwal","genre":"Jazz","price":"$35.00 - 40.00","supports":[],"ticketUrl":null,"time":" 8pm"}],"vName":"The Jazzlab"},"type":"Feature"},{"geometry":{"coordinates":[144.9708437,-37.7973184],"type":"Point"},"properties":{"events":[{"categories":["Free","Music"],"eDate":"2025-03-07","eName":"Mark Morand's Jazz Fridays","genre":"Jazz","price":"Free","supports":[],"ticketUrl":null,"time":" 6:30pm"}],"vName":"The Motley Bauhaus"},"type":"Feature"},{"geometry":{"coordinates":[144.9830837,-37.7988316],"type":"Point"},"properties":{"events":[{"categories":["Music"],"eDate":"2025-03-07","eName":"Sun Ra Arkestra","genre":"Jazz","price":"$69.90 - 89.90","supports":[],"ticketUrl":null,"time":" 7:30pm"},{"categories":["Music"],"eDate":"2025-03-07","eName":"Novel Presents: Sofia Kourtesis","genre":"Electronic","price":"$29.57 - 34.66","supports":["Mordi"],"ticketUrl":null,"time":"11pm"}],"vName":"The Night Cat"},"type":"Feature"},{"geometry":{"coordinates":[145.0010957,-37.7546577],"type":"Point"},"properties":{"events":[{"categories":["Music"],"eDate":"2025-03-07","eName":"The Petersens: Ozarks to Oz","genre":"Country/Folk","price":"$45.90","supports":["Colin Buchanan"],"ticketUrl":null,"time":" 7pm"}],"vName":"The Thornbury Theatre"},"type":"Feature"},{"geometry":{"coordinates":[144.9651425,-37.8119429],"type":"Point"},"properties":{"events":[{"categories":["Free","Music"],"eDate":"2025-03-07","eName":"Garçon Presents: Is That Garage?","genre":"Electronic","price":"Free","supports":[],"ticketUrl":null,"time":"10pm"}],"vName":"The Toff In Town"},"type":"Feature"},{"geometry":{"coordinates":[144.9846126,-37.7989941],"type":"Point"},"properties":{"events":[{"categories":["Music"],"eDate":"2025-03-07","eName":"Reaper","genre":"Metal","price":"$23.50","supports":["Hormagaunt"," more"],"ticketUrl":null,"time":" 8:30pm"},{"categories":["Music"],"eDate":"2025-03-07","eName":"Man Crave","genre":"Rock","price":"$11.25","supports":["Star Jock"," Pepper La Floyd"],"ticketUrl":null,"time":" 8:30pm"}],"vName":"The Tote Hotel"},"type":"Feature"},{"geometry":{"coordinates":[144.9769450659087,-37.8055776],"type":"Point"},"properties":{"events":[{"categories":["Music"],"eDate":"2025-03-07","eName":"Rock en Español: Frisbee","genre":"Rock","price":"$23.50","supports":["Paul André"," Los Más Altos"],"ticketUrl":null,"time":" 8pm"}],"vName":"The Workers Club"},"type":"Feature"},{"geometry":{"coordinates":[144.97609390481176,-37.86415685],"type":"Point"},"properties":{"events":[{"categories":["Theatre"],"eDate":"2025-03-07","eName":"Three Sisters","genre":null,"price":"$55.00","supports":[],"ticketUrl":null,"time":" 7:30pm"}],"vName":"Theatre Works"},"type":"Feature"}],"type":"FeatureCollection"}