{"features":[{"geometry":{"coordinates":[144.9679369,-37.8120109],"type":"Point"},"properties":{"events":[{"categories":["Music"],"eDate":"2024-02-04","eName":"grandson","genre":"Rock","price":"$69.90","supports":["Bakers Eddy"],"ticketUrl":null,"time":" 8pm"}],"vName":"170 Russell"},"type":"Feature"},{"geometry":{"coordinates":[144.9763781,-37.7983136],"type":"Point"},"properties":{"events":[{"categories":["Music"],"eDate":"2024-02-04","eName":"Charismatic Records","genre":"Hip Hop","price":"$15.00","supports":[],"ticketUrl":null,"time":" 8pm"}],"vName":"Bad Decisions Bar"},"type":"Feature"},{"geometry":{"coordinates":[144.9945274,-37.8001115],"type":"Point"},"properties":{"events":[{"categories":["Free","Music","Other \"Food & Drink\""],"eDate":"2024-02-04","eName":"Hot Tubs Time Machine + The Chops","genre":null,"price":"Free","supports":[],"ticketUrl":null,"time":" 3pm"}],"vName":"Bodriggy Brewing Company"},"type":"Feature"},{"geometry":{"coordinates":[145.3553553,-37.9078552],"type":"Point"},"properties":{"events":[{"categories":["Free","Music"],"eDate":"2024-02-04","eName":"Playlist Acoustic Duo","genre":"Acoustic","price":"Free","supports":[],"ticketUrl":null,"time":" 1pm"}],"vName":"Micawber Tavern"},"type":"Feature"},{"geometry":{"coordinates":[144.9631913,-37.7617818],"type":"Point"},"properties":{"events":[{"categories":["Free","Music"],"eDate":"2024-02-04","eName":"Kirrilee + Oliver Kyss + Teyo Turner","genre":"Pop","price":"Free","supports":[],"ticketUrl":null,"time":" 2:30pm"},{"categories":["Music"],"eDate":"2024-02-04","eName":"Portia Tang + Alexander Nettelbeck","genre":"Jazz","price":"$16.00","supports":[],"ticketUrl":null,"time":" 8pm"}],"vName":"Ringo Barr"},"type":"Feature"}],"type":"FeatureCollection"}