{"features":[{"geometry":{"coordinates":[144.9982812,-37.7713296],"type":"Point"},"properties":{"events":[{"categories":["Music"],"eDate":"2025-10-30","eName":"Cold Snap","genre":"Blues","price":"$20.00","supports":[],"ticketUrl":null,"time":" 8pm"}],"vName":"Bar 303"},"type":"Feature"},{"geometry":{"coordinates":[144.978682,-37.7981225],"type":"Point"},"properties":{"events":[{"categories":["Free","Music"],"eDate":"2025-10-30","eName":"Mya Rogers","genre":null,"price":"Free","supports":[],"ticketUrl":null,"time":" 9pm"}],"vName":"Baxter's Lot"},"type":"Feature"},{"geometry":{"coordinates":[144.9607158,-37.776327],"type":"Point"},"properties":{"events":[{"categories":["Music","Festival"],"eDate":"2025-10-30","eName":"She Makes Noise","genre":null,"price":"$20.00","supports":[],"ticketUrl":null,"time":" 6pm"},{"categories":["Music"],"eDate":"2025-10-30","eName":"She Makes Noise","genre":null,"price":"$16.85 - 22.95","supports":[],"ticketUrl":null,"time":" 7pm"}],"vName":"Bergy Bandroom"},"type":"Feature"},{"geometry":{"coordinates":[144.9568039,-37.8111442],"type":"Point"},"properties":{"events":[{"categories":["Music"],"eDate":"2025-10-30","eName":"Dale Barlow Sextet","genre":"Jazz","price":"$38.00","supports":[],"ticketUrl":null,"time":" 6pm"}],"vName":"Bird's Basement"},"type":"Feature"},{"geometry":{"coordinates":[144.9945274,-37.8001115],"type":"Point"},"properties":{"events":[{"categories":["Free","Music","Theatre","Other \"Dance \"","Other \"Wrestling\"","Other \"Food \""],"eDate":"2025-10-30","eName":"The Lulu Blues","genre":null,"price":"Free","supports":[],"ticketUrl":null,"time":" 7pm"},{"categories":["Comedy","Other \"Food \""],"eDate":"2025-10-30","eName":"On The Gags Comedy","genre":null,"price":"$22.00","supports":[],"ticketUrl":null,"time":" 7:30pm"}],"vName":"Bodriggy Brewing Company"},"type":"Feature"},{"geometry":{"coordinates":[144.9617083,-37.7704205],"type":"Point"},"properties":{"events":[{"categories":["Music"],"eDate":"2025-10-30","eName":"Empress & Choir","genre":null,"price":"$28.15","supports":[],"ticketUrl":null,"time":" 7:30pm"}],"vName":"Brunswick Ballroom"},"type":"Feature"},{"geometry":{"coordinates":[145.3339412,-37.9158104],"type":"Point"},"properties":{"events":[{"categories":["Music"],"eDate":"2025-10-30","eName":"Felicity Urquhart & Josh Cunningham","genre":"Country/Folk","price":"$43.00","supports":[],"ticketUrl":null,"time":" 8pm"}],"vName":"Burrinja Cultural Centre"},"type":"Feature"},{"geometry":{"coordinates":[144.9627513,-37.760963],"type":"Point"},"properties":{"events":[{"categories":["Music"],"eDate":"2025-10-30","eName":"Tony Yang","genre":"Jazz","price":"Free","supports":[],"ticketUrl":null,"time":" 7pm"}],"vName":"Edinburgh Castle Hotel"},"type":"Feature"},{"geometry":{"coordinates":[144.9777885,-37.8597831],"type":"Point"},"properties":{"events":[{"categories":["Music"],"eDate":"2025-10-30","eName":"Jamie MacDowell","genre":"Acoustic","price":"Free","supports":[],"ticketUrl":null,"time":" 7pm"}],"vName":"Freddie Wimpoles"},"type":"Feature"},{"geometry":{"coordinates":[144.9680058,-37.7450434],"type":"Point"},"properties":{"events":[{"categories":["Music"],"eDate":"2025-10-30","eName":"Christine Manetta","genre":"Blues","price":"Free","supports":[],"ticketUrl":null,"time":" 9:30pm"}],"vName":"Hume Blues Club"},"type":"Feature"},{"geometry":{"coordinates":[145.0314658,-37.8067273],"type":"Point"},"properties":{"events":[{"categories":["Music"],"eDate":"2025-10-30","eName":"Kew Court House Live: Gypsy Lee + Julian Moss","genre":null,"price":"$20.00","supports":[],"ticketUrl":null,"time":" 5:30pm"},{"categories":["Music"],"eDate":"2025-10-30","eName":"Kew Court House Live: Luca Ciarla SolOrkesrtra","genre":"Jazz","price":"$20.00","supports":[],"ticketUrl":null,"time":" 7:30pm"}],"vName":"Kew Court House"},"type":"Feature"},{"geometry":{"coordinates":[144.8984802,-37.8111559],"type":"Point"},"properties":{"events":[{"categories":["Music"],"eDate":"2025-10-30","eName":"Rosie Westbrook","genre":"Indie","price":"Free","supports":[],"ticketUrl":null,"time":" 1pm"}],"vName":"Kindred Bandroom"},"type":"Feature"},{"geometry":{"coordinates":[144.9675876,-37.8240849],"type":"Point"},"properties":{"events":[{"categories":["Music"],"eDate":"2025-10-30","eName":"The Cloud Maker","genre":"Experimental","price":"$50.00","supports":[],"ticketUrl":null,"time":" 6pm"}],"vName":"Melbourne Recital Centre"},"type":"Feature"},{"geometry":{"coordinates":[144.9790251,-37.8675008],"type":"Point"},"properties":{"events":[{"categories":["Music"],"eDate":"2025-10-30","eName":"The Faraway Three","genre":"Country/Folk","price":"$25.00 - 35.00","supports":[],"ticketUrl":null,"time":" 7:30pm"}],"vName":"Memo Music Hall"},"type":"Feature"},{"geometry":{"coordinates":[144.998414,-37.771471],"type":"Point"},"properties":{"events":[{"categories":["Music"],"eDate":"2025-10-30","eName":"The Tullamarines","genre":"Indie","price":"$24.00 - 29.10","supports":["Ghost Care"," Lucky"],"ticketUrl":null,"time":" 8pm"}],"vName":"Northcote Social Club"},"type":"Feature"},{"geometry":{"coordinates":[144.9982706,-37.7737068],"type":"Point"},"properties":{"events":[{"categories":["Music"],"eDate":"2025-10-30","eName":"Katie Noonan: Jeff Buckley’s Grace Tour","genre":"Rock","price":"$79.90","supports":["Georgia Fields"," Andromeda String Quartet"],"ticketUrl":null,"time":" 7:30pm"}],"vName":"Northcote Theatre"},"type":"Feature"},{"geometry":{"coordinates":[144.97711,-37.79833],"type":"Point"},"properties":{"events":[{"categories":["Music"],"eDate":"2025-10-30","eName":"Good Music Presents","genre":"Rock","price":"Free","supports":[],"ticketUrl":null,"time":" 7:30pm"}],"vName":"Old Bar"},"type":"Feature"},{"geometry":{"coordinates":[144.96084,-37.813514],"type":"Point"},"properties":{"events":[{"categories":["Music"],"eDate":"2025-10-30","eName":"The Daryl McKenzie Jazz Orchestra with Raleigh Williams","genre":"Jazz","price":"$45.00","supports":[],"ticketUrl":null,"time":" 7:30pm"},{"categories":["Music"],"eDate":"2025-10-30","eName":"The Daimon Brunton Quintet: “They Called Him Morgan .. Lee Morgan!”","genre":"Jazz","price":"$45.00","supports":[],"ticketUrl":null,"time":" 8pm"}],"vName":"Paris Cat Jazz Club"},"type":"Feature"},{"geometry":{"coordinates":[144.9607404,-37.7743469],"type":"Point"},"properties":{"events":[{"categories":["Music"],"eDate":"2025-10-30","eName":"alt.BIZARRE","genre":"Electronic","price":"$20.95 - 28.60","supports":[],"ticketUrl":null,"time":" 6:30pm"}],"vName":"Stay Gold"},"type":"Feature"},{"geometry":{"coordinates":[144.9706211,-37.778276],"type":"Point"},"properties":{"events":[{"categories":["Other \"Trivia \"","Other \"Cabaret\""],"eDate":"2025-10-30","eName":"Drag Bingo: Gloss","genre":null,"price":"Free","supports":[],"ticketUrl":null,"time":" 8pm"}],"vName":"The Beast"},"type":"Feature"},{"geometry":{"coordinates":[144.9770425,-37.8588717],"type":"Point"},"properties":{"events":[{"categories":["Music"],"eDate":"2025-10-30","eName":"Dan & Cyril","genre":"Acoustic","price":"Free","supports":[],"ticketUrl":null,"time":" 8pm"}],"vName":"The Fifth Province"},"type":"Feature"},{"geometry":{"coordinates":[144.9708437,-37.7973184],"type":"Point"},"properties":{"events":[{"categories":["Comedy"],"eDate":"2025-10-30","eName":"Alex Ward (Live Taping)","genre":null,"price":"$29.38","supports":[],"ticketUrl":null,"time":" 7:30pm"},{"categories":["Free","Music","Comedy"],"eDate":"2025-10-30","eName":"The ‘WHAM, BAM, THANK YOU’ Jam","genre":"Jazz","price":"Free","supports":[],"ticketUrl":null,"time":" 8pm"}],"vName":"The Motley Bauhaus"},"type":"Feature"},{"geometry":{"coordinates":[145.1818891,-37.8163371],"type":"Point"},"properties":{"events":[{"categories":["Music","Other \"Dance \""],"eDate":"2025-10-30","eName":"Victorian State Ballet Triple Bill Anniversary Gala","genre":"Classical","price":"$59.00","supports":[],"ticketUrl":null,"time":" 7:30pm"}],"vName":"The Round"},"type":"Feature"},{"geometry":{"coordinates":[144.9661635,-37.8176298],"type":"Point"},"properties":{"events":[{"categories":["Music"],"eDate":"2025-10-30","eName":"Planet Of The Breaks 2","genre":"Soul/Funk","price":"$10.95","supports":[],"ticketUrl":null,"time":" 8pm"}],"vName":"Wax Music Lounge"},"type":"Feature"}],"type":"FeatureCollection"}