{"features":[{"geometry":{"coordinates":[144.9763781,-37.7983136],"type":"Point"},"properties":{"events":[{"categories":["Music"],"eDate":"2024-02-02","eName":"Major Bummer","genre":"Punk","price":"$10.00","supports":["Worker & Parasite"," Kenn & The Cost Of Living"," Duddy Kravitz"],"ticketUrl":null,"time":" 7pm"}],"vName":"Bad Decisions Bar"},"type":"Feature"},{"geometry":{"coordinates":[144.99828116650363,-37.7713296],"type":"Point"},"properties":{"events":[{"categories":["Music"],"eDate":"2024-02-02","eName":"Rory Tiganis-Hannan + Jake Amy Trio","genre":null,"price":"$20.00","supports":[],"ticketUrl":null,"time":" 7:30pm"},{"categories":["Music"],"eDate":"2024-02-02","eName":"Rory Tiganis-Hannan + Jake Amy Trio","genre":"Jazz","price":"$10.50 - 25.80","supports":[],"ticketUrl":null,"time":" 7:30pm"}],"vName":"Bar 303"},"type":"Feature"},{"geometry":{"coordinates":[144.978425,-37.79773],"type":"Point"},"properties":{"events":[{"categories":["Free","Music"],"eDate":"2024-02-02","eName":"The Four Scoops","genre":"Jazz","price":"Free","supports":[],"ticketUrl":null,"time":" 6pm"},{"categories":["Music"],"eDate":"2024-02-02","eName":"Motor Inn","genre":"Rock","price":"$17.35","supports":["Hell Jones"," Sands"],"ticketUrl":null,"time":" 8pm"}],"vName":"Bar Open"},"type":"Feature"},{"geometry":{"coordinates":[144.9607158,-37.776327],"type":"Point"},"properties":{"events":[{"categories":["Music"],"eDate":"2024-02-02","eName":"Alt","genre":"Metal","price":"$29.99","supports":["Belle Haven"," Patient Sixty Seven"," A Swift Farewell"],"ticketUrl":null,"time":" 7:30pm"}],"vName":"Bergy Bandroom"},"type":"Feature"},{"geometry":{"coordinates":[144.9617018,-37.7704566],"type":"Point"},"properties":{"events":[{"categories":["Music"],"eDate":"2024-02-02","eName":"Claymore + Tim Scanlan & Mana Okubu","genre":"Country/Folk","price":"$43.96","supports":[],"ticketUrl":null,"time":" 8pm"}],"vName":"Brunswick Ballroom"},"type":"Feature"},{"geometry":{"coordinates":[144.9713425,-37.8128595],"type":"Point"},"properties":{"events":[{"categories":["Music"],"eDate":"2024-02-02","eName":"The Dead Amigos","genre":"Rock","price":"$17.48","supports":["Bloody Ripper"," Dead Rodeo"],"ticketUrl":null,"time":" 8pm"}],"vName":"Cherry Bar"},"type":"Feature"},{"geometry":{"coordinates":[144.99266639479475,-37.82488935],"type":"Point"},"properties":{"events":[{"categories":["Music"],"eDate":"2024-02-02","eName":"Pisco Sour","genre":"Rock","price":"$20.00","supports":["Franjapan"," Groundswell"],"ticketUrl":null,"time":" 8:30pm"}],"vName":"Corner Hotel"},"type":"Feature"},{"geometry":{"coordinates":[144.973013,-37.8640582],"type":"Point"},"properties":{"events":[{"categories":["Music"],"eDate":"2024-02-02","eName":"Phil Jamieson","genre":"Rock","price":"$49.90","supports":[],"ticketUrl":null,"time":" 8pm"},{"categories":["Music"],"eDate":"2024-02-02","eName":"Phil Jamieson","genre":"Rock","price":"$49.90","supports":[],"ticketUrl":null,"time":" 8pm"}],"vName":"Hotel Esplanade (aka The Espy)"},"type":"Feature"},{"geometry":{"coordinates":[145.0008148,-37.8107158],"type":"Point"},"properties":{"events":[{"categories":["Music"],"eDate":"2024-02-02","eName":"Cassidy Paris","genre":"Rock","price":"$23.75","supports":["Among the Restless"," ANA"],"ticketUrl":null,"time":" 8pm"}],"vName":"Leadbeater Hotel"},"type":"Feature"},{"geometry":{"coordinates":[144.96741062735794,-37.82454855],"type":"Point"},"properties":{"events":[{"categories":["Music"],"eDate":"2024-02-02","eName":"Andrew Blanch & Emily Granger: Suite Mágica","genre":"Classical","price":"$50.00","supports":[],"ticketUrl":null,"time":" 7pm"},{"categories":["Music"],"eDate":"2024-02-02","eName":"Courtney Barnett","genre":"Rock","price":"$69.00 - 79.00","supports":[],"ticketUrl":null,"time":" 7:30pm"}],"vName":"Melbourne Recital Centre"},"type":"Feature"},{"geometry":{"coordinates":[145.3553553,-37.9078552],"type":"Point"},"properties":{"events":[{"categories":["Free","Music"],"eDate":"2024-02-02","eName":"Pure Logic","genre":"Acoustic","price":"Free","supports":[],"ticketUrl":null,"time":" 7pm"}],"vName":"Micawber Tavern"},"type":"Feature"},{"geometry":{"coordinates":[144.9712356,-37.812902],"type":"Point"},"properties":{"events":[{"categories":["Comedy"],"eDate":"2024-02-02","eName":"Basement Comedy Club Fridays","genre":null,"price":"$26.00","supports":["more"],"ticketUrl":null,"time":" 7pm"}],"vName":"Morris House"},"type":"Feature"},{"geometry":{"coordinates":[144.9846126,-37.7989941],"type":"Point"},"properties":{"events":[{"categories":["Music"],"eDate":"2024-02-02","eName":"Great Australian Bank","genre":"Punk","price":"$15.00","supports":["Twins Sport"," Human Intrusion"],"ticketUrl":null,"time":" 8pm"}],"vName":"Nighthawks"},"type":"Feature"},{"geometry":{"coordinates":[144.97711,-37.79833],"type":"Point"},"properties":{"events":[{"categories":["Music"],"eDate":"2024-02-02","eName":"Polly & The Pockets","genre":"Rock","price":"$11.25","supports":["Dog Door"," Spürts"],"ticketUrl":null,"time":" 8pm"}],"vName":"Old Bar"},"type":"Feature"},{"geometry":{"coordinates":[144.9981771,-37.7742773],"type":"Point"},"properties":{"events":[{"categories":["Music"],"eDate":"2024-02-02","eName":"Vardos","genre":"Country/Folk","price":"$25.00","supports":[],"ticketUrl":null,"time":" 6:30pm"}],"vName":"Open Studio"},"type":"Feature"},{"geometry":{"coordinates":[144.90239079583333,-37.79990865],"type":"Point"},"properties":{"events":[{"categories":["Comedy","Trivia"],"eDate":"2024-02-02","eName":"Pride Drag Bingo","genre":null,"price":"$10.00","supports":[],"ticketUrl":null,"time":" 7pm"}],"vName":"Pride Of Our Footscray Community Bar"},"type":"Feature"},{"geometry":{"coordinates":[144.9631913,-37.7617818],"type":"Point"},"properties":{"events":[{"categories":["Free","Music"],"eDate":"2024-02-02","eName":"Social Street + Araminta","genre":"Soul/Funk","price":"Free","supports":[],"ticketUrl":null,"time":" 8pm"}],"vName":"Ringo Barr"},"type":"Feature"},{"geometry":{"coordinates":[144.9706095,-37.7783326],"type":"Point"},"properties":{"events":[{"categories":["Free","Music"],"eDate":"2024-02-02","eName":"Oscar LaDell & The Earth Tones","genre":"Soul/Funk","price":"Free","supports":["Bryn Oakly"],"ticketUrl":null,"time":" 9pm"}],"vName":"The Beast"},"type":"Feature"},{"geometry":{"coordinates":[144.960725,-37.7762687],"type":"Point"},"properties":{"events":[{"categories":["Music"],"eDate":"2024-02-02","eName":"BB Sabina","genre":null,"price":"Free","supports":["Dina"],"ticketUrl":null,"time":" 8pm"}],"vName":"The Bergy Seltzer"},"type":"Feature"},{"geometry":{"coordinates":[144.9830837,-37.7988316],"type":"Point"},"properties":{"events":[{"categories":["Music"],"eDate":"2024-02-02","eName":"Hemlocke Springs","genre":"Pop","price":"$64.90","supports":[],"ticketUrl":null,"time":" 8pm"}],"vName":"The Night Cat"},"type":"Feature"},{"geometry":{"coordinates":[144.9983987,-37.7729204],"type":"Point"},"properties":{"events":[{"categories":["Free","Music"],"eDate":"2024-02-02","eName":"Duncan Graham & Jan Palethorpe","genre":"Acoustic","price":"Free","supports":[],"ticketUrl":null,"time":" 6pm"}],"vName":"Wesley Anne"},"type":"Feature"},{"geometry":{"coordinates":[144.9706095,-37.7783326],"type":"Point"},"properties":{"events":[{"categories":["Music"],"eDate":"2024-02-02","eName":"Badland Caravan","genre":"Blues","price":"$10.00","supports":["Mundane Jane"," Paraquay"],"ticketUrl":null,"time":" 7:30pm"}],"vName":"Whole Lotta Love"},"type":"Feature"},{"geometry":{"coordinates":[144.9827552,-37.8041303],"type":"Point"},"properties":{"events":[{"categories":["Music"],"eDate":"2024-02-02","eName":"Sesame Girl","genre":"Indie","price":"$15.00","supports":[],"ticketUrl":null,"time":" 9pm"}],"vName":"Yah Yah's"},"type":"Feature"}],"type":"FeatureCollection"}