{"features":[{"geometry":{"coordinates":[144.9248037207342,-37.7656716],"type":"Point"},"properties":{"events":[{"categories":["Free","Music","Comedy","Other \"Spoken Word\"","Other \"Poetry & Forums\""],"eDate":"2024-06-30","eName":"Club Clocktower: Open Mic Night","genre":"Acoustic","price":"Free","supports":[],"ticketUrl":null,"time":" 6pm"}],"vName":"Clocktower Centre"},"type":"Feature"},{"geometry":{"coordinates":[144.98535244416098,-37.79426315],"type":"Point"},"properties":{"events":[{"categories":["Music"],"eDate":"2024-06-30","eName":"Heavy Choir","genre":"Metal","price":"$23.50","supports":[],"ticketUrl":null,"time":" 7:30pm"}],"vName":"Gasometer Hotel"},"type":"Feature"},{"geometry":{"coordinates":[144.9786817,-37.8671902],"type":"Point"},"properties":{"events":[{"categories":["Music"],"eDate":"2024-06-30","eName":"Neil Young: ‘On The Beach’ 50th Birthday Celebration","genre":"Rock","price":"$30.00 - 50.00","supports":[],"ticketUrl":null,"time":" 3pm"}],"vName":"Memo Music Hall"},"type":"Feature"},{"geometry":{"coordinates":[145.3553553,-37.9078552],"type":"Point"},"properties":{"events":[{"categories":["Free","Music"],"eDate":"2024-06-30","eName":"Karlo Arcinue","genre":"Indie","price":"Free","supports":[],"ticketUrl":null,"time":" 1pm"}],"vName":"Micawber Tavern"},"type":"Feature"},{"geometry":{"coordinates":[144.97711,-37.79833],"type":"Point"},"properties":{"events":[{"categories":["Free","Music"],"eDate":"2024-06-30","eName":"Nampo + Exosquelette","genre":"Country/Folk","price":"Free","supports":[],"ticketUrl":null,"time":" 3pm"}],"vName":"Old Bar"},"type":"Feature"},{"geometry":{"coordinates":[145.0142411,-37.7310367],"type":"Point"},"properties":{"events":[{"categories":["Free","Music"],"eDate":"2024-06-30","eName":"Sunday Sunset Sessions","genre":"Jazz","price":"Free","supports":[],"ticketUrl":null,"time":" 6pm"}],"vName":"Ragtime Tavern"},"type":"Feature"},{"geometry":{"coordinates":[144.9631913,-37.7617818],"type":"Point"},"properties":{"events":[{"categories":["Free","Music"],"eDate":"2024-06-30","eName":"Tom & the Cartoonists + Pretty Good Sofa","genre":"Rock","price":"Free","supports":[],"ticketUrl":null,"time":" 8pm"}],"vName":"Ringo Barr"},"type":"Feature"},{"geometry":{"coordinates":[145.001392343033,-37.75592655],"type":"Point"},"properties":{"events":[{"categories":["Music"],"eDate":"2024-06-30","eName":"Blues Roulette Big Band: The Blues Brothers Revue","genre":"Blues","price":"$39.00","supports":[],"ticketUrl":null,"time":" 5pm"}],"vName":"Shotkickers"},"type":"Feature"},{"geometry":{"coordinates":[144.9769450659087,-37.8055776],"type":"Point"},"properties":{"events":[{"categories":["Music"],"eDate":"2024-06-30","eName":"Elysium","genre":"Soul/Funk","price":"$12.75","supports":["Volt Jolt"," The Mods"],"ticketUrl":null,"time":" 1pm"}],"vName":"The Workers Club"},"type":"Feature"},{"geometry":{"coordinates":[144.9618426,-37.8125531],"type":"Point"},"properties":{"events":[{"categories":["Free","Music"],"eDate":"2024-06-30","eName":"daffaduck","genre":null,"price":"Free","supports":[],"ticketUrl":null,"time":" 3pm"}],"vName":"Whitehart Bar"},"type":"Feature"}],"type":"FeatureCollection"}