{"features":[{"geometry":{"coordinates":[144.978425,-37.79773],"type":"Point"},"properties":{"events":[{"categories":["Free","Music"],"eDate":"2024-11-22","eName":"Benjamin Attiche Trio","genre":"Jazz","price":"Free","supports":[],"ticketUrl":null,"time":" 6:30pm"},{"categories":["Music"],"eDate":"2024-11-22","eName":"Neil Junior","genre":"Hip Hop","price":"$17.35","supports":["Neo Sky Collective"," Broden Tyrrell"],"ticketUrl":null,"time":" 8:30pm"},{"categories":["Free","Music"],"eDate":"2024-11-22","eName":"Smoking Vinyl","genre":"Jazz","price":"Free","supports":[],"ticketUrl":null,"time":" 8:30pm"}],"vName":"Bar Open"},"type":"Feature"},{"geometry":{"coordinates":[144.978682,-37.7981225],"type":"Point"},"properties":{"events":[{"categories":["Free","Music"],"eDate":"2024-11-22","eName":"Woody Samson","genre":null,"price":"Free","supports":[],"ticketUrl":null,"time":" 9pm"},{"categories":["Music"],"eDate":"2024-11-22","eName":"DJ Saatana Lee Rose","genre":"Electronic","price":"Free","supports":[],"ticketUrl":null,"time":"10pm"}],"vName":"Baxter's Lot"},"type":"Feature"},{"geometry":{"coordinates":[144.98911674151407,-37.79964875],"type":"Point"},"properties":{"events":[{"categories":["Music"],"eDate":"2024-11-22","eName":"Mixed Up Everything","genre":"Rock","price":"$25.00","supports":["Select All"," Sledgehammer Honey"],"ticketUrl":null,"time":" 9pm"}],"vName":"Bendigo Hotel"},"type":"Feature"},{"geometry":{"coordinates":[144.9607158,-37.776327],"type":"Point"},"properties":{"events":[{"categories":["Music"],"eDate":"2024-11-22","eName":"All Regards","genre":"Punk","price":"$22.95","supports":["Benchcup"," Offset Vision"," This Space Is Ours"],"ticketUrl":null,"time":" 8pm"}],"vName":"Bergy Bandroom"},"type":"Feature"},{"geometry":{"coordinates":[144.9567859,-37.8111049],"type":"Point"},"properties":{"events":[{"categories":["Music"],"eDate":"2024-11-22","eName":"SPIRIT: The Santana Songbook","genre":"Soul/Funk","price":"$38.00","supports":[],"ticketUrl":null,"time":" 7:30pm"}],"vName":"Bird's Basement"},"type":"Feature"},{"geometry":{"coordinates":[144.9617018,-37.7704566],"type":"Point"},"properties":{"events":[{"categories":["Music"],"eDate":"2024-11-22","eName":"19-Twenty","genre":"Blues","price":"$38.86","supports":[],"ticketUrl":null,"time":" 8:30pm"}],"vName":"Brunswick Ballroom"},"type":"Feature"},{"geometry":{"coordinates":[144.9948802,-37.8431403],"type":"Point"},"properties":{"events":[{"categories":["Comedy","Other \"Cabaret\""],"eDate":"2024-11-22","eName":"RuPaul's Drag Race: Slay Belles","genre":"Pop","price":"$106.63","supports":[],"ticketUrl":null,"time":" 8pm"}],"vName":"Chasers Nightclub"},"type":"Feature"},{"geometry":{"coordinates":[144.99266639479475,-37.82488935],"type":"Point"},"properties":{"events":[{"categories":["Music"],"eDate":"2024-11-22","eName":"KING","genre":"Pop","price":"$60.20","supports":["Tricksingh"],"ticketUrl":null,"time":" 7:30pm"}],"vName":"Corner Hotel"},"type":"Feature"},{"geometry":{"coordinates":[144.9679835243618,-37.8201575],"type":"Point"},"properties":{"events":[{"categories":["Music"],"eDate":"2024-11-22","eName":"BLAKTIVISM","genre":null,"price":"$69.00 - 89.00","supports":["more"],"ticketUrl":null,"time":" 7pm"}],"vName":"Hamer Hall (Arts Centre Melbourne)"},"type":"Feature"},{"geometry":{"coordinates":[144.973013,-37.8640582],"type":"Point"},"properties":{"events":[{"categories":["Music"],"eDate":"2024-11-22","eName":"Early Bird: No Scrubs 90s + Early 2000s Party","genre":"Pop","price":"$11.75 - 22.95","supports":[],"ticketUrl":null,"time":" 6pm"},{"categories":["Music"],"eDate":"2024-11-22","eName":"Early Bird: No Scrubs 90s + Early 2000s Party","genre":"Pop","price":"$11.75 - 22.95","supports":[],"ticketUrl":null,"time":" 6pm"},{"categories":["Music"],"eDate":"2024-11-22","eName":"Jess Chalmers & Friends","genre":"Pop","price":"$15.85","supports":[],"ticketUrl":null,"time":" 7:30pm"},{"categories":["Music"],"eDate":"2024-11-22","eName":"Sweat Party: Charli XCX vs Troye Sivan Night","genre":"Pop","price":"$11.75 - 22.95","supports":[],"ticketUrl":null,"time":"10:30pm"},{"categories":["Music"],"eDate":"2024-11-22","eName":"Sweat Party: Charli XCX vx Troye Sivan Night","genre":"Pop","price":"$11.75 - 22.95","supports":[],"ticketUrl":null,"time":"10:30pm"}],"vName":"Hotel Esplanade (aka The Espy)"},"type":"Feature"},{"geometry":{"coordinates":[144.8971518,-37.8054274],"type":"Point"},"properties":{"events":[{"categories":["Free","Music"],"eDate":"2024-11-22","eName":"Hoss","genre":null,"price":"Free","supports":["Spacejunk"],"ticketUrl":null,"time":" 7pm"}],"vName":"Mamma Chen's"},"type":"Feature"},{"geometry":{"coordinates":[144.9659879,-37.8147557],"type":"Point"},"properties":{"events":[{"categories":["Music"],"eDate":"2024-11-22","eName":"Anees","genre":"Indie","price":"$69.90","supports":[],"ticketUrl":null,"time":" 8pm"}],"vName":"Max Watt's (Melbourne)"},"type":"Feature"},{"geometry":{"coordinates":[144.96741062735794,-37.82454855],"type":"Point"},"properties":{"events":[{"categories":["Music"],"eDate":"2024-11-22","eName":"YO CiTY: Cool Out Sun","genre":"Soul/Funk","price":"$37.00","supports":[],"ticketUrl":null,"time":" 7pm"}],"vName":"Melbourne Recital Centre"},"type":"Feature"},{"geometry":{"coordinates":[144.9786817,-37.8671902],"type":"Point"},"properties":{"events":[{"categories":["Music"],"eDate":"2024-11-22","eName":"Tarryn Stokes Sings Celine Dion: Candlelight Series","genre":"Pop","price":"$35.00 - 45.00","supports":[],"ticketUrl":null,"time":" 7pm"}],"vName":"Memo Music Hall"},"type":"Feature"},{"geometry":{"coordinates":[144.9712356,-37.812902],"type":"Point"},"properties":{"events":[{"categories":["Comedy"],"eDate":"2024-11-22","eName":"Basement Comedy Club","genre":null,"price":"$25.00","supports":["more"],"ticketUrl":null,"time":" 8pm"}],"vName":"Morris House"},"type":"Feature"},{"geometry":{"coordinates":[144.9846126,-37.7989941],"type":"Point"},"properties":{"events":[{"categories":["Music"],"eDate":"2024-11-22","eName":"Pop Queens To The Front","genre":"Indie","price":"$15.00","supports":["Rosie Quartz"," Howlite"," Tillee"],"ticketUrl":null,"time":" 6pm"}],"vName":"Nighthawks"},"type":"Feature"},{"geometry":{"coordinates":[144.998414,-37.771471],"type":"Point"},"properties":{"events":[{"categories":["Music"],"eDate":"2024-11-22","eName":"Caitlin Harnett & The Pony Boys","genre":"Rock","price":"$40.40","supports":[],"ticketUrl":null,"time":" 8:30pm"}],"vName":"Northcote Social Club"},"type":"Feature"},{"geometry":{"coordinates":[144.9977626,-37.7755001],"type":"Point"},"properties":{"events":[{"categories":["Music"],"eDate":"2024-11-22","eName":"The Original Wailers","genre":"Soul/Funk","price":"$89.90","supports":["The Elovators"],"ticketUrl":null,"time":" 7:30pm"}],"vName":"Northcote Theatre"},"type":"Feature"},{"geometry":{"coordinates":[144.97711,-37.79833],"type":"Point"},"properties":{"events":[{"categories":["Music"],"eDate":"2024-11-22","eName":"TRANSDANCE","genre":null,"price":"$11.25","supports":[],"ticketUrl":null,"time":" 8pm"}],"vName":"Old Bar"},"type":"Feature"},{"geometry":{"coordinates":[144.9988348,-37.8525949],"type":"Point"},"properties":{"events":[{"categories":["Music"],"eDate":"2024-11-22","eName":"Lawless","genre":"Electronic","price":"$15.00","supports":["MiMi"," Kelvin Dana"," Danni B"," Stiles"," Sarlece"," Archie Lo"," Adam Trace"],"ticketUrl":null,"time":"10pm"}],"vName":"OneSixOne"},"type":"Feature"},{"geometry":{"coordinates":[144.9981771,-37.7742773],"type":"Point"},"properties":{"events":[{"categories":["Music"],"eDate":"2024-11-22","eName":"Sarah Carso Trio","genre":"Jazz","price":"$20.00 - 25.00","supports":[],"ticketUrl":null,"time":" 6:30pm"},{"categories":["Music"],"eDate":"2024-11-22","eName":"8 Foot Felix","genre":"Jazz","price":"$25.00","supports":[],"ticketUrl":null,"time":" 8:30pm"}],"vName":"Open Studio"},"type":"Feature"},{"geometry":{"coordinates":[144.9605705,-37.8132486],"type":"Point"},"properties":{"events":[{"categories":["Music"],"eDate":"2024-11-22","eName":"CC Dewar presents A Musical Celebration","genre":"Jazz","price":"$45.00","supports":[],"ticketUrl":null,"time":" 6pm"},{"categories":["Music"],"eDate":"2024-11-22","eName":"Come to Brazil: Georgie Aué Band","genre":"Jazz","price":"$45.00","supports":[],"ticketUrl":null,"time":" 6:30pm"},{"categories":["Music"],"eDate":"2024-11-22","eName":"No Regrets: The Edith Piaf Story with Nikki Nouveau","genre":"Jazz","price":"$48.00","supports":[],"ticketUrl":null,"time":" 9pm"},{"categories":["Music"],"eDate":"2024-11-22","eName":"Love Deluxe: Sade Tribute","genre":"R&B","price":"$45.00","supports":[],"ticketUrl":null,"time":" 9:30pm"}],"vName":"Paris Cat Jazz Club"},"type":"Feature"},{"geometry":{"coordinates":[144.90239079583333,-37.79990865],"type":"Point"},"properties":{"events":[{"categories":["Comedy","Trivia"],"eDate":"2024-11-22","eName":"Pride Drag Bingo","genre":null,"price":"$10.00","supports":[],"ticketUrl":null,"time":" 7pm"}],"vName":"Pride Of Our Footscray Community Bar"},"type":"Feature"},{"geometry":{"coordinates":[144.9828155,-37.8567825],"type":"Point"},"properties":{"events":[{"categories":["Music"],"eDate":"2024-11-22","eName":"Custard","genre":"Rock","price":"$67.35","supports":["The Fauves"," The Stress Of Leisure"],"ticketUrl":null,"time":" 7pm"}],"vName":"Prince Bandroom"},"type":"Feature"},{"geometry":{"coordinates":[145.0142411,-37.7310367],"type":"Point"},"properties":{"events":[{"categories":["Music"],"eDate":"2024-11-22","eName":"Gerald Frederic & The Kreol Trio","genre":"Jazz","price":"Free","supports":[],"ticketUrl":null,"time":" 8pm"}],"vName":"Ragtime Tavern"},"type":"Feature"},{"geometry":{"coordinates":[144.993413,-37.8506652],"type":"Point"},"properties":{"events":[{"categories":["Music"],"eDate":"2024-11-22","eName":"REAL DEALS","genre":null,"price":"$16.32","supports":[],"ticketUrl":null,"time":" 7pm"},{"categories":["Music"],"eDate":"2024-11-22","eName":"Hiroko Yamamura","genre":"Electronic","price":"$21.42 - 31.62","supports":["Estée Louder"," Mike Callander"," Stockholm Syndrome"," DJ Kiti"," ONYX"," PWD"," Xanthraxx"],"ticketUrl":null,"time":"10pm"}],"vName":"Revolver Upstairs"},"type":"Feature"},{"geometry":{"coordinates":[145.001392343033,-37.75592655],"type":"Point"},"properties":{"events":[{"categories":["Music"],"eDate":"2024-11-22","eName":"Moaning Lisa","genre":"Punk","price":"$23.45","supports":["Lili-Violet"," Glob"],"ticketUrl":null,"time":" 8pm"}],"vName":"Shotkickers"},"type":"Feature"},{"geometry":{"coordinates":[144.9746525926778,-37.823819181966286],"type":"Point"},"properties":{"events":[{"categories":["Music"],"eDate":"2024-11-22","eName":"Cold Chisel: “The Big Five-0\" 50th Anniversary Tour","genre":"Rock","price":"$152.78 - 203.75","supports":["Karen Lee Andrews"," The Cruel Sea"],"ticketUrl":null,"time":" 6pm"}],"vName":"Sidney Myer Music Bowl"},"type":"Feature"},{"geometry":{"coordinates":[145.35345070507591,-37.9100746],"type":"Point"},"properties":{"events":[{"categories":["Music"],"eDate":"2024-11-22","eName":"Bob Evans","genre":"Acoustic","price":"$47.95","supports":["Amaya Laucirica"],"ticketUrl":null,"time":" 7pm"},{"categories":["Music"],"eDate":"2024-11-22","eName":"Partyshirts Thompson's House Party","genre":"Pop","price":"$10.00","supports":[],"ticketUrl":null,"time":" 9pm"}],"vName":"Sooki Lounge"},"type":"Feature"},{"geometry":{"coordinates":[144.9607404,-37.7743469],"type":"Point"},"properties":{"events":[{"categories":["Music","Dance"],"eDate":"2024-11-22","eName":"Stripping in the Name Of: Live Punk & Burlesque","genre":"Punk","price":"$36.45 - 48.10","supports":[],"ticketUrl":null,"time":" 7pm"}],"vName":"Stay Gold"},"type":"Feature"},{"geometry":{"coordinates":[144.9657057,-37.8061581],"type":"Point"},"properties":{"events":[{"categories":["Music"],"eDate":"2024-11-22","eName":"Intermood","genre":"Jazz","price":"$17.75 - 22.85","supports":["Robbie Belchamber"," Musclyboy"],"ticketUrl":null,"time":" 8pm"}],"vName":"The Curtin"},"type":"Feature"},{"geometry":{"coordinates":[144.9555612,-37.8066759],"type":"Point"},"properties":{"events":[{"categories":["Music"],"eDate":"2024-11-22","eName":"Traditional Irish Music Session","genre":"Country/Folk","price":"Free","supports":[],"ticketUrl":null,"time":" 6pm"}],"vName":"The Drunken Poet"},"type":"Feature"},{"geometry":{"coordinates":[144.9840598,-37.7827901],"type":"Point"},"properties":{"events":[{"categories":["Music"],"eDate":"2024-11-22","eName":"Wasteman + The Satts","genre":"Rock","price":"$14.80","supports":[],"ticketUrl":null,"time":" 8:30pm"}],"vName":"The Fitzroy Pinnacle"},"type":"Feature"},{"geometry":{"coordinates":[144.958676,-37.7669571],"type":"Point"},"properties":{"events":[{"categories":["Music"],"eDate":"2024-11-22","eName":"The Pearly Shells Swing Orchestra with Yvette Johansson & Varvara Vakhrameeva","genre":"Jazz","price":"$35.00 - 40.00","supports":[],"ticketUrl":null,"time":" 8pm"}],"vName":"The Jazzlab"},"type":"Feature"},{"geometry":{"coordinates":[144.9585654,-37.8059962],"type":"Point"},"properties":{"events":[{"categories":["Music"],"eDate":"2024-11-22","eName":"Ozone Street","genre":"Soul/Funk","price":"$11.25","supports":["The Clue"," Sole Butter"],"ticketUrl":null,"time":" 8pm"}],"vName":"The Last Chance Rock & Roll Bar"},"type":"Feature"},{"geometry":{"coordinates":[144.9968036,-37.7794807],"type":"Point"},"properties":{"events":[{"categories":["Music"],"eDate":"2024-11-22","eName":"Adam Hattaway","genre":"Rock","price":"$18.40","supports":[],"ticketUrl":null,"time":" 8pm"}],"vName":"The Merri Creek Tavern"},"type":"Feature"},{"geometry":{"coordinates":[144.9708437,-37.7973184],"type":"Point"},"properties":{"events":[{"categories":["Music","Theatre"],"eDate":"2024-11-22","eName":"Hidden Tunes 弦外之影 Musical","genre":null,"price":"$25.00 - 40.00","supports":[],"ticketUrl":null,"time":" 7:30pm"}],"vName":"The Motley Bauhaus"},"type":"Feature"},{"geometry":{"coordinates":[144.9830837,-37.7988316],"type":"Point"},"properties":{"events":[{"categories":["Music"],"eDate":"2024-11-22","eName":"Nooriyah Presents The Middle Of Everywhere","genre":"Electronic","price":"$39.90","supports":[],"ticketUrl":null,"time":" 9pm"}],"vName":"The Night Cat"},"type":"Feature"},{"geometry":{"coordinates":[144.9651425,-37.8119429],"type":"Point"},"properties":{"events":[{"categories":["Music"],"eDate":"2024-11-22","eName":"Mister Co.","genre":"Soul/Funk","price":"$28.56 - 33.15","supports":["Tahlia Eve"," Jonathan Buffalino"],"ticketUrl":null,"time":" 7pm"}],"vName":"The Toff In Town"},"type":"Feature"},{"geometry":{"coordinates":[144.9846126,-37.7989941],"type":"Point"},"properties":{"events":[{"categories":["Music"],"eDate":"2024-11-22","eName":"Nice Biscuit","genre":"Rock","price":"$28.60","supports":[],"ticketUrl":null,"time":" 8pm"}],"vName":"The Tote Hotel"},"type":"Feature"},{"geometry":{"coordinates":[144.9769450659087,-37.8055776],"type":"Point"},"properties":{"events":[{"categories":["Music"],"eDate":"2024-11-22","eName":"Le Shiv","genre":"Rock","price":"$23.50","supports":["Human Noise"," Mature Themes"],"ticketUrl":null,"time":" 8pm"}],"vName":"The Workers Club"},"type":"Feature"},{"geometry":{"coordinates":[144.9618426,-37.8125531],"type":"Point"},"properties":{"events":[{"categories":["Free","Music"],"eDate":"2024-11-22","eName":"Fridays With Mike Gurrieri","genre":null,"price":"Free","supports":[],"ticketUrl":null,"time":" 5pm"}],"vName":"Whitehart Bar"},"type":"Feature"},{"geometry":{"coordinates":[144.9827552,-37.8041303],"type":"Point"},"properties":{"events":[{"categories":["Music"],"eDate":"2024-11-22","eName":"Prom Alt-Femme Disco Party","genre":"Pop","price":"$0.00 - 15.00","supports":[],"ticketUrl":null,"time":" 9pm"},{"categories":["Music"],"eDate":"2024-11-22","eName":"Holiday Mystics","genre":"Rock","price":"$15.00","supports":["Exiles"],"ticketUrl":null,"time":" 9pm"}],"vName":"Yah Yah's"},"type":"Feature"}],"type":"FeatureCollection"}