{"features":[{"geometry":{"coordinates":[144.9679835,-37.8201575],"type":"Point"},"properties":{"events":[{"categories":["Comedy"],"eDate":"2026-03-29","eName":"Murder Village: An Improvised Whodunnit","genre":null,"price":"$32.00 - 37.00","supports":[],"ticketUrl":null,"time":" 8:15pm"}],"vName":"Arts Centre Melbourne"},"type":"Feature"},{"geometry":{"coordinates":[144.9500257,-37.8032773],"type":"Point"},"properties":{"events":[{"categories":["Theatre"],"eDate":"2026-03-29","eName":"Specials","genre":null,"price":"$40.00","supports":[],"ticketUrl":null,"time":" 5pm"}],"vName":"Arts House"},"type":"Feature"},{"geometry":{"coordinates":[144.9945274,-37.8001115],"type":"Point"},"properties":{"events":[{"categories":["Other \"Food \"","Festival","Music","Free"],"eDate":"2026-03-29","eName":"Ausecuma Beats: Carnaval Tropicana","genre":null,"price":"Free","supports":["Kgomotso"],"ticketUrl":null,"time":" 2pm"},{"categories":["Other \"Food \"","Comedy","Festival"],"eDate":"2026-03-29","eName":"On The Gags: Comedy Fest Extravaganza","genre":null,"price":"$20.00 - 25.00","supports":[],"ticketUrl":null,"time":" 8pm"}],"vName":"Bodriggy Brewing Company"},"type":"Feature"},{"geometry":{"coordinates":[144.9501312,-37.8042459],"type":"Point"},"properties":{"events":[{"categories":["Comedy"],"eDate":"2026-03-29","eName":"Sunday Night Comedy","genre":null,"price":"$10.00","supports":[],"ticketUrl":null,"time":" 7:30pm"}],"vName":"Club Voltaire"},"type":"Feature"},{"geometry":{"coordinates":[144.96904143685853,-37.81799793179876],"type":"Point"},"properties":{"events":[{"categories":["Other \"Food \""],"eDate":"2026-03-29","eName":"Lunch with Helen Goh","genre":null,"price":"$200.00 - 240.00","supports":[],"ticketUrl":null,"time":"12pm"}],"vName":"Federation Square"},"type":"Feature"},{"geometry":{"coordinates":[144.9679835,-37.8201575],"type":"Point"},"properties":{"events":[{"categories":["Other \"Film\"","Music"],"eDate":"2026-03-29","eName":"Art of the Score: James Horner","genre":"Classical","price":"$88.00 - 150.00","supports":[],"ticketUrl":null,"time":" 2pm"}],"vName":"Hamer Hall (Arts Centre Melbourne)"},"type":"Feature"},{"geometry":{"coordinates":[144.9879283,-37.7505509],"type":"Point"},"properties":{"events":[{"categories":["Music"],"eDate":"2026-03-29","eName":"Crumbe","genre":"Rock","price":"Free","supports":[],"ticketUrl":null,"time":" 4pm"}],"vName":"The Merri Bar"},"type":"Feature"},{"geometry":{"coordinates":[144.2195588,-37.0663699],"type":"Point"},"properties":{"events":[{"categories":["Music"],"eDate":"2026-03-29","eName":"The Brian Jonestown Massacre","genre":null,"price":"$99.90","supports":[],"ticketUrl":null,"time":" 5pm"}],"vName":"Theatre Royal Castlemaine"},"type":"Feature"}],"type":"FeatureCollection"}