{"features":[{"geometry":{"coordinates":[144.9982812,-37.7713296],"type":"Point"},"properties":{"events":[{"categories":["Music"],"eDate":"2025-08-08","eName":"The Cinematics + Butter Space","genre":"Jazz","price":"Free","supports":[],"ticketUrl":null,"time":" 6pm"},{"categories":["Music"],"eDate":"2025-08-08","eName":"Laughing Waters","genre":"Indie","price":"Free","supports":["Lara Buchanan"],"ticketUrl":null,"time":" 8pm"}],"vName":"Bar 303"},"type":"Feature"},{"geometry":{"coordinates":[144.9891167,-37.7996488],"type":"Point"},"properties":{"events":[{"categories":["Music"],"eDate":"2025-08-08","eName":"Nothing","genre":"Metal","price":"$17.35","supports":["Vault Hill"," Roswell Deathsquad"," Oppose The Sun"],"ticketUrl":null,"time":" 8:30pm"},{"categories":["Music"],"eDate":"2025-08-08","eName":"Smoking Caterpillar","genre":"Rock","price":"$17.30","supports":["Wrendive"," Long Legs"],"ticketUrl":null,"time":" 8:30pm"}],"vName":"Bendigo Hotel"},"type":"Feature"},{"geometry":{"coordinates":[144.9568039,-37.8111442],"type":"Point"},"properties":{"events":[{"categories":["Music"],"eDate":"2025-08-08","eName":"Wendy Stapleton’s Dusty Springfield Show","genre":"Pop","price":"$40.00","supports":[],"ticketUrl":null,"time":" 6pm"}],"vName":"Bird's Basement"},"type":"Feature"},{"geometry":{"coordinates":[144.9617083,-37.7704205],"type":"Point"},"properties":{"events":[{"categories":["Music"],"eDate":"2025-08-08","eName":"Celebrating 75 Years of Stevie Wonder","genre":"Soul/Funk","price":"$38.86 - 54.67","supports":[],"ticketUrl":null,"time":" 8:30pm"}],"vName":"Brunswick Ballroom"},"type":"Feature"},{"geometry":{"coordinates":[144.9713425,-37.8128595],"type":"Point"},"properties":{"events":[{"categories":["Free","Music"],"eDate":"2025-08-08","eName":"Cock Rock","genre":"Rock","price":"Free","supports":[],"ticketUrl":null,"time":" 9pm"},{"categories":["Music"],"eDate":"2025-08-08","eName":"Cherryoke Live Band Karaoke","genre":"Rock","price":"Free","supports":[],"ticketUrl":null,"time":" 9pm"}],"vName":"Cherry Bar"},"type":"Feature"},{"geometry":{"coordinates":[144.9926664,-37.8248893],"type":"Point"},"properties":{"events":[{"categories":["Music"],"eDate":"2025-08-08","eName":"Press Club","genre":"Punk","price":"$40.40","supports":["Placement"," Dogworld"],"ticketUrl":null,"time":" 8:30pm"}],"vName":"Corner Hotel"},"type":"Feature"},{"geometry":{"coordinates":[144.9785611,-37.7965465],"type":"Point"},"properties":{"events":[{"categories":["Music"],"eDate":"2025-08-08","eName":"Horizon: A New Chapter – In Tribute to Stuart Fraser","genre":"Rock","price":"$35.00","supports":["Peter Freebairn with Radio Vertigo"," The Sonettes"],"ticketUrl":null,"time":" 8:30pm"}],"vName":"Evelyn Hotel"},"type":"Feature"},{"geometry":{"coordinates":[144.9787378,-37.7954205],"type":"Point"},"properties":{"events":[{"categories":["Music"],"eDate":"2025-08-08","eName":"Interval: Claire O’Brien + JOVE","genre":"Electronic","price":"$15.00 - 25.00","supports":["Bluntslide"," El Garlick"," Jessy"],"ticketUrl":null,"time":"10pm"}],"vName":"Glamorama"},"type":"Feature"},{"geometry":{"coordinates":[144.973013,-37.8640582],"type":"Point"},"properties":{"events":[{"categories":["Music"],"eDate":"2025-08-08","eName":"Mamma Mia: ABBA Tribute Show","genre":"Pop","price":"$38.25","supports":[],"ticketUrl":null,"time":" 7pm"},{"categories":["Music"],"eDate":"2025-08-08","eName":"Shakespeare","genre":"Rock","price":"$15.85","supports":[],"ticketUrl":null,"time":" 7:30pm"}],"vName":"Hotel Esplanade (aka The Espy)"},"type":"Feature"},{"geometry":{"coordinates":[145.0314658,-37.8067273],"type":"Point"},"properties":{"events":[{"categories":["Music"],"eDate":"2025-08-08","eName":"Kew Court House Live: Radiosuccessi","genre":null,"price":"$20.00","supports":[],"ticketUrl":null,"time":" 7:30pm"}],"vName":"Kew Court House"},"type":"Feature"},{"geometry":{"coordinates":[144.9936498,-37.8000264],"type":"Point"},"properties":{"events":[{"categories":["Music"],"eDate":"2025-08-08","eName":"Lady Lyon","genre":"Rock","price":"Free","supports":["The Lulablues"],"ticketUrl":null,"time":" 9pm"}],"vName":"Lulie Tavern"},"type":"Feature"},{"geometry":{"coordinates":[144.9658499,-37.8147453],"type":"Point"},"properties":{"events":[{"categories":["Music"],"eDate":"2025-08-08","eName":"Swiftest 100 Countdown","genre":"Pop","price":"$33.15 - 38.25","supports":[],"ticketUrl":null,"time":" 6:30pm"}],"vName":"Max Watt's (Melbourne)"},"type":"Feature"},{"geometry":{"coordinates":[144.9675876,-37.8240849],"type":"Point"},"properties":{"events":[{"categories":["Music"],"eDate":"2025-08-08","eName":"Danielle de Niese","genre":"Classical","price":"$75.00","supports":[],"ticketUrl":null,"time":" 7:30pm"}],"vName":"Melbourne Recital Centre"},"type":"Feature"},{"geometry":{"coordinates":[144.998414,-37.771471],"type":"Point"},"properties":{"events":[{"categories":["Music"],"eDate":"2025-08-08","eName":"The Yachtski Brothers","genre":"Soul/Funk","price":"Free","supports":[],"ticketUrl":null,"time":" 8:30pm"}],"vName":"Northcote Social Club"},"type":"Feature"},{"geometry":{"coordinates":[145.0015248,-37.8258878],"type":"Point"},"properties":{"events":[{"categories":["Free","Music"],"eDate":"2025-08-08","eName":"La Discothèque","genre":null,"price":"Free","supports":[],"ticketUrl":null,"time":" 9pm"}],"vName":"Odeon Richmond"},"type":"Feature"},{"geometry":{"coordinates":[144.97711,-37.79833],"type":"Point"},"properties":{"events":[{"categories":["Music"],"eDate":"2025-08-08","eName":"Big Scary Indian","genre":null,"price":"$15.00","supports":["The Maggie Pills"," Dopplerhaus"," The Genevieves"],"ticketUrl":null,"time":" 8pm"}],"vName":"Old Bar"},"type":"Feature"},{"geometry":{"coordinates":[144.96084,-37.813514],"type":"Point"},"properties":{"events":[{"categories":["Music"],"eDate":"2025-08-08","eName":"Sondheim: unbound with Elissa Rodger","genre":"Jazz","price":"$40.00","supports":[],"ticketUrl":null,"time":" 6pm"},{"categories":["Music"],"eDate":"2025-08-08","eName":"Come to Brazil: Georgie Aué Band","genre":"Jazz","price":"Free","supports":[],"ticketUrl":null,"time":" 6:30pm"},{"categories":["Music"],"eDate":"2025-08-08","eName":"Not So Big Band: Shaken Not Stirred – The Music of James Bond","genre":"Jazz","price":"$45.00","supports":[],"ticketUrl":null,"time":" 9pm"},{"categories":["Music"],"eDate":"2025-08-08","eName":"New Orleans Street Vibe","genre":"Jazz","price":"Free","supports":[],"ticketUrl":null,"time":" 9:30pm"}],"vName":"Paris Cat Jazz Club"},"type":"Feature"},{"geometry":{"coordinates":[144.965405,-37.8117457],"type":"Point"},"properties":{"events":[{"categories":["Music"],"eDate":"2025-08-08","eName":"House of Wanton","genre":null,"price":"Free","supports":["more"],"ticketUrl":null,"time":" 6pm"}],"vName":"Section 8"},"type":"Feature"},{"geometry":{"coordinates":[144.9607404,-37.7743469],"type":"Point"},"properties":{"events":[{"categories":["Music"],"eDate":"2025-08-08","eName":"Phreshboyswag","genre":"Hip Hop","price":"$42.95","supports":["Sidney Philips"," Hugook"],"ticketUrl":null,"time":" 7pm"}],"vName":"Stay Gold"},"type":"Feature"},{"geometry":{"coordinates":[144.9706211,-37.778276],"type":"Point"},"properties":{"events":[{"categories":["Music"],"eDate":"2025-08-08","eName":"Club Creature DJs","genre":"Electronic","price":"Free","supports":[],"ticketUrl":null,"time":" 8pm"}],"vName":"The Beast"},"type":"Feature"},{"geometry":{"coordinates":[144.9657057,-37.8061581],"type":"Point"},"properties":{"events":[{"categories":["Music"],"eDate":"2025-08-08","eName":"Arseless Chaps","genre":"Electronic","price":"$49.90","supports":["Twinkle Digitz"],"ticketUrl":null,"time":" 8pm"}],"vName":"The Curtin"},"type":"Feature"},{"geometry":{"coordinates":[144.9463641,-37.8047757],"type":"Point"},"properties":{"events":[{"categories":["Music"],"eDate":"2025-08-08","eName":"Suneden","genre":"Soul/Funk","price":"$16.35","supports":["Barefoot Spacemen"," Leslie D King"],"ticketUrl":null,"time":" 8pm"}],"vName":"The Last Chance Rock & Roll Bar"},"type":"Feature"},{"geometry":{"coordinates":[144.9708437,-37.7973184],"type":"Point"},"properties":{"events":[{"categories":["Music"],"eDate":"2025-08-08","eName":"Cailleach","genre":null,"price":"$20.26","supports":[],"ticketUrl":null,"time":" 8pm"}],"vName":"The Motley Bauhaus"},"type":"Feature"},{"geometry":{"coordinates":[145.3445715,-37.9066288],"type":"Point"},"properties":{"events":[{"categories":["Free","Music"],"eDate":"2025-08-08","eName":"Trash & The Treasures","genre":"Rock","price":"Free","supports":["Fungoose"],"ticketUrl":null,"time":" 8pm"}],"vName":"The Railyard Saloon"},"type":"Feature"},{"geometry":{"coordinates":[144.9998797,-37.7616512],"type":"Point"},"properties":{"events":[{"categories":["Music"],"eDate":"2025-08-08","eName":"Sanz Mantra","genre":"Acoustic","price":"Free","supports":["Anthony Rea"],"ticketUrl":null,"time":" 8pm"}],"vName":"The Thornbury Local"},"type":"Feature"},{"geometry":{"coordinates":[144.9651425,-37.8119429],"type":"Point"},"properties":{"events":[{"categories":["Music"],"eDate":"2025-08-08","eName":"The Art of the Side Room: Mike G Takeover","genre":"Electronic","price":"Free","supports":["Mothafunk"," Ennio Styles"],"ticketUrl":null,"time":" 9pm"},{"categories":["Free","Music"],"eDate":"2025-08-08","eName":"Bounce Melb Resident Take Over","genre":"Electronic","price":"Free","supports":[],"ticketUrl":null,"time":"10pm"}],"vName":"The Toff In Town"},"type":"Feature"},{"geometry":{"coordinates":[144.9769451,-37.8055776],"type":"Point"},"properties":{"events":[{"categories":["Music"],"eDate":"2025-08-08","eName":"Neomantra","genre":"Metal","price":"$23.50","supports":["Oceanlord"," Sufferance"," Shipyard"],"ticketUrl":null,"time":" 8pm"}],"vName":"The Workers Club"},"type":"Feature"},{"geometry":{"coordinates":[144.9661635,-37.8176298],"type":"Point"},"properties":{"events":[{"categories":["Free","Music"],"eDate":"2025-08-08","eName":"Downstairs Disco","genre":"Soul/Funk","price":"Free","supports":[],"ticketUrl":null,"time":" 9pm"}],"vName":"Wax Music Lounge"},"type":"Feature"}],"type":"FeatureCollection"}