{"features":[{"geometry":{"coordinates":[144.99828116650363,-37.7713296],"type":"Point"},"properties":{"events":[{"categories":["Music"],"eDate":"2024-07-06","eName":"Pinko Collective","genre":"Rock","price":"Free","supports":[],"ticketUrl":null,"time":" 3pm"},{"categories":["Music"],"eDate":"2024-07-06","eName":"Champagne Jacket","genre":"Indie","price":"$16.00 - 55.00","supports":[],"ticketUrl":null,"time":" 7pm"}],"vName":"Bar 303"},"type":"Feature"},{"geometry":{"coordinates":[144.978425,-37.79773],"type":"Point"},"properties":{"events":[{"categories":["Music"],"eDate":"2024-07-06","eName":"Deadnerve","genre":"Metal","price":"$25.00","supports":["Liar"," Deadskin"," Deadweight80"],"ticketUrl":null,"time":" 8:30pm"},{"categories":["Free","Music"],"eDate":"2024-07-06","eName":"Midnight Circuitry / Synaptic Dreams","genre":"Electronic","price":"Free","supports":[],"ticketUrl":null,"time":"11pm"}],"vName":"Bar Open"},"type":"Feature"},{"geometry":{"coordinates":[144.978682,-37.7981225],"type":"Point"},"properties":{"events":[{"categories":["Music"],"eDate":"2024-07-06","eName":"Lewis Toms","genre":null,"price":"Free","supports":[],"ticketUrl":null,"time":" 9:30pm"}],"vName":"Baxter's Lot"},"type":"Feature"},{"geometry":{"coordinates":[145.00041662186553,-37.76125825],"type":"Point"},"properties":{"events":[{"categories":["Music","Dance","Art"],"eDate":"2024-07-06","eName":"Dark FOMO 5 - Choose Your Own Adventure","genre":"Rock","price":"$25.00","supports":["The Miffs"," Long Hours"],"ticketUrl":null,"time":" 8pm"}],"vName":"Cactus Room"},"type":"Feature"},{"geometry":{"coordinates":[144.9713425,-37.8128595],"type":"Point"},"properties":{"events":[{"categories":["Music"],"eDate":"2024-07-06","eName":"Ungrateful Deadfest: Brutality 2024","genre":"Metal","price":"$38.91","supports":[],"ticketUrl":null,"time":" 5pm"}],"vName":"Cherry Bar"},"type":"Feature"},{"geometry":{"coordinates":[144.9248037207342,-37.7656716],"type":"Point"},"properties":{"events":[{"categories":["Theatre"],"eDate":"2024-07-06","eName":"Western Ballet Project presents A Christmas (in July) Carol","genre":null,"price":"$50.00","supports":[],"ticketUrl":null,"time":" 6:30pm"}],"vName":"Clocktower Centre"},"type":"Feature"},{"geometry":{"coordinates":[144.99266639479475,-37.82488935],"type":"Point"},"properties":{"events":[{"categories":["Music"],"eDate":"2024-07-06","eName":"Steph Strings","genre":"Country/Folk","price":"$40.40","supports":["Anna Stanton"," Austin Mackay"],"ticketUrl":null,"time":" 8:30pm"}],"vName":"Corner Hotel"},"type":"Feature"},{"geometry":{"coordinates":[144.9764962,-37.7983139],"type":"Point"},"properties":{"events":[{"categories":["Music"],"eDate":"2024-07-06","eName":"Man De Lorean","genre":"Hip Hop","price":"$24.26","supports":["DJ Oly"],"ticketUrl":null,"time":" 9pm"}],"vName":"Laundry Bar"},"type":"Feature"},{"geometry":{"coordinates":[144.8971518,-37.8054274],"type":"Point"},"properties":{"events":[{"categories":["Music"],"eDate":"2024-07-06","eName":"Qwiny","genre":null,"price":"$15.00 - 50.00","supports":["Miss Understood"," Ed Moon"," RE_IMAGE"," Rickfean & the Bleeding Peach"],"ticketUrl":null,"time":" 8pm"}],"vName":"Mamma Chen's"},"type":"Feature"},{"geometry":{"coordinates":[144.96741062735794,-37.82454855],"type":"Point"},"properties":{"events":[{"categories":["Music"],"eDate":"2024-07-06","eName":"Tarab Ensemble","genre":"Global","price":"$50.00","supports":[],"ticketUrl":null,"time":" 7pm"},{"categories":["Music"],"eDate":"2024-07-06","eName":"Late Night Orchestra: The Portishead Legacy","genre":"Electronic","price":"$79.00 - 89.00","supports":[],"ticketUrl":null,"time":" 8pm"}],"vName":"Melbourne Recital Centre"},"type":"Feature"},{"geometry":{"coordinates":[144.998414,-37.771471],"type":"Point"},"properties":{"events":[{"categories":["Music"],"eDate":"2024-07-06","eName":"WALA Is Life: Nungua Homowo","genre":"Acoustic","price":"$25.99","supports":["Wassawumba Ensemble"],"ticketUrl":null,"time":" 8:30pm"}],"vName":"Northcote Social Club"},"type":"Feature"},{"geometry":{"coordinates":[144.97711,-37.79833],"type":"Point"},"properties":{"events":[{"categories":["Free","Music"],"eDate":"2024-07-06","eName":"The Neurotics + The Mundaynes","genre":"Rock","price":"Free","supports":[],"ticketUrl":null,"time":" 3pm"}],"vName":"Old Bar"},"type":"Feature"},{"geometry":{"coordinates":[144.9605705,-37.8132486],"type":"Point"},"properties":{"events":[{"categories":["Music"],"eDate":"2024-07-06","eName":"Emma Gilmartin Quartet","genre":"Jazz","price":"$45.00","supports":[],"ticketUrl":null,"time":" 6pm"},{"categories":["Music"],"eDate":"2024-07-06","eName":"Nardia Presents: The Women Of Jazz And Soul","genre":"Jazz","price":"$45.00","supports":[],"ticketUrl":null,"time":" 6:30pm"},{"categories":["Music"],"eDate":"2024-07-06","eName":"Oscar Bruten Septet Plays: The Music of Monk & Mingus","genre":"Jazz","price":"$45.00","supports":[],"ticketUrl":null,"time":" 9:30pm"}],"vName":"Paris Cat Jazz Club"},"type":"Feature"},{"geometry":{"coordinates":[144.9615882,-37.7711432],"type":"Point"},"properties":{"events":[{"categories":["Music"],"eDate":"2024-07-06","eName":"Rabbit","genre":"Punk","price":"$15.00","supports":["The States"," Super Tart"],"ticketUrl":null,"time":" 2:30pm"},{"categories":["Music"],"eDate":"2024-07-06","eName":"Simo Soo","genre":"Electronic","price":"$15.00","supports":["Ze Wisenheimer"," Lower Kingdom"," Astrid Ampersand"],"ticketUrl":null,"time":" 7:30pm"}],"vName":"Retreat Hotel"},"type":"Feature"},{"geometry":{"coordinates":[144.9657057,-37.8061581],"type":"Point"},"properties":{"events":[{"categories":["Music"],"eDate":"2024-07-06","eName":"Program","genre":"Rock","price":"$27.95","supports":["Parsnip"," Possible Humans"],"ticketUrl":null,"time":" 8pm"}],"vName":"The Curtin"},"type":"Feature"},{"geometry":{"coordinates":[144.9769450659087,-37.8055776],"type":"Point"},"properties":{"events":[{"categories":["Music"],"eDate":"2024-07-06","eName":"Charlie Pittman","genre":"Indie","price":"$28.30","supports":["Chloe Parche"," Toby Hobart"," Jacob Fitzgerald"],"ticketUrl":null,"time":" 8pm"}],"vName":"The Workers Club"},"type":"Feature"},{"geometry":{"coordinates":[144.9807148,-37.7801461],"type":"Point"},"properties":{"events":[{"categories":["Music"],"eDate":"2024-07-06","eName":"Wren Bellette & The Restless Few","genre":"Country/Folk","price":"Free","supports":["Jackson Freud"],"ticketUrl":null,"time":" 4pm"}],"vName":"Tramway Hotel"},"type":"Feature"},{"geometry":{"coordinates":[144.9983987,-37.7729204],"type":"Point"},"properties":{"events":[{"categories":["Music"],"eDate":"2024-07-06","eName":"Love Me or Leave Me: A Tribute to Nina Simone","genre":"Soul/Funk","price":"$30.60","supports":[],"ticketUrl":null,"time":" 8pm"},{"categories":["Music","Other \"Cabaret\""],"eDate":"2024-07-06","eName":"Love Me Or Leave Me: A Tribute to Nina Simone","genre":"Jazz","price":"$30.60","supports":[],"ticketUrl":null,"time":" 8pm"}],"vName":"Wesley Anne"},"type":"Feature"},{"geometry":{"coordinates":[144.9827552,-37.8041303],"type":"Point"},"properties":{"events":[{"categories":["Music"],"eDate":"2024-07-06","eName":"Scatter Light","genre":"Pop","price":"$15.00","supports":["hey spiro"],"ticketUrl":null,"time":" 7pm"}],"vName":"Yah Yah's"},"type":"Feature"}],"type":"FeatureCollection"}