{"features":[{"geometry":{"coordinates":[144.978425,-37.79773],"type":"Point"},"properties":{"events":[{"categories":["Music"],"eDate":"2024-12-31","eName":"Fast Grind Fever NYE 2024","genre":"Soul/Funk","price":"$33.70","supports":[],"ticketUrl":null,"time":" 9pm"}],"vName":"Bar Open"},"type":"Feature"},{"geometry":{"coordinates":[144.9617018,-37.7704566],"type":"Point"},"properties":{"events":[{"categories":["Music"],"eDate":"2024-12-31","eName":"BJORN AGAIN: New Years Eve Party","genre":"Pop","price":"$133.21","supports":[],"ticketUrl":null,"time":" 7pm"}],"vName":"Brunswick Ballroom"},"type":"Feature"},{"geometry":{"coordinates":[144.9679835243618,-37.8201575],"type":"Point"},"properties":{"events":[{"categories":["Music"],"eDate":"2024-12-31","eName":"New Year’s Eve Gala Concert (Matinee Session)","genre":"Classical","price":"$110.00 - 160.00","supports":[],"ticketUrl":null,"time":" 2pm"},{"categories":["Music"],"eDate":"2024-12-31","eName":"New Year’s Eve Gala Concert: The Day Before","genre":"Classical","price":"$110.00 - 160.00","supports":[],"ticketUrl":null,"time":" 8pm"}],"vName":"Hamer Hall (Arts Centre Melbourne)"},"type":"Feature"},{"geometry":{"coordinates":[144.9596527,-37.7720304],"type":"Point"},"properties":{"events":[{"categories":["Music"],"eDate":"2024-12-31","eName":"Resolution NYE 2024","genre":"Electronic","price":"$42.84 - 94.35","supports":[],"ticketUrl":null,"time":" 6pm"}],"vName":"Howler"},"type":"Feature"},{"geometry":{"coordinates":[144.9936498,-37.8000264],"type":"Point"},"properties":{"events":[{"categories":["Music"],"eDate":"2024-12-31","eName":"New Year's Eve @ Lulie Tavern","genre":"Acoustic","price":"Free","supports":[],"ticketUrl":null,"time":" 8pm"}],"vName":"Lulie Tavern"},"type":"Feature"},{"geometry":{"coordinates":[144.9786817,-37.8671902],"type":"Point"},"properties":{"events":[{"categories":["Music"],"eDate":"2024-12-31","eName":"Melbourne Ska Orchestra: 2024 NYE Extravaganza","genre":"Jazz","price":"$40.00 - 55.00","supports":[],"ticketUrl":null,"time":" 8:30pm"}],"vName":"Memo Music Hall"},"type":"Feature"},{"geometry":{"coordinates":[144.9712356,-37.812902],"type":"Point"},"properties":{"events":[{"categories":["Music"],"eDate":"2024-12-31","eName":"New Year’s Eve","genre":"Electronic","price":"$120.00","supports":[],"ticketUrl":null,"time":" 7pm"}],"vName":"Morris House"},"type":"Feature"},{"geometry":{"coordinates":[144.9977626,-37.7755001],"type":"Point"},"properties":{"events":[{"categories":["Music"],"eDate":"2024-12-31","eName":"High Times: NYE","genre":"Electronic","price":"$99.00 - 129.00","supports":["Baro Sura"," Errol & Alex Rita"," Hagan"," Karen Nyame KG"," Miss Kaninna"," Nai Palm"," Richard Akingbehin"," Sanctuary"," more"],"ticketUrl":null,"time":" 3pm"}],"vName":"Northcote Theatre"},"type":"Feature"},{"geometry":{"coordinates":[144.97711,-37.79833],"type":"Point"},"properties":{"events":[{"categories":["Music"],"eDate":"2024-12-31","eName":"NYE: Frenzee","genre":"Rock","price":"$28.60","supports":["Grim Rhythm"," Tankerville"," The Antics"],"ticketUrl":null,"time":" 7pm"}],"vName":"Old Bar"},"type":"Feature"},{"geometry":{"coordinates":[144.90239079583333,-37.79990865],"type":"Point"},"properties":{"events":[{"categories":["Music","Other \"Cabaret\""],"eDate":"2024-12-31","eName":"All That Glitters New Year's Eve Party","genre":"Pop","price":"$20.00","supports":[],"ticketUrl":null,"time":" 9pm"}],"vName":"Pride Of Our Footscray Community Bar"},"type":"Feature"},{"geometry":{"coordinates":[144.9615882,-37.7711432],"type":"Point"},"properties":{"events":[{"categories":["Free","Music"],"eDate":"2024-12-31","eName":"Bob Log III: NYE Special","genre":"Rock","price":"Free","supports":[],"ticketUrl":null,"time":" 7:30pm"}],"vName":"Retreat Hotel"},"type":"Feature"},{"geometry":{"coordinates":[144.9607404,-37.7743469],"type":"Point"},"properties":{"events":[{"categories":["Music"],"eDate":"2024-12-31","eName":"Charli XCX Brat NYE Party","genre":"Pop","price":"$14.42 - 30.00","supports":[],"ticketUrl":null,"time":" 8pm"}],"vName":"Stay Gold"},"type":"Feature"},{"geometry":{"coordinates":[144.9830837,-37.7988316],"type":"Point"},"properties":{"events":[{"categories":["Music"],"eDate":"2024-12-31","eName":"NYE at The Night Cat: DJ Questlove","genre":"Soul/Funk","price":"$75.00 - 125.00","supports":[],"ticketUrl":null,"time":" 9pm"}],"vName":"The Night Cat"},"type":"Feature"},{"geometry":{"coordinates":[144.9651425,-37.8119429],"type":"Point"},"properties":{"events":[{"categories":["Music"],"eDate":"2024-12-31","eName":"Now Here This: N.Y.E Special","genre":"Soul/Funk","price":"$43.86","supports":[],"ticketUrl":null,"time":" 7pm"}],"vName":"The Toff In Town"},"type":"Feature"},{"geometry":{"coordinates":[144.9846126,-37.7989941],"type":"Point"},"properties":{"events":[{"categories":["Music","Other \"Cabaret\""],"eDate":"2024-12-31","eName":"BONEZ: New Queers Eve","genre":"Punk","price":"$30.00 - 40.00","supports":[],"ticketUrl":null,"time":" 9pm"}],"vName":"The Tote Hotel"},"type":"Feature"}],"type":"FeatureCollection"}