{"features":[{"geometry":{"coordinates":[144.9715791,-37.8140656],"type":"Point"},"properties":{"events":[{"categories":["Theatre"],"eDate":"2025-02-12","eName":"Shirley Valentine","genre":null,"price":"$30.00 - 139.00","supports":[],"ticketUrl":null,"time":" 1pm"},{"categories":["Theatre"],"eDate":"2025-02-12","eName":"Shirley Valentine","genre":null,"price":"$30.00 - 139.00","supports":[],"ticketUrl":null,"time":" 7pm"}],"vName":"Athenaeum Theatre"},"type":"Feature"},{"geometry":{"coordinates":[144.978682,-37.7981225],"type":"Point"},"properties":{"events":[{"categories":["Free","Music"],"eDate":"2025-02-12","eName":"Ari Davis","genre":null,"price":"Free","supports":[],"ticketUrl":null,"time":" 9pm"}],"vName":"Baxter's Lot"},"type":"Feature"},{"geometry":{"coordinates":[144.9945274,-37.8001115],"type":"Point"},"properties":{"events":[{"categories":["Free","Music","Other \"Food & Drink\""],"eDate":"2025-02-12","eName":"Uncomfortable Science!","genre":null,"price":"Free","supports":[],"ticketUrl":null,"time":" 7pm"},{"categories":["Free","Music","Other \"Food & Drink\""],"eDate":"2025-02-12","eName":"Athena Lim + Libby Ingels","genre":null,"price":"Free","supports":[],"ticketUrl":null,"time":" 7:30pm"}],"vName":"Bodriggy Brewing Company"},"type":"Feature"},{"geometry":{"coordinates":[144.9523262,-38.401806],"type":"Point"},"properties":{"events":[{"categories":["Music"],"eDate":"2025-02-12","eName":"Felicity Urquhart & Josh Cunningham (of The Waifs)","genre":"Country/Folk","price":"$45.00","supports":[],"ticketUrl":null,"time":" 7:30pm"}],"vName":"The Shed @ The Pig & Whistle"},"type":"Feature"},{"geometry":{"coordinates":[144.9618426,-37.8125531],"type":"Point"},"properties":{"events":[{"categories":["Free","Music"],"eDate":"2025-02-12","eName":"Ben Emes","genre":"Electronic","price":"Free","supports":[],"ticketUrl":null,"time":" 3pm"}],"vName":"Whitehart Bar"},"type":"Feature"}],"type":"FeatureCollection"}