{"features":[{"geometry":{"coordinates":[144.9982812,-37.7713296],"type":"Point"},"properties":{"events":[{"categories":["Music"],"eDate":"2025-07-19","eName":"Winter Song Afternoon","genre":"Country/Folk","price":"Free","supports":[],"ticketUrl":null,"time":" 4pm"},{"categories":["Music"],"eDate":"2025-07-19","eName":"Jim Villarreal DJ Night","genre":"Electronic","price":"Free","supports":[],"ticketUrl":null,"time":" 8pm"}],"vName":"Bar 303"},"type":"Feature"},{"geometry":{"coordinates":[144.978682,-37.7981225],"type":"Point"},"properties":{"events":[{"categories":["Free","Music"],"eDate":"2025-07-19","eName":"Lewis Ciavarella","genre":null,"price":"Free","supports":[],"ticketUrl":null,"time":" 9pm"},{"categories":["Free","Music"],"eDate":"2025-07-19","eName":"DJ Nomar Jr","genre":null,"price":"Free","supports":[],"ticketUrl":null,"time":"10pm"}],"vName":"Baxter's Lot"},"type":"Feature"},{"geometry":{"coordinates":[144.9891167,-37.7996488],"type":"Point"},"properties":{"events":[{"categories":["Music","Markets"],"eDate":"2025-07-19","eName":"Black Match Candles presents Dead Wax Ceremony + Market","genre":"Rock","price":"$17.35","supports":["Sundowner"," Bruxist"," Speyer"],"ticketUrl":null,"time":"12pm"}],"vName":"Bendigo Hotel"},"type":"Feature"},{"geometry":{"coordinates":[144.9568039,-37.8111442],"type":"Point"},"properties":{"events":[{"categories":["Music"],"eDate":"2025-07-19","eName":"B# Big Band with Nikki Nicholls & Dale Ryder","genre":"Soul/Funk","price":"$50.00","supports":[],"ticketUrl":null,"time":" 7:30pm"}],"vName":"Bird's Basement"},"type":"Feature"},{"geometry":{"coordinates":[144.9713425,-37.8128595],"type":"Point"},"properties":{"events":[{"categories":["Music"],"eDate":"2025-07-19","eName":"Crazy Nights","genre":"Rock","price":"$17.48","supports":["Americana"," Cherry Octane"],"ticketUrl":null,"time":" 7:30pm"}],"vName":"Cherry Bar"},"type":"Feature"},{"geometry":{"coordinates":[145.0006883,-37.8838373],"type":"Point"},"properties":{"events":[{"categories":["Music"],"eDate":"2025-07-19","eName":"Peter Baylor’s Ultrafox Quartet","genre":"Jazz","price":"$25.00 - 30.00","supports":[],"ticketUrl":null,"time":" 8pm"}],"vName":"Classic Southside"},"type":"Feature"},{"geometry":{"coordinates":[144.9787378,-37.7954205],"type":"Point"},"properties":{"events":[{"categories":["Music"],"eDate":"2025-07-19","eName":"PRVA – MOTUS","genre":"Electronic","price":"$20.00","supports":[],"ticketUrl":null,"time":" 4pm"}],"vName":"Glamorama"},"type":"Feature"},{"geometry":{"coordinates":[144.9679835,-37.8201575],"type":"Point"},"properties":{"events":[{"categories":["Music"],"eDate":"2025-07-19","eName":"Journey to the Americas","genre":"Classical","price":"$51.00","supports":[],"ticketUrl":null,"time":" 7:30pm"}],"vName":"Hamer Hall (Arts Centre Melbourne)"},"type":"Feature"},{"geometry":{"coordinates":[145.0008148,-37.8107158],"type":"Point"},"properties":{"events":[{"categories":["Music"],"eDate":"2025-07-19","eName":"Deep Majestic Thunder","genre":null,"price":"$12.75","supports":["Freya & The Vikings"," Flash Bastard Experience"," In Lucid Dream"],"ticketUrl":null,"time":" 7:30pm"}],"vName":"Leadbeater Hotel"},"type":"Feature"},{"geometry":{"coordinates":[145.0355738,-37.8205529],"type":"Point"},"properties":{"events":[{"categories":["Music"],"eDate":"2025-07-19","eName":"Bob Sedergreen & Friends with Amelia Evans","genre":"Jazz","price":"$25.00 - 30.00","supports":[],"ticketUrl":null,"time":" 8pm"}],"vName":"Lido Jazz Room"},"type":"Feature"},{"geometry":{"coordinates":[144.9675876,-37.8240849],"type":"Point"},"properties":{"events":[{"categories":["Music"],"eDate":"2025-07-19","eName":"2025 MYO Winter School Showcase","genre":"Classical","price":"$40.00","supports":[],"ticketUrl":null,"time":" 7pm"}],"vName":"Melbourne Recital Centre"},"type":"Feature"},{"geometry":{"coordinates":[144.998414,-37.771471],"type":"Point"},"properties":{"events":[{"categories":["Music"],"eDate":"2025-07-19","eName":"The Fauves","genre":"Rock","price":"$50.00","supports":["The Stress Of Leisure"," Mousse Cannon"],"ticketUrl":null,"time":" 8pm"}],"vName":"Northcote Social Club"},"type":"Feature"},{"geometry":{"coordinates":[145.0015248,-37.8258878],"type":"Point"},"properties":{"events":[{"categories":["Music"],"eDate":"2025-07-19","eName":"Lizard Lounge","genre":"Indie","price":"$20.40","supports":[],"ticketUrl":null,"time":" 8pm"}],"vName":"Odeon Richmond"},"type":"Feature"},{"geometry":{"coordinates":[144.97711,-37.79833],"type":"Point"},"properties":{"events":[{"categories":["Free","Music"],"eDate":"2025-07-19","eName":"Wage Cut + Dinosauard","genre":"Rock","price":"Free","supports":[],"ticketUrl":null,"time":" 3:30pm"}],"vName":"Old Bar"},"type":"Feature"},{"geometry":{"coordinates":[144.96084,-37.813514],"type":"Point"},"properties":{"events":[{"categories":["Music"],"eDate":"2025-07-19","eName":"Not So Big Band: The Music of Sting","genre":"Jazz","price":"$45.00","supports":[],"ticketUrl":null,"time":" 6pm"},{"categories":["Music"],"eDate":"2025-07-19","eName":"Hot Club Swing","genre":"Jazz","price":"$45.00","supports":[],"ticketUrl":null,"time":" 6:30pm"},{"categories":["Music"],"eDate":"2025-07-19","eName":"The Little Bourke Big Band presents: The Blues Brothers","genre":"Jazz","price":"$45.00","supports":[],"ticketUrl":null,"time":" 9pm"},{"categories":["Music"],"eDate":"2025-07-19","eName":"Chris Johnstone Quintet: Play Grant Green & Joe Henderson","genre":"Jazz","price":"$45.00","supports":[],"ticketUrl":null,"time":" 9:30pm"}],"vName":"Paris Cat Jazz Club"},"type":"Feature"},{"geometry":{"coordinates":[144.9583409,-37.7664168],"type":"Point"},"properties":{"events":[{"categories":["Music"],"eDate":"2025-07-19","eName":"Joseph Franklin & Ben Carey","genre":"Electronic","price":"$25.00","supports":["Hantu"," Punko"],"ticketUrl":null,"time":" 7pm"}],"vName":"Quadraphonic Club"},"type":"Feature"},{"geometry":{"coordinates":[144.9607404,-37.7743469],"type":"Point"},"properties":{"events":[{"categories":["Music"],"eDate":"2025-07-19","eName":"Lee Harding Presents: The Best Of INXS","genre":"Rock","price":"$34.50","supports":["Fallen Empires: Tribute To Snow Patrol"],"ticketUrl":null,"time":" 7pm"},{"categories":["Free","Music"],"eDate":"2025-07-19","eName":"NOW THAT’S WHAT I CALL DAD ROCK","genre":"Rock","price":"Free","supports":[],"ticketUrl":null,"time":"11pm"}],"vName":"Stay Gold"},"type":"Feature"},{"geometry":{"coordinates":[144.32141,-37.38866],"type":"Point"},"properties":{"events":[{"categories":["Free","Music"],"eDate":"2025-07-19","eName":"Jesse Lawrance + Pete Fidler","genre":"Country/Folk","price":"Free","supports":[],"ticketUrl":null,"time":" 3pm"}],"vName":"The Cosmopolitan Hotel"},"type":"Feature"},{"geometry":{"coordinates":[144.9657057,-37.8061581],"type":"Point"},"properties":{"events":[{"categories":["Music"],"eDate":"2025-07-19","eName":"The Gin Club","genre":"Country/Folk","price":"$38.70","supports":["Mick Thomas & The RC3"," Freya Josephine Hollick"],"ticketUrl":null,"time":" 8pm"}],"vName":"The Curtin"},"type":"Feature"},{"geometry":{"coordinates":[144.9840598,-37.7827901],"type":"Point"},"properties":{"events":[{"categories":["Music"],"eDate":"2025-07-19","eName":"Maxine Gillon & The Blue Jeans","genre":null,"price":"$14.80","supports":["Hard Rubbish"," LXRP"],"ticketUrl":null,"time":" 8:30pm"}],"vName":"The Fitzroy Pinnacle"},"type":"Feature"},{"geometry":{"coordinates":[144.9463641,-37.8047757],"type":"Point"},"properties":{"events":[{"categories":["Music"],"eDate":"2025-07-19","eName":"Slaughter Cult","genre":"Metal","price":"$16.35","supports":["Crown Street Militia"," Gutta"," Sufferance"],"ticketUrl":null,"time":" 8pm"}],"vName":"The Last Chance Rock & Roll Bar"},"type":"Feature"},{"geometry":{"coordinates":[144.9800067,-37.76712],"type":"Point"},"properties":{"events":[{"categories":["Music"],"eDate":"2025-07-19","eName":"PSI PHI","genre":null,"price":"$15.00","supports":[],"ticketUrl":null,"time":" 9pm"}],"vName":"The Lomond Hotel"},"type":"Feature"},{"geometry":{"coordinates":[144.9879283,-37.7505509],"type":"Point"},"properties":{"events":[{"categories":["Music"],"eDate":"2025-07-19","eName":"The Tipplers","genre":"Blues","price":"Free","supports":[],"ticketUrl":null,"time":" 7pm"}],"vName":"The Merri Bar"},"type":"Feature"},{"geometry":{"coordinates":[144.9708437,-37.7973184],"type":"Point"},"properties":{"events":[{"categories":["Music"],"eDate":"2025-07-19","eName":"Motley Jazz Jam","genre":"Jazz","price":"Free","supports":[],"ticketUrl":null,"time":" 7:30pm"},{"categories":["Comedy","Theatre"],"eDate":"2025-07-19","eName":"The Big HOO-HAA!","genre":null,"price":"$32.00","supports":[],"ticketUrl":null,"time":" 8:30pm"}],"vName":"The Motley Bauhaus"},"type":"Feature"},{"geometry":{"coordinates":[144.9621651,-37.7679775],"type":"Point"},"properties":{"events":[{"categories":["Free","Music"],"eDate":"2025-07-19","eName":"Supa Lucia","genre":"Soul/Funk","price":"Free","supports":["The Pearlies"],"ticketUrl":null,"time":"10pm"}],"vName":"The Penny Black"},"type":"Feature"},{"geometry":{"coordinates":[144.9651425,-37.8119429],"type":"Point"},"properties":{"events":[{"categories":["Music"],"eDate":"2025-07-19","eName":"The Cat’s Miaow","genre":"Indie","price":"$25.50","supports":["Monnone Alone"," Think About You"],"ticketUrl":null,"time":"12pm"},{"categories":["Free","Music"],"eDate":"2025-07-19","eName":"Charbink$ Presents: Closure","genre":"Electronic","price":"Free","supports":[],"ticketUrl":null,"time":"11pm"}],"vName":"The Toff In Town"},"type":"Feature"},{"geometry":{"coordinates":[144.9769451,-37.8055776],"type":"Point"},"properties":{"events":[{"categories":["Music"],"eDate":"2025-07-19","eName":"Matinee: The Defibs (Debut Headline Show)","genre":"Rock","price":"$15.00","supports":["Vending Machine Repairmen"," RubyHoo"],"ticketUrl":null,"time":" 1pm"},{"categories":["Music"],"eDate":"2025-07-19","eName":"The Humane Method","genre":null,"price":"$10.00","supports":["Goat Coffin"," Dave Fazz"," DJ Dos"],"ticketUrl":null,"time":" 8:30pm"}],"vName":"The Workers Club"},"type":"Feature"},{"geometry":{"coordinates":[144.9984324,-37.7729134],"type":"Point"},"properties":{"events":[{"categories":["Music"],"eDate":"2025-07-19","eName":"Nick Lovell & The Redeemed Thieves","genre":"Country/Folk","price":"$17.35","supports":[],"ticketUrl":null,"time":" 8pm"}],"vName":"Wesley Anne"},"type":"Feature"}],"type":"FeatureCollection"}