{"features":[{"geometry":{"coordinates":[144.9982812,-37.7713296],"type":"Point"},"properties":{"events":[{"categories":["Music"],"eDate":"2025-12-19","eName":"The Tonalists","genre":"Rock","price":"$15.00","supports":[],"ticketUrl":null,"time":" 5:30pm"},{"categories":["Music"],"eDate":"2025-12-19","eName":"Phoebe’s Dream + Transient Blue","genre":null,"price":"$10.00","supports":[],"ticketUrl":null,"time":" 8pm"}],"vName":"Bar 303"},"type":"Feature"},{"geometry":{"coordinates":[144.978682,-37.7981225],"type":"Point"},"properties":{"events":[{"categories":["Free","Music"],"eDate":"2025-12-19","eName":"Lewis Ciavarella","genre":null,"price":"Free","supports":[],"ticketUrl":null,"time":" 9pm"}],"vName":"Baxter's Lot"},"type":"Feature"},{"geometry":{"coordinates":[144.9891167,-37.7996488],"type":"Point"},"properties":{"events":[{"categories":["Music"],"eDate":"2025-12-19","eName":"The Refuge","genre":"Rock","price":"$14.30","supports":["Arabella & The Heist"," Dog Watch"],"ticketUrl":null,"time":" 8:30pm"}],"vName":"Bendigo Hotel"},"type":"Feature"},{"geometry":{"coordinates":[144.9607158,-37.776327],"type":"Point"},"properties":{"events":[{"categories":["Music"],"eDate":"2025-12-19","eName":"Future Static","genre":"Metal","price":"$29.90","supports":["Lune"," Bench Cup"," Lumens"],"ticketUrl":null,"time":" 7pm"}],"vName":"Bergy Bandroom"},"type":"Feature"},{"geometry":{"coordinates":[145.0004166,-37.7612582],"type":"Point"},"properties":{"events":[{"categories":["Music"],"eDate":"2025-12-19","eName":"How Pollyman Stole Christmas","genre":null,"price":"$18.90","supports":["Chelsea Hotel"," YELO"],"ticketUrl":null,"time":" 8pm"}],"vName":"Cactus Room"},"type":"Feature"},{"geometry":{"coordinates":[145.0002585,-37.7592368],"type":"Point"},"properties":{"events":[{"categories":["Music"],"eDate":"2025-12-19","eName":"Cat Crawl","genre":"Punk","price":"$15.00","supports":["The Nation Two"," Gutter Glitter"],"ticketUrl":null,"time":" 8pm"}],"vName":"Cafe Gummo"},"type":"Feature"},{"geometry":{"coordinates":[144.9720318,-37.8656234],"type":"Point"},"properties":{"events":[{"categories":["Music"],"eDate":"2025-12-19","eName":"Jesus Loyola","genre":"Electronic","price":"Free","supports":[],"ticketUrl":null,"time":" 6pm"},{"categories":["Music"],"eDate":"2025-12-19","eName":"DJ Sean Hugo","genre":"Electronic","price":"Free","supports":[],"ticketUrl":null,"time":" 6pm"}],"vName":"Captain Baxter"},"type":"Feature"},{"geometry":{"coordinates":[144.9785611,-37.7965465],"type":"Point"},"properties":{"events":[{"categories":["Free","Other \"Food \""],"eDate":"2025-12-19","eName":"FREE Wine Tasting with Jumping Juice","genre":null,"price":"Free","supports":[],"ticketUrl":null,"time":" 4pm"}],"vName":"Evelyn Hotel"},"type":"Feature"},{"geometry":{"coordinates":[144.9777885,-37.8597831],"type":"Point"},"properties":{"events":[{"categories":["Music"],"eDate":"2025-12-19","eName":"Milly Joel","genre":"Indie","price":"Free","supports":[],"ticketUrl":null,"time":" 8pm"},{"categories":["Music"],"eDate":"2025-12-19","eName":"Rodney Guzman","genre":"Electronic","price":"Free","supports":[],"ticketUrl":null,"time":"11pm"}],"vName":"Freddie Wimpoles"},"type":"Feature"},{"geometry":{"coordinates":[145.0358857,-37.8230335],"type":"Point"},"properties":{"events":[{"categories":["Music"],"eDate":"2025-12-19","eName":"Alinta’s Sparkling Christmas","genre":"Jazz","price":"$20.00 - 42.00","supports":[],"ticketUrl":null,"time":" 7pm"}],"vName":"Hawthorn Arts Centre"},"type":"Feature"},{"geometry":{"coordinates":[144.973013,-37.8640582],"type":"Point"},"properties":{"events":[{"categories":["Free","Music"],"eDate":"2025-12-19","eName":"Strayin ‘A’ Live: A Rock & Roll Revival","genre":"Rock","price":"$8.70","supports":[],"ticketUrl":null,"time":" 7:30pm"}],"vName":"Hotel Esplanade (aka The Espy)"},"type":"Feature"},{"geometry":{"coordinates":[144.9596527,-37.7720304],"type":"Point"},"properties":{"events":[{"categories":["Music"],"eDate":"2025-12-19","eName":"The Public Opinion Afro Orchestra","genre":"Soul/Funk","price":"$38.76","supports":["Owelu Dreamhouse"," Immy Owusu"," Sensible J"," DJ Manchild"],"ticketUrl":null,"time":" 8pm"}],"vName":"Howler"},"type":"Feature"},{"geometry":{"coordinates":[144.9658499,-37.8147453],"type":"Point"},"properties":{"events":[{"categories":["Music"],"eDate":"2025-12-19","eName":"Secondhand Serenade","genre":"Acoustic","price":"$89.00","supports":[],"ticketUrl":null,"time":" 7pm"}],"vName":"Max Watt's (Melbourne)"},"type":"Feature"},{"geometry":{"coordinates":[144.9790251,-37.8675008],"type":"Point"},"properties":{"events":[{"categories":["Music"],"eDate":"2025-12-19","eName":"Relax With Max","genre":"Soul/Funk","price":"$30.00 - 45.00","supports":["CJ Commerford Trio"],"ticketUrl":null,"time":" 7pm"},{"categories":["Music","Other \"Food \""],"eDate":"2025-12-19","eName":"Relax with Max","genre":null,"price":"$28.00","supports":[],"ticketUrl":null,"time":" 7pm"}],"vName":"Memo Music Hall"},"type":"Feature"},{"geometry":{"coordinates":[144.9712356,-37.812902],"type":"Point"},"properties":{"events":[{"categories":["Comedy"],"eDate":"2025-12-19","eName":"Asian Comedy Showcase","genre":null,"price":"$30.00","supports":[],"ticketUrl":null,"time":" 6pm"},{"categories":["Music"],"eDate":"2025-12-19","eName":"Marcus Knight","genre":"Electronic","price":"Free","supports":[],"ticketUrl":null,"time":" 6pm"},{"categories":["Music"],"eDate":"2025-12-19","eName":"Kayla Bruno","genre":"Electronic","price":"Free","supports":[],"ticketUrl":null,"time":" 7pm"}],"vName":"Morris House"},"type":"Feature"},{"geometry":{"coordinates":[144.9833121,-37.8062477],"type":"Point"},"properties":{"events":[{"categories":["Music"],"eDate":"2025-12-19","eName":"STPLJCK: Scare City Model","genre":"Electronic","price":"$20.00","supports":[],"ticketUrl":null,"time":"10pm"},{"categories":["Free","Music"],"eDate":"2025-12-19","eName":"Melbourne Techno Collective presents FREE TECHNO","genre":"Electronic","price":"Free","supports":["more"],"ticketUrl":null,"time":"10pm"}],"vName":"New Guernica"},"type":"Feature"},{"geometry":{"coordinates":[144.97711,-37.79833],"type":"Point"},"properties":{"events":[{"categories":["Music"],"eDate":"2025-12-19","eName":"Great Australian Bank","genre":"Punk","price":"$11.25","supports":["Dopplerhaus"," Techno 666"," Ems"],"ticketUrl":null,"time":" 8pm"},{"categories":["Music"],"eDate":"2025-12-19","eName":"Great Australian Bank","genre":null,"price":"$10.00","supports":["Dopplerhaus"," Techno666"," Ems"],"ticketUrl":null,"time":" 8pm"}],"vName":"Old Bar"},"type":"Feature"},{"geometry":{"coordinates":[144.9615882,-37.7711432],"type":"Point"},"properties":{"events":[{"categories":["Music"],"eDate":"2025-12-19","eName":"Gecko","genre":"Country/Folk","price":"$14.53 - 17.95","supports":["Brigitte Bardini"," Sapphire Street"],"ticketUrl":null,"time":" 7:30pm"}],"vName":"Retreat Hotel"},"type":"Feature"},{"geometry":{"coordinates":[144.993413,-37.8506652],"type":"Point"},"properties":{"events":[{"categories":["Free","Music"],"eDate":"2025-12-19","eName":"Revolver Fridays","genre":"Electronic","price":"Free","supports":[],"ticketUrl":null,"time":"10pm"},{"categories":["Music"],"eDate":"2025-12-19","eName":"The Lunch Order","genre":"Electronic","price":"$21.42","supports":[],"ticketUrl":null,"time":"11:55pm"}],"vName":"Revolver Upstairs"},"type":"Feature"},{"geometry":{"coordinates":[145.0013923,-37.7559265],"type":"Point"},"properties":{"events":[{"categories":["Music"],"eDate":"2025-12-19","eName":"Scarnon","genre":"Rock","price":"$13.25","supports":["Tench"," Sharpener"],"ticketUrl":null,"time":" 8pm"}],"vName":"Shotkickers"},"type":"Feature"},{"geometry":{"coordinates":[144.9770425,-37.8588717],"type":"Point"},"properties":{"events":[{"categories":["Music"],"eDate":"2025-12-19","eName":"Holly Rollers Duo","genre":"Indie","price":"Free","supports":["DJ Obliveus"],"ticketUrl":null,"time":" 9pm"}],"vName":"The Fifth Province"},"type":"Feature"},{"geometry":{"coordinates":[144.9463641,-37.8047757],"type":"Point"},"properties":{"events":[{"categories":["Music"],"eDate":"2025-12-19","eName":"Dominant Hand","genre":"Metal","price":"$23.50","supports":["Rat Bait"," Persecutor"," Bright Sun"," Implode"],"ticketUrl":null,"time":" 8:30pm"}],"vName":"The Last Chance Rock & Roll Bar"},"type":"Feature"},{"geometry":{"coordinates":[144.9651425,-37.8119429],"type":"Point"},"properties":{"events":[{"categories":["Music"],"eDate":"2025-12-19","eName":"Jam Hot","genre":"Electronic","price":"Free","supports":["MBq"," DJ Swella"],"ticketUrl":null,"time":"11pm"}],"vName":"The Toff In Town"},"type":"Feature"},{"geometry":{"coordinates":[144.9870814,-37.799406],"type":"Point"},"properties":{"events":[{"categories":["Music"],"eDate":"2025-12-19","eName":"Snailgun","genre":"Punk","price":"$15.00","supports":["Winter Nationale"," Milk After Sex"],"ticketUrl":null,"time":" 8pm"}],"vName":"The Tote Hotel"},"type":"Feature"},{"geometry":{"coordinates":[144.9769451,-37.8055776],"type":"Point"},"properties":{"events":[{"categories":["Music"],"eDate":"2025-12-19","eName":"The Ascended","genre":"Metal","price":"$10.00 - 25.00","supports":["The Incantus"," Werewolf"," Elyzium Falls"],"ticketUrl":null,"time":" 7:30pm"}],"vName":"The Workers Club"},"type":"Feature"},{"geometry":{"coordinates":[144.9984324,-37.7729134],"type":"Point"},"properties":{"events":[{"categories":["Music"],"eDate":"2025-12-19","eName":"Organism","genre":"Jazz","price":"Free","supports":[],"ticketUrl":null,"time":" 6pm"}],"vName":"Wesley Anne"},"type":"Feature"}],"type":"FeatureCollection"}