{"features":[{"geometry":{"coordinates":[144.9607158,-37.776327],"type":"Point"},"properties":{"events":[{"categories":["Music"],"eDate":"2025-10-09","eName":"Sweet Nothing","genre":"Rock","price":"$15.00","supports":["Dopplerhaus"," Echo Social Club"],"ticketUrl":null,"time":" 7pm"}],"vName":"Bergy Bandroom"},"type":"Feature"},{"geometry":{"coordinates":[144.9568039,-37.8111442],"type":"Point"},"properties":{"events":[{"categories":["Music"],"eDate":"2025-10-09","eName":"Tottie Goldsmith: Tribute to Olivia Newton-John","genre":"Pop","price":"$45.00","supports":[],"ticketUrl":null,"time":" 6pm"}],"vName":"Bird's Basement"},"type":"Feature"},{"geometry":{"coordinates":[144.9945274,-37.8001115],"type":"Point"},"properties":{"events":[{"categories":["Comedy","Other \"Food \""],"eDate":"2025-10-09","eName":"On The Gags Comedy","genre":null,"price":"$22.00","supports":["Nick Sun"," David Quirk"," Andrew Portelli"," Sez"," Tor Snyder"," Eddie Duffield"],"ticketUrl":null,"time":" 8pm"}],"vName":"Bodriggy Brewing Company"},"type":"Feature"},{"geometry":{"coordinates":[144.9617083,-37.7704205],"type":"Point"},"properties":{"events":[{"categories":["Music"],"eDate":"2025-10-09","eName":"Sylvie","genre":"Rock","price":"$43.96","supports":[],"ticketUrl":null,"time":" 8pm"}],"vName":"Brunswick Ballroom"},"type":"Feature"},{"geometry":{"coordinates":[144.9627513,-37.760963],"type":"Point"},"properties":{"events":[{"categories":["Music"],"eDate":"2025-10-09","eName":"Tony Yang","genre":"Jazz","price":"Free","supports":[],"ticketUrl":null,"time":" 7pm"}],"vName":"Edinburgh Castle Hotel"},"type":"Feature"},{"geometry":{"coordinates":[144.9777885,-37.8597831],"type":"Point"},"properties":{"events":[{"categories":["Music"],"eDate":"2025-10-09","eName":"Jamie MacDowell","genre":"Acoustic","price":"Free","supports":[],"ticketUrl":null,"time":" 7pm"}],"vName":"Freddie Wimpoles"},"type":"Feature"},{"geometry":{"coordinates":[144.959768,-37.831777],"type":"Point"},"properties":{"events":[{"categories":["Music"],"eDate":"2025-10-09","eName":"John Montesante Quintet","genre":"Jazz","price":"$20.00","supports":["Tamara Kuldin"," Anton Delecca"],"ticketUrl":null,"time":" 6:30pm"}],"vName":"Golden Gate Hotel"},"type":"Feature"},{"geometry":{"coordinates":[144.973013,-37.8640582],"type":"Point"},"properties":{"events":[{"categories":["Free","Music"],"eDate":"2025-10-09","eName":"Pet Therapy","genre":"Rock","price":"Free","supports":[],"ticketUrl":null,"time":" 8pm"}],"vName":"Hotel Esplanade (aka The Espy)"},"type":"Feature"},{"geometry":{"coordinates":[144.9596527,-37.7720304],"type":"Point"},"properties":{"events":[{"categories":["Music"],"eDate":"2025-10-09","eName":"Merpire","genre":"Rock","price":"$35.00","supports":["Elizabeth M. Drummond"," Gigi"],"ticketUrl":null,"time":" 7:30pm"}],"vName":"Howler"},"type":"Feature"},{"geometry":{"coordinates":[145.0314658,-37.8067273],"type":"Point"},"properties":{"events":[{"categories":["Music"],"eDate":"2025-10-09","eName":"Kew Court House Live: Fifth of Nisan","genre":null,"price":"$20.00","supports":[],"ticketUrl":null,"time":" 7:30pm"}],"vName":"Kew Court House"},"type":"Feature"},{"geometry":{"coordinates":[144.8984802,-37.8111559],"type":"Point"},"properties":{"events":[{"categories":["Music"],"eDate":"2025-10-09","eName":"Jarrah Duo","genre":"Acoustic","price":"Free","supports":[],"ticketUrl":null,"time":" 1pm"}],"vName":"Kindred Bandroom"},"type":"Feature"},{"geometry":{"coordinates":[144.9664313,-37.8146299],"type":"Point"},"properties":{"events":[{"categories":["Other \"Trivia \"","Other \"Spoken Word, Poetry \""],"eDate":"2025-10-09","eName":"Parallels 25","genre":null,"price":"$65.00","supports":[],"ticketUrl":null,"time":" 6pm"}],"vName":"Melbourne Town Hall"},"type":"Feature"},{"geometry":{"coordinates":[144.998414,-37.771471],"type":"Point"},"properties":{"events":[{"categories":["Music"],"eDate":"2025-10-09","eName":"Owelu Dreamhouse","genre":"Soul/Funk","price":"$30.00","supports":["Sensible J"],"ticketUrl":null,"time":" 8pm"}],"vName":"Northcote Social Club"},"type":"Feature"},{"geometry":{"coordinates":[144.9982706,-37.7737068],"type":"Point"},"properties":{"events":[{"categories":["Music"],"eDate":"2025-10-09","eName":"Tom Grennan","genre":"Pop","price":"$79.90","supports":[],"ticketUrl":null,"time":" 7:30pm"}],"vName":"Northcote Theatre"},"type":"Feature"},{"geometry":{"coordinates":[144.97711,-37.79833],"type":"Point"},"properties":{"events":[{"categories":["Music"],"eDate":"2025-10-09","eName":"Liam Wright","genre":"Country/Folk","price":"Free","supports":["Cahill Kelly & The Encounters"," Jess Deluca"],"ticketUrl":null,"time":" 7:30pm"},{"categories":["Music"],"eDate":"2025-10-09","eName":"DJ Ben Emes","genre":"Electronic","price":"Free","supports":[],"ticketUrl":null,"time":"10:30pm"}],"vName":"Old Bar"},"type":"Feature"},{"geometry":{"coordinates":[144.965405,-37.8117457],"type":"Point"},"properties":{"events":[{"categories":["Music"],"eDate":"2025-10-09","eName":"Aus Dancehall Fest 2025: Official Opening Party","genre":null,"price":"Free","supports":[],"ticketUrl":null,"time":" 6pm"}],"vName":"Section 8"},"type":"Feature"},{"geometry":{"coordinates":[144.996838,-37.7794356],"type":"Point"},"properties":{"events":[{"categories":["Music"],"eDate":"2025-10-09","eName":"Lachlan Bryan & Jodi Martin","genre":"Country/Folk","price":"$30.00 - 35.00","supports":[],"ticketUrl":null,"time":" 8pm"}],"vName":"The Merri Creek Tavern"},"type":"Feature"},{"geometry":{"coordinates":[144.9708437,-37.7973184],"type":"Point"},"properties":{"events":[{"categories":["Free","Music","Comedy"],"eDate":"2025-10-09","eName":"The ‘WHAM, BAM, THANK YOU’ Jam","genre":"Jazz","price":"Free","supports":[],"ticketUrl":null,"time":" 8pm"}],"vName":"The Motley Bauhaus"},"type":"Feature"},{"geometry":{"coordinates":[144.9651425,-37.8119429],"type":"Point"},"properties":{"events":[{"categories":["Free","Music"],"eDate":"2025-10-09","eName":"Toff Live Presents: Malcura","genre":"Jazz","price":"Free","supports":[],"ticketUrl":null,"time":" 9:30pm"}],"vName":"The Toff In Town"},"type":"Feature"},{"geometry":{"coordinates":[144.9769451,-37.8055776],"type":"Point"},"properties":{"events":[{"categories":["Music"],"eDate":"2025-10-09","eName":"Cider Sundays","genre":"Rock","price":"$12.75","supports":[],"ticketUrl":null,"time":" 7pm"}],"vName":"The Workers Club"},"type":"Feature"},{"geometry":{"coordinates":[144.9984324,-37.7729134],"type":"Point"},"properties":{"events":[{"categories":["Music"],"eDate":"2025-10-09","eName":"Midnight Chicken + High St Drifters","genre":"Country/Folk","price":"Free","supports":[],"ticketUrl":null,"time":" 8pm"}],"vName":"Wesley Anne"},"type":"Feature"}],"type":"FeatureCollection"}