{"features":[{"geometry":{"coordinates":[144.9891167,-37.7996488],"type":"Point"},"properties":{"events":[{"categories":["Music"],"eDate":"2025-12-27","eName":"Black Dethmass II","genre":"Metal","price":"$22.95","supports":["Slime Dimension"," Oppose The Sun"],"ticketUrl":null,"time":" 8:30pm"}],"vName":"Bendigo Hotel"},"type":"Feature"},{"geometry":{"coordinates":[144.9607158,-37.776327],"type":"Point"},"properties":{"events":[{"categories":["Music"],"eDate":"2025-12-27","eName":"Homo Bergensis: Flower Field Folly & Friends","genre":"Punk","price":"$16.85","supports":["MKNAOMI"," Oil Rig"," Skybelly"],"ticketUrl":null,"time":" 7:30pm"}],"vName":"Bergy Bandroom"},"type":"Feature"},{"geometry":{"coordinates":[144.9720318,-37.8656234],"type":"Point"},"properties":{"events":[{"categories":["Music"],"eDate":"2025-12-27","eName":"SNDRÖ","genre":"Electronic","price":"Free","supports":[],"ticketUrl":null,"time":"12pm"},{"categories":["Music"],"eDate":"2025-12-27","eName":"TBIB","genre":"Electronic","price":"Free","supports":[],"ticketUrl":null,"time":" 3pm"},{"categories":["Music"],"eDate":"2025-12-27","eName":"SNDRÖ","genre":"Electronic","price":"Free","supports":[],"ticketUrl":null,"time":" 6pm"},{"categories":["Music"],"eDate":"2025-12-27","eName":"DJ Sean Hugo","genre":"Electronic","price":"Free","supports":[],"ticketUrl":null,"time":" 9pm"}],"vName":"Captain Baxter"},"type":"Feature"},{"geometry":{"coordinates":[144.9777885,-37.8597831],"type":"Point"},"properties":{"events":[{"categories":["Music"],"eDate":"2025-12-27","eName":"Mixed Tape","genre":"Rock","price":"Free","supports":[],"ticketUrl":null,"time":" 8pm"},{"categories":["Music"],"eDate":"2025-12-27","eName":"Lyndon","genre":"Indie","price":"Free","supports":[],"ticketUrl":null,"time":"11pm"}],"vName":"Freddie Wimpoles"},"type":"Feature"},{"geometry":{"coordinates":[144.973013,-37.8640582],"type":"Point"},"properties":{"events":[{"categories":["Comedy","Music"],"eDate":"2025-12-27","eName":"T-Wiz Live","genre":"Indie","price":"$22.95","supports":[],"ticketUrl":null,"time":" 7pm"}],"vName":"Hotel Esplanade (aka The Espy)"},"type":"Feature"},{"geometry":{"coordinates":[144.9596527,-37.7720304],"type":"Point"},"properties":{"events":[{"categories":["Music"],"eDate":"2025-12-27","eName":"H34VEN0N34RTH presents H03FEST: Naarm Edition","genre":"Electronic","price":"$17.34 - 38.76","supports":["more"],"ticketUrl":null,"time":" 5pm"}],"vName":"Howler"},"type":"Feature"},{"geometry":{"coordinates":[144.9833121,-37.8062477],"type":"Point"},"properties":{"events":[{"categories":["Music"],"eDate":"2025-12-27","eName":"TOASTER","genre":"Electronic","price":"$25.00","supports":[],"ticketUrl":null,"time":"10pm"},{"categories":["Music"],"eDate":"2025-12-27","eName":"Thick N Juicy presents ACTION","genre":"Electronic","price":"$20.00 - 25.00","supports":[],"ticketUrl":null,"time":"10pm"},{"categories":["Free","Music"],"eDate":"2025-12-27","eName":"Eat The Beat: UNDRGRND 360°","genre":"Electronic","price":"$0.00 - 22.15","supports":[],"ticketUrl":null,"time":"10pm"}],"vName":"New Guernica"},"type":"Feature"},{"geometry":{"coordinates":[144.9615882,-37.7711432],"type":"Point"},"properties":{"events":[{"categories":["Music","Free"],"eDate":"2025-12-27","eName":"Brooke Russell + Franky (Duo)","genre":"Indie","price":"Free","supports":[],"ticketUrl":null,"time":" 2pm"},{"categories":["Music"],"eDate":"2025-12-27","eName":"Cycadmas at The Retreat Hotel, Brunswick","genre":null,"price":"$14.53 - 17.95","supports":["Last Embers"," Una Mela"],"ticketUrl":null,"time":" 7:30pm"}],"vName":"Retreat Hotel"},"type":"Feature"},{"geometry":{"coordinates":[145.0013923,-37.7559265],"type":"Point"},"properties":{"events":[{"categories":["Music"],"eDate":"2025-12-27","eName":"Neon Goblin: 30th Party","genre":"Rock","price":"$18.35","supports":["Heavy Amber"," Sweet Nothing"," Dog Watch"],"ticketUrl":null,"time":" 7:30pm"}],"vName":"Shotkickers"},"type":"Feature"},{"geometry":{"coordinates":[144.32141,-37.38866],"type":"Point"},"properties":{"events":[{"categories":["Music","Free"],"eDate":"2025-12-27","eName":"Freya + Tom McGowan","genre":"Acoustic","price":"Free","supports":[],"ticketUrl":null,"time":" 3pm"}],"vName":"The Cosmopolitan Hotel"},"type":"Feature"},{"geometry":{"coordinates":[144.9770425,-37.8588717],"type":"Point"},"properties":{"events":[{"categories":["Music"],"eDate":"2025-12-27","eName":"Bonnie & Clyde (& Buck!) Trio","genre":"Indie","price":"Free","supports":["DJ MCB"],"ticketUrl":null,"time":" 9pm"}],"vName":"The Fifth Province"},"type":"Feature"},{"geometry":{"coordinates":[144.9794553,-37.7982653],"type":"Point"},"properties":{"events":[{"categories":["Music"],"eDate":"2025-12-27","eName":"Bag Raiders pres. Broken Head Records","genre":"Electronic","price":"$34.90","supports":["DJ Macaroni"," Lilian"],"ticketUrl":null,"time":" 9pm"}],"vName":"The Night Cat"},"type":"Feature"},{"geometry":{"coordinates":[144.9984324,-37.7729134],"type":"Point"},"properties":{"events":[{"categories":["Music"],"eDate":"2025-12-27","eName":"Tony Yang","genre":"Jazz","price":"Free","supports":[],"ticketUrl":null,"time":" 6pm"}],"vName":"Wesley Anne"},"type":"Feature"}],"type":"FeatureCollection"}