{"features":[{"geometry":{"coordinates":[144.9607158,-37.776327],"type":"Point"},"properties":{"events":[{"categories":["Music"],"eDate":"2024-05-26","eName":"Bloom","genre":"Metal","price":"$29.90","supports":[],"ticketUrl":null,"time":" 2:30pm"}],"vName":"Bergy Bandroom"},"type":"Feature"},{"geometry":{"coordinates":[144.9945274,-37.8001115],"type":"Point"},"properties":{"events":[{"categories":["Free","Music","Other \"Food & Drink\""],"eDate":"2024-05-26","eName":"Bodriggy Bootscootin': James Ellis + The Country & Western Ramblers","genre":null,"price":"Free","supports":[],"ticketUrl":null,"time":" 1pm"}],"vName":"Bodriggy Brewing Company"},"type":"Feature"},{"geometry":{"coordinates":[144.9617018,-37.7704566],"type":"Point"},"properties":{"events":[{"categories":["Music"],"eDate":"2024-05-26","eName":"Stella: The Miles Franklin Story","genre":"Jazz","price":"$48.04","supports":[],"ticketUrl":null,"time":" 2pm"},{"categories":["Music"],"eDate":"2024-05-26","eName":"Demotika: Historic & Heroic","genre":"Global","price":"$31.72","supports":[],"ticketUrl":null,"time":" 3:30pm"}],"vName":"Brunswick Ballroom"},"type":"Feature"},{"geometry":{"coordinates":[144.9688742,-37.8074223],"type":"Point"},"properties":{"events":[{"categories":["Comedy","Theatre"],"eDate":"2024-05-26","eName":"The Odd Couple","genre":null,"price":"$69.90","supports":["Lucy Durack"," Penny McNamee"],"ticketUrl":null,"time":" 6pm"}],"vName":"Comedy Theatre"},"type":"Feature"},{"geometry":{"coordinates":[144.9875917,-37.7963837],"type":"Point"},"properties":{"events":[{"categories":["Free","Music"],"eDate":"2024-05-26","eName":"Emily Lubitz + Riley Catheral","genre":"Indie","price":"Free","supports":[],"ticketUrl":null,"time":" 4pm"}],"vName":"Gem Bar"},"type":"Feature"},{"geometry":{"coordinates":[144.9596527,-37.7720304],"type":"Point"},"properties":{"events":[{"categories":["Music"],"eDate":"2024-05-26","eName":"Svalbard","genre":"Metal","price":"$59.90","supports":["RUN"],"ticketUrl":null,"time":" 7pm"}],"vName":"Howler"},"type":"Feature"},{"geometry":{"coordinates":[144.9687111,-37.7977034],"type":"Point"},"properties":{"events":[{"categories":["Theatre"],"eDate":"2024-05-26","eName":"The Audition","genre":null,"price":"$35.00","supports":[],"ticketUrl":null,"time":" 4pm"}],"vName":"La Mama Theatre"},"type":"Feature"},{"geometry":{"coordinates":[144.8971518,-37.8054274],"type":"Point"},"properties":{"events":[{"categories":["Free","Music"],"eDate":"2024-05-26","eName":"Melbourne Chiptune Academy - May Meet-Up & Open Mic","genre":null,"price":"Free","supports":[],"ticketUrl":null,"time":" 7pm"}],"vName":"Mamma Chen's"},"type":"Feature"},{"geometry":{"coordinates":[145.3553553,-37.9078552],"type":"Point"},"properties":{"events":[{"categories":["Free","Music"],"eDate":"2024-05-26","eName":"Music with Chris & Charlie","genre":null,"price":"Free","supports":[],"ticketUrl":null,"time":" 1pm"}],"vName":"Micawber Tavern"},"type":"Feature"},{"geometry":{"coordinates":[144.97711,-37.79833],"type":"Point"},"properties":{"events":[{"categories":["Music"],"eDate":"2024-05-26","eName":"Fundraisers For Fitzroy 2: Confident Girls Foundation","genre":"Rock","price":"$25.00","supports":[],"ticketUrl":null,"time":" 3pm"}],"vName":"Old Bar"},"type":"Feature"},{"geometry":{"coordinates":[144.9605705,-37.8132486],"type":"Point"},"properties":{"events":[{"categories":["Music"],"eDate":"2024-05-26","eName":"The Paris Cat Big Band: Best of Basie","genre":"Jazz","price":"$45.00","supports":[],"ticketUrl":null,"time":" 5:30pm"},{"categories":["Music"],"eDate":"2024-05-26","eName":"Dear Billie: Jackie Bornstein Quintet","genre":"Jazz","price":"$45.00","supports":[],"ticketUrl":null,"time":" 6:30pm"}],"vName":"Paris Cat Jazz Club"},"type":"Feature"},{"geometry":{"coordinates":[145.0142411,-37.7310367],"type":"Point"},"properties":{"events":[{"categories":["Free","Music"],"eDate":"2024-05-26","eName":"Sunday Sunset Sessions","genre":"Jazz","price":"Free","supports":[],"ticketUrl":null,"time":" 6pm"}],"vName":"Ragtime Tavern"},"type":"Feature"},{"geometry":{"coordinates":[144.9758032,-37.7930866],"type":"Point"},"properties":{"events":[{"categories":["Music"],"eDate":"2024-05-26","eName":"Don Hillman's Secret Beach","genre":"Rock","price":"Free","supports":[],"ticketUrl":null,"time":" 5pm"}],"vName":"Railway Hotel"},"type":"Feature"},{"geometry":{"coordinates":[144.9631913,-37.7617818],"type":"Point"},"properties":{"events":[{"categories":["Music"],"eDate":"2024-05-26","eName":"Mezz Coleman + Ailsa Mitchell","genre":"Indie","price":"$20.00","supports":[],"ticketUrl":null,"time":" 2pm"},{"categories":["Music"],"eDate":"2024-05-26","eName":"Ebi Nori & the Attack of the Phantom Fingers","genre":null,"price":"$10.00","supports":["Gene Du Vergier"," Campbell Mowat"," Uno Lizard"," T_edd"],"ticketUrl":null,"time":" 8pm"}],"vName":"Ringo Barr"},"type":"Feature"},{"geometry":{"coordinates":[145.35345070507591,-37.9100746],"type":"Point"},"properties":{"events":[{"categories":["Music"],"eDate":"2024-05-26","eName":"Victor Stranges & The Futurists: The Songs of Elvis Costello Show","genre":"Rock","price":"$28.80","supports":[],"ticketUrl":null,"time":" 4pm"}],"vName":"Sooki Lounge"},"type":"Feature"},{"geometry":{"coordinates":[144.9948802,-37.8431403],"type":"Point"},"properties":{"events":[{"categories":["Free","Music","Other \"Food & Drink\""],"eDate":"2024-05-26","eName":"Sunday Sessions","genre":"Acoustic","price":"Free","supports":[],"ticketUrl":null,"time":" 3pm"}],"vName":"Temperance Hotel"},"type":"Feature"},{"geometry":{"coordinates":[144.9618426,-37.8125531],"type":"Point"},"properties":{"events":[{"categories":["Free","Music","Other \"Food & Drink\""],"eDate":"2024-05-26","eName":"Daffa Duck","genre":"Electronic","price":"Free","supports":[],"ticketUrl":null,"time":" 3pm"}],"vName":"Whitehart Bar"},"type":"Feature"}],"type":"FeatureCollection"}