{"features":[{"geometry":{"coordinates":[144.9679369,-37.8120109],"type":"Point"},"properties":{"events":[{"categories":["Music"],"eDate":"2025-10-19","eName":"IC3PEAK","genre":"Electronic","price":"$79.90","supports":[],"ticketUrl":null,"time":" 8pm"}],"vName":"170 Russell"},"type":"Feature"},{"geometry":{"coordinates":[144.9982614,-37.7691418],"type":"Point"},"properties":{"events":[{"categories":["Music"],"eDate":"2025-10-19","eName":"Ritual: The Sacred Rave – A Sunday Recovery Sesh","genre":"Electronic","price":"$33.00","supports":[],"ticketUrl":null,"time":" 2pm"}],"vName":"24 Moons"},"type":"Feature"},{"geometry":{"coordinates":[144.978682,-37.7981225],"type":"Point"},"properties":{"events":[{"categories":["Music","Free"],"eDate":"2025-10-19","eName":"Xander Cuming","genre":null,"price":"Free","supports":[],"ticketUrl":null,"time":" 9pm"}],"vName":"Baxter's Lot"},"type":"Feature"},{"geometry":{"coordinates":[144.9607158,-37.776327],"type":"Point"},"properties":{"events":[{"categories":["Music"],"eDate":"2025-10-19","eName":"Metal for MENtal Health","genre":"Metal","price":"$22.95","supports":[],"ticketUrl":null,"time":" 6pm"}],"vName":"Bergy Bandroom"},"type":"Feature"},{"geometry":{"coordinates":[144.9945274,-37.8001115],"type":"Point"},"properties":{"events":[{"categories":["Free","Other \"Food \"","Music"],"eDate":"2025-10-19","eName":"The Deans Of Soul","genre":null,"price":"Free","supports":[],"ticketUrl":null,"time":" 5pm"}],"vName":"Bodriggy Brewing Company"},"type":"Feature"},{"geometry":{"coordinates":[145.0002585,-37.7592368],"type":"Point"},"properties":{"events":[{"categories":["Music"],"eDate":"2025-10-19","eName":"Rockin’ Pelmets + Routines","genre":null,"price":"$10.00","supports":[],"ticketUrl":null,"time":" 3pm"}],"vName":"Cafe Gummo"},"type":"Feature"},{"geometry":{"coordinates":[144.9248037,-37.7656716],"type":"Point"},"properties":{"events":[{"categories":["Comedy","Music"],"eDate":"2025-10-19","eName":"Lisztomania","genre":"Acoustic","price":"$28.00","supports":[],"ticketUrl":null,"time":" 2:30pm"}],"vName":"Clocktower Centre"},"type":"Feature"},{"geometry":{"coordinates":[144.9936498,-37.8000264],"type":"Point"},"properties":{"events":[{"categories":["Music"],"eDate":"2025-10-19","eName":"Deadnecks: A Grateful Dead Tribute","genre":"Rock","price":"Free","supports":[],"ticketUrl":null,"time":" 5pm"}],"vName":"Lulie Tavern"},"type":"Feature"},{"geometry":{"coordinates":[144.9463641,-37.8047757],"type":"Point"},"properties":{"events":[{"categories":["Music"],"eDate":"2025-10-19","eName":"Ruby & The Tuesdays","genre":null,"price":"$10.00","supports":["Alice Isabella"," Tainted Facade"],"ticketUrl":null,"time":" 7pm"}],"vName":"The Last Chance Rock & Roll Bar"},"type":"Feature"},{"geometry":{"coordinates":[145.0141502,-37.8117556],"type":"Point"},"properties":{"events":[{"categories":["Music"],"eDate":"2025-10-19","eName":"Omnisutra Amitabha","genre":"Experimental","price":"$45.00","supports":[],"ticketUrl":null,"time":" 4:30pm"}],"vName":"The Open Space"},"type":"Feature"}],"type":"FeatureCollection"}