{"features":[{"geometry":{"coordinates":[144.9500257,-37.8032773],"type":"Point"},"properties":{"events":[{"categories":["Other \"Food \"","Other \"Spoken Word, Poetry \"","Free"],"eDate":"2026-02-12","eName":"Neighbourhood Gathering: Season 1 2026","genre":null,"price":"Free","supports":[],"ticketUrl":null,"time":" 4:30pm"}],"vName":"Arts House"},"type":"Feature"},{"geometry":{"coordinates":[144.9982812,-37.7713296],"type":"Point"},"properties":{"events":[{"categories":["Music"],"eDate":"2026-02-12","eName":"Monkey Stick","genre":"Soul/Funk","price":"Free","supports":["Gulf"],"ticketUrl":null,"time":" 8pm"}],"vName":"Bar 303"},"type":"Feature"},{"geometry":{"coordinates":[144.978682,-37.7981225],"type":"Point"},"properties":{"events":[{"categories":["Music","Free"],"eDate":"2026-02-12","eName":"Bryce Gibson aka Brenda Bressed","genre":null,"price":"Free","supports":[],"ticketUrl":null,"time":" 9pm"}],"vName":"Baxter's Lot"},"type":"Feature"},{"geometry":{"coordinates":[144.9568039,-37.8111442],"type":"Point"},"properties":{"events":[{"categories":["Music"],"eDate":"2026-02-12","eName":"Whispering Jack: A Music Celebration To John Farnham Show","genre":"Pop","price":"$45.00","supports":[],"ticketUrl":null,"time":" 7:30pm"}],"vName":"Bird's Basement"},"type":"Feature"},{"geometry":{"coordinates":[144.9945274,-37.8001115],"type":"Point"},"properties":{"events":[{"categories":["Other \"Food \"","Music","Free"],"eDate":"2026-02-12","eName":"Brainwaves","genre":null,"price":"Free","supports":["more"],"ticketUrl":null,"time":" 7:30pm"},{"categories":["Other \"Food \"","Comedy"],"eDate":"2026-02-12","eName":"On The Gags Comedy","genre":null,"price":"$15.00","supports":["Tim Hewitt"],"ticketUrl":null,"time":" 8pm"}],"vName":"Bodriggy Brewing Company"},"type":"Feature"},{"geometry":{"coordinates":[144.9926664,-37.8248893],"type":"Point"},"properties":{"events":[{"categories":["Music"],"eDate":"2026-02-12","eName":"Vola","genre":"Metal","price":"$64.10","supports":[],"ticketUrl":null,"time":" 7:30pm"}],"vName":"Corner Hotel"},"type":"Feature"},{"geometry":{"coordinates":[144.9875792,-37.7963739],"type":"Point"},"properties":{"events":[{"categories":["Music","Free"],"eDate":"2026-02-12","eName":"An Evening with Luke Tyler Shelton","genre":"Rock","price":"Free","supports":[],"ticketUrl":null,"time":" 7pm"}],"vName":"Gem Bar"},"type":"Feature"},{"geometry":{"coordinates":[145.0008148,-37.8107158],"type":"Point"},"properties":{"events":[{"categories":["Music"],"eDate":"2026-02-12","eName":"Naethan Apollo","genre":"Indie","price":"$59.90","supports":["Georga Raath"],"ticketUrl":null,"time":" 7pm"}],"vName":"Leadbeater Hotel"},"type":"Feature"},{"geometry":{"coordinates":[144.96084,-37.813514],"type":"Point"},"properties":{"events":[{"categories":["Music"],"eDate":"2026-02-12","eName":"Ruth Rodgers-Wright: Hayden Jones presents Into Every Longing Heart","genre":"Jazz","price":"$40.00","supports":[],"ticketUrl":null,"time":" 7:30pm"},{"categories":["Music"],"eDate":"2026-02-12","eName":"Cisco Tavares Presents 55 Years of Vision: A Re-Envisioning of Stevie Wonder","genre":"Soul/Funk","price":"$45.00","supports":[],"ticketUrl":null,"time":" 8pm"}],"vName":"Paris Cat Jazz Club"},"type":"Feature"},{"geometry":{"coordinates":[144.9607404,-37.7743469],"type":"Point"},"properties":{"events":[{"categories":["Music"],"eDate":"2026-02-12","eName":"Iron Mind","genre":"Metal","price":"$29.13","supports":[],"ticketUrl":null,"time":" 7pm"}],"vName":"Stay Gold"},"type":"Feature"},{"geometry":{"coordinates":[144.9794553,-37.7982653],"type":"Point"},"properties":{"events":[{"categories":["Music"],"eDate":"2026-02-12","eName":"Moontide","genre":null,"price":"$29.49","supports":["Ensemble"," Ausecuma Beats"," Neeko"," Leelu"],"ticketUrl":null,"time":" 8pm"}],"vName":"The Night Cat"},"type":"Feature"}],"type":"FeatureCollection"}