{"features":[{"geometry":{"coordinates":[144.9763781,-37.7983136],"type":"Point"},"properties":{"events":[{"categories":["Music"],"eDate":"2024-05-31","eName":"Dear Thieves","genre":"Rock","price":"$14.84","supports":["Grevillea"," Alex Elbery"," Kelsie Rimmer"],"ticketUrl":null,"time":" 8pm"}],"vName":"Bad Decisions Bar"},"type":"Feature"},{"geometry":{"coordinates":[144.9617018,-37.7704566],"type":"Point"},"properties":{"events":[{"categories":["Music"],"eDate":"2024-05-31","eName":"Karen Lee Andrews","genre":null,"price":"$49.06","supports":["Gabby Steel"],"ticketUrl":null,"time":" 8:30pm"}],"vName":"Brunswick Ballroom"},"type":"Feature"},{"geometry":{"coordinates":[144.99266639479475,-37.82488935],"type":"Point"},"properties":{"events":[{"categories":["Music"],"eDate":"2024-05-31","eName":"Boo Seeka","genre":"Electronic","price":"$40.40","supports":[],"ticketUrl":null,"time":" 8:30pm"}],"vName":"Corner Hotel"},"type":"Feature"},{"geometry":{"coordinates":[144.9628440552175,-37.76100605],"type":"Point"},"properties":{"events":[{"categories":["Free","Music","Trivia"],"eDate":"2024-05-31","eName":"Bingo","genre":"Electronic","price":"Free","supports":[],"ticketUrl":null,"time":" 7pm"}],"vName":"Edinburgh Castle Hotel"},"type":"Feature"},{"geometry":{"coordinates":[144.9787445,-37.7967357],"type":"Point"},"properties":{"events":[{"categories":["Music"],"eDate":"2024-05-31","eName":"Birdsnake","genre":null,"price":"$15.00","supports":["Alex Albrecht"," Pers Comm"," Shio"," Cooper Dodge"," Lou Ritchie"],"ticketUrl":null,"time":" 7pm"}],"vName":"Evelyn Hotel"},"type":"Feature"},{"geometry":{"coordinates":[144.9875917,-37.7963837],"type":"Point"},"properties":{"events":[{"categories":["Free","Music"],"eDate":"2024-05-31","eName":"Mutual Colour + CCTV","genre":"Rock","price":"Free","supports":[],"ticketUrl":null,"time":" 8pm"}],"vName":"Gem Bar"},"type":"Feature"},{"geometry":{"coordinates":[144.973013,-37.8640582],"type":"Point"},"properties":{"events":[{"categories":["Music"],"eDate":"2024-05-31","eName":"Noasis - No. 1 Oasis Experience","genre":"Rock","price":"$33.15","supports":["SOTV"],"ticketUrl":null,"time":" 7pm"}],"vName":"Hotel Esplanade (aka The Espy)"},"type":"Feature"},{"geometry":{"coordinates":[144.8971518,-37.8054274],"type":"Point"},"properties":{"events":[{"categories":["Free","Music","Other \"Spoken Word\"","Other \"Poetry & Forums\""],"eDate":"2024-05-31","eName":"ASRC Fundraiser","genre":null,"price":"$20.00","supports":["Oceans"," Winternationale"," Tam Vantage"],"ticketUrl":null,"time":" 7:45pm"}],"vName":"Mamma Chen's"},"type":"Feature"},{"geometry":{"coordinates":[144.96741062735794,-37.82454855],"type":"Point"},"properties":{"events":[{"categories":["Music"],"eDate":"2024-05-31","eName":"Keys of Joy: Lili Liu & Piano Students Celebration","genre":"Classical","price":"$15.00","supports":[],"ticketUrl":null,"time":" 7pm"}],"vName":"Melbourne Recital Centre"},"type":"Feature"},{"geometry":{"coordinates":[145.3553553,-37.9078552],"type":"Point"},"properties":{"events":[{"categories":["Free","Music"],"eDate":"2024-05-31","eName":"Jenna Campbell","genre":"Indie","price":"Free","supports":[],"ticketUrl":null,"time":" 7pm"}],"vName":"Micawber Tavern"},"type":"Feature"},{"geometry":{"coordinates":[144.9605705,-37.8132486],"type":"Point"},"properties":{"events":[{"categories":["Music"],"eDate":"2024-05-31","eName":"London By Night: The Songs Of Julie London with Nikki Nouveau","genre":"Jazz","price":"$45.00","supports":[],"ticketUrl":null,"time":" 5:30pm"},{"categories":["Music"],"eDate":"2024-05-31","eName":"Nadira & Friends present: Songs of Nat King Cole","genre":"Jazz","price":"$45.00","supports":[],"ticketUrl":null,"time":" 6pm"},{"categories":["Music"],"eDate":"2024-05-31","eName":"Rock Swings with Matt Latimer & Jon Magill's GrooVe Congress","genre":"Jazz","price":"$45.00","supports":[],"ticketUrl":null,"time":" 8:30pm"},{"categories":["Music"],"eDate":"2024-05-31","eName":"Jamie Oehlers & Julian Wilson: Tenor Madness","genre":"Jazz","price":"$45.00","supports":[],"ticketUrl":null,"time":" 9pm"}],"vName":"Paris Cat Jazz Club"},"type":"Feature"},{"geometry":{"coordinates":[144.9631913,-37.7617818],"type":"Point"},"properties":{"events":[{"categories":["Music"],"eDate":"2024-05-31","eName":"Champagne Jacket","genre":null,"price":"$18.00","supports":["Tom & The Cartoonists"," Clodagh & The Monologue"],"ticketUrl":null,"time":" 8pm"}],"vName":"Ringo Barr"},"type":"Feature"},{"geometry":{"coordinates":[144.9607481,-37.7702892],"type":"Point"},"properties":{"events":[{"categories":["Music"],"eDate":"2024-05-31","eName":"Headroom, Ohmega & Shadowheart Recordings present GEST","genre":"Electronic","price":"$30.00","supports":["Aaron Static"," Strafe"," Zero1"," Bacterial Blend"," Latency Err_r"," The Bass Gypsy"," Dayelle"],"ticketUrl":null,"time":" 9pm"}],"vName":"Rubix Warehouse"},"type":"Feature"},{"geometry":{"coordinates":[144.9607404,-37.7743469],"type":"Point"},"properties":{"events":[{"categories":["Free","Music"],"eDate":"2024-05-31","eName":"Alternative Karaoke","genre":"Rock","price":"Free","supports":[],"ticketUrl":null,"time":" 7pm"}],"vName":"Stay Gold"},"type":"Feature"},{"geometry":{"coordinates":[144.9706095,-37.7783326],"type":"Point"},"properties":{"events":[{"categories":["Free","Music"],"eDate":"2024-05-31","eName":"AstroFuzz","genre":"Metal","price":"Free","supports":["My Safe Word Is Murder"," Alarms"],"ticketUrl":null,"time":" 9pm"}],"vName":"The Beast"},"type":"Feature"},{"geometry":{"coordinates":[144.9657057,-37.8061581],"type":"Point"},"properties":{"events":[{"categories":["Music"],"eDate":"2024-05-31","eName":"Battle Of The Agile Bands '24","genre":"Rock","price":"$33.45","supports":["more"],"ticketUrl":null,"time":" 7:30pm"}],"vName":"The Curtin"},"type":"Feature"},{"geometry":{"coordinates":[144.9720579,-37.8121675],"type":"Point"},"properties":{"events":[{"categories":["Comedy","Theatre"],"eDate":"2024-05-31","eName":"Cool & Smart","genre":null,"price":"$24.00","supports":[],"ticketUrl":null,"time":" 8:15pm"}],"vName":"The Improv Conspiracy"},"type":"Feature"},{"geometry":{"coordinates":[144.9846126,-37.7989941],"type":"Point"},"properties":{"events":[{"categories":["Music"],"eDate":"2024-05-31","eName":"Favoured State","genre":"Rock","price":"$11.25","supports":["Blowers"," Echo Social Club"],"ticketUrl":null,"time":" 7pm"},{"categories":["Music"],"eDate":"2024-05-31","eName":"Fundraiser For Benaiah Fiu","genre":"Rock","price":"$28.60","supports":[],"ticketUrl":null,"time":" 8pm"}],"vName":"The Tote Hotel"},"type":"Feature"}],"type":"FeatureCollection"}