{"features":[{"geometry":{"coordinates":[144.9982614,-37.7691418],"type":"Point"},"properties":{"events":[{"categories":["Music"],"eDate":"2025-09-12","eName":"No Way Back","genre":"Electronic","price":"$23.47 - 33.69","supports":[],"ticketUrl":null,"time":" 9pm"}],"vName":"24 Moons"},"type":"Feature"},{"geometry":{"coordinates":[144.9982812,-37.7713296],"type":"Point"},"properties":{"events":[{"categories":["Music"],"eDate":"2025-09-12","eName":"Fuá da Tita","genre":"Global","price":"Free","supports":[],"ticketUrl":null,"time":" 8pm"}],"vName":"Bar 303"},"type":"Feature"},{"geometry":{"coordinates":[144.978682,-37.7981225],"type":"Point"},"properties":{"events":[{"categories":["Free","Music"],"eDate":"2025-09-12","eName":"Jordan Ravi","genre":null,"price":"Free","supports":[],"ticketUrl":null,"time":" 9pm"}],"vName":"Baxter's Lot"},"type":"Feature"},{"geometry":{"coordinates":[144.9607158,-37.776327],"type":"Point"},"properties":{"events":[{"categories":["Music"],"eDate":"2025-09-12","eName":"Gravemind","genre":"Metal","price":"$25.00","supports":["Body Prison"," Melting"," Bitter Kind"],"ticketUrl":null,"time":" 7pm"}],"vName":"Bergy Bandroom"},"type":"Feature"},{"geometry":{"coordinates":[144.9568039,-37.8111442],"type":"Point"},"properties":{"events":[{"categories":["Music"],"eDate":"2025-09-12","eName":"Jeremy Rose with Paul Grabowsky","genre":"Jazz","price":"$38.00","supports":[],"ticketUrl":null,"time":" 7:30pm"}],"vName":"Bird's Basement"},"type":"Feature"},{"geometry":{"coordinates":[144.9617083,-37.7704205],"type":"Point"},"properties":{"events":[{"categories":["Music"],"eDate":"2025-09-12","eName":"Mama Kin Spender","genre":"Country/Folk","price":"$43.96","supports":[],"ticketUrl":null,"time":" 8:30pm"}],"vName":"Brunswick Ballroom"},"type":"Feature"},{"geometry":{"coordinates":[144.9713425,-37.8128595],"type":"Point"},"properties":{"events":[{"categories":["Free","Music"],"eDate":"2025-09-12","eName":"PHASE: An Emo, Pop-Punk & Nu Metal Night","genre":null,"price":"Free","supports":[],"ticketUrl":null,"time":"11pm"}],"vName":"Cherry Bar"},"type":"Feature"},{"geometry":{"coordinates":[144.9926664,-37.8248893],"type":"Point"},"properties":{"events":[{"categories":["Music"],"eDate":"2025-09-12","eName":"Earthless","genre":"Rock","price":"$69.90","supports":["Stepmother"," Grim Rhythm"],"ticketUrl":null,"time":" 8:30pm"}],"vName":"Corner Hotel"},"type":"Feature"},{"geometry":{"coordinates":[144.9627513,-37.760963],"type":"Point"},"properties":{"events":[{"categories":["Music"],"eDate":"2025-09-12","eName":"Blue Mode","genre":"Jazz","price":"Free","supports":[],"ticketUrl":null,"time":" 8pm"}],"vName":"Edinburgh Castle Hotel"},"type":"Feature"},{"geometry":{"coordinates":[144.9777885,-37.8597831],"type":"Point"},"properties":{"events":[{"categories":["Music"],"eDate":"2025-09-12","eName":"Lewis Toms","genre":"Acoustic","price":"Free","supports":[],"ticketUrl":null,"time":" 9pm"}],"vName":"Freddie Wimpoles"},"type":"Feature"},{"geometry":{"coordinates":[144.9787378,-37.7954205],"type":"Point"},"properties":{"events":[{"categories":["Music"],"eDate":"2025-09-12","eName":"Interval: Oots + Friends","genre":"Electronic","price":"$16.25 - 25.00","supports":["Bella Funk"," Copa909"," G Man"," Love Jess"],"ticketUrl":null,"time":"10pm"}],"vName":"Glamorama"},"type":"Feature"},{"geometry":{"coordinates":[144.973013,-37.8640582],"type":"Point"},"properties":{"events":[{"categories":["Music"],"eDate":"2025-09-12","eName":"Elo & The Shinkicks","genre":"Rock","price":"$15.85","supports":["Monroe"," Cass Aware"],"ticketUrl":null,"time":" 7pm"},{"categories":["Music"],"eDate":"2025-09-12","eName":"Drop It Like It’s Hot: 90s + 00s Hip Hop & RnB Party","genre":null,"price":"$14.80 - 22.95","supports":[],"ticketUrl":null,"time":" 9pm"}],"vName":"Hotel Esplanade (aka The Espy)"},"type":"Feature"},{"geometry":{"coordinates":[145.0008148,-37.8107158],"type":"Point"},"properties":{"events":[{"categories":["Music"],"eDate":"2025-09-12","eName":"The Kittyhawks","genre":"Punk","price":"$17.85","supports":["Sanny Veloo"," Danger Den"," Spill Kit"],"ticketUrl":null,"time":" 8pm"}],"vName":"Leadbeater Hotel"},"type":"Feature"},{"geometry":{"coordinates":[144.9936498,-37.8000264],"type":"Point"},"properties":{"events":[{"categories":["Music"],"eDate":"2025-09-12","eName":"The Terrifying Lows","genre":"Indie","price":"Free","supports":["Echo Social Club"],"ticketUrl":null,"time":" 9pm"}],"vName":"Lulie Tavern"},"type":"Feature"},{"geometry":{"coordinates":[144.8975289,-37.8022392],"type":"Point"},"properties":{"events":[{"categories":["Music"],"eDate":"2025-09-12","eName":"Your Mothers Disgusting Window","genre":"Metal","price":"$15.00","supports":["ESP Mayhem"," Striborg"," Drealm"],"ticketUrl":null,"time":" 7pm"}],"vName":"Mamma Chen's"},"type":"Feature"},{"geometry":{"coordinates":[144.9761619,-37.8230506],"type":"Point"},"properties":{"events":[{"categories":["Music"],"eDate":"2025-09-12","eName":"Mayday Parade","genre":"Rock","price":"$109.90","supports":["Jack's Mannequin"," The Home Team"],"ticketUrl":null,"time":" 6pm"}],"vName":"Margaret Court Arena"},"type":"Feature"},{"geometry":{"coordinates":[144.998414,-37.771471],"type":"Point"},"properties":{"events":[{"categories":["Music"],"eDate":"2025-09-12","eName":"Peak Park","genre":"Indie","price":"$25.00","supports":[],"ticketUrl":null,"time":" 8pm"}],"vName":"Northcote Social Club"},"type":"Feature"},{"geometry":{"coordinates":[144.97711,-37.79833],"type":"Point"},"properties":{"events":[{"categories":["Music"],"eDate":"2025-09-12","eName":"Speeding Vehicle","genre":null,"price":"$11.25","supports":["High Jump"," Glass"],"ticketUrl":null,"time":" 8pm"}],"vName":"Old Bar"},"type":"Feature"},{"geometry":{"coordinates":[145.0069874,-37.8536968],"type":"Point"},"properties":{"events":[{"categories":["Music"],"eDate":"2025-09-12","eName":"Miguel Campbell + Deep Cargo: Rooftop Takeover","genre":"Electronic","price":"$21.95 - 27.40","supports":["Jimmy Danger"," Amber Ferraro"," Jay Ramon"," DNE"," more"],"ticketUrl":null,"time":" 8pm"}],"vName":"OneSixOne"},"type":"Feature"},{"geometry":{"coordinates":[144.96084,-37.813514],"type":"Point"},"properties":{"events":[{"categories":["Music"],"eDate":"2025-09-12","eName":"An Evening of Adele with Cassidy La Creme","genre":"Jazz","price":"$55.00","supports":[],"ticketUrl":null,"time":" 6pm"},{"categories":["Music"],"eDate":"2025-09-12","eName":"Camilla Burrows sings the Ella Fitzgerald + Oscar Peterson Songbook","genre":"Jazz","price":"$45.00","supports":[],"ticketUrl":null,"time":" 6:30pm"},{"categories":["Music"],"eDate":"2025-09-12","eName":"Jason Bruer + Hammerhead","genre":"Jazz","price":"$45.00","supports":[],"ticketUrl":null,"time":" 9pm"},{"categories":["Music"],"eDate":"2025-09-12","eName":"Neo Soul Reimagined with Leska","genre":"Soul/Funk","price":"$55.00","supports":[],"ticketUrl":null,"time":" 9:30pm"}],"vName":"Paris Cat Jazz Club"},"type":"Feature"},{"geometry":{"coordinates":[144.9837213,-37.8048409],"type":"Point"},"properties":{"events":[{"categories":["Music"],"eDate":"2025-09-12","eName":"REPUBLIK PRESENTS: The First Assembly","genre":"Electronic","price":"$10.00 - 20.00","supports":[],"ticketUrl":null,"time":" 7pm"}],"vName":"QQQ ST. Park"},"type":"Feature"},{"geometry":{"coordinates":[144.9583409,-37.7664168],"type":"Point"},"properties":{"events":[{"categories":["Music"],"eDate":"2025-09-12","eName":"Bistroteque","genre":"Electronic","price":"$17.10","supports":["Bistroteque DJs"],"ticketUrl":null,"time":" 9pm"}],"vName":"Quadraphonic Club"},"type":"Feature"},{"geometry":{"coordinates":[144.9607404,-37.7743469],"type":"Point"},"properties":{"events":[{"categories":["Music"],"eDate":"2025-09-12","eName":"Stokahr","genre":null,"price":"$23.30","supports":["Heterophobes"," Dredd"," L﻿il Guthi"],"ticketUrl":null,"time":" 7pm"},{"categories":["Music"],"eDate":"2025-09-12","eName":"A Very E•Mo•Tional Decade: CRJ Cult Convention","genre":null,"price":"$0.00 - 11.65","supports":[],"ticketUrl":null,"time":"11pm"}],"vName":"Stay Gold"},"type":"Feature"},{"geometry":{"coordinates":[144.9657057,-37.8061581],"type":"Point"},"properties":{"events":[{"categories":["Music"],"eDate":"2025-09-12","eName":"The Gnomes","genre":"Rock","price":"$22.85","supports":["W.O.M.B.A.T"," The Pearlies"," Fish Catcher"],"ticketUrl":null,"time":" 8pm"}],"vName":"The Curtin"},"type":"Feature"},{"geometry":{"coordinates":[144.9770425,-37.8588717],"type":"Point"},"properties":{"events":[{"categories":["Music"],"eDate":"2025-09-12","eName":"Soul Obsession Trio + DJ Obliveus","genre":"Soul/Funk","price":"Free","supports":[],"ticketUrl":null,"time":" 9pm"}],"vName":"The Fifth Province"},"type":"Feature"},{"geometry":{"coordinates":[144.9998797,-37.7616512],"type":"Point"},"properties":{"events":[{"categories":["Music"],"eDate":"2025-09-12","eName":"The Cinematics","genre":"Rock","price":"Free","supports":[],"ticketUrl":null,"time":" 8pm"}],"vName":"The Thornbury Local"},"type":"Feature"}],"type":"FeatureCollection"}