{"features":[{"geometry":{"coordinates":[144.9500257,-37.8032773],"type":"Point"},"properties":{"events":[{"categories":["Music","Theatre","Other \"Art \""],"eDate":"2025-11-15","eName":"Guewel (Matinee)","genre":"Global","price":"$40.00","supports":[],"ticketUrl":null,"time":" 2pm"}],"vName":"Arts House"},"type":"Feature"},{"geometry":{"coordinates":[144.978682,-37.7981225],"type":"Point"},"properties":{"events":[{"categories":["Free","Music"],"eDate":"2025-11-15","eName":"Woody Samson","genre":null,"price":"Free","supports":[],"ticketUrl":null,"time":" 9pm"}],"vName":"Baxter's Lot"},"type":"Feature"},{"geometry":{"coordinates":[144.9891167,-37.7996488],"type":"Point"},"properties":{"events":[{"categories":["Music"],"eDate":"2025-11-15","eName":"Eclipse Metal Club Night","genre":"Metal","price":"$22.95","supports":[],"ticketUrl":null,"time":" 9pm"}],"vName":"Bendigo Hotel"},"type":"Feature"},{"geometry":{"coordinates":[144.9607158,-37.776327],"type":"Point"},"properties":{"events":[{"categories":["Music"],"eDate":"2025-11-15","eName":"Tom Nethersole","genre":"Indie","price":"$22.95 - 28.05","supports":["Sophie Kelly"],"ticketUrl":null,"time":" 3pm"},{"categories":["Music"],"eDate":"2025-11-15","eName":"Caution:Thieves","genre":"Metal","price":"$16.85 - 25.00","supports":["Some Heard Trouble"," Misery Guts"," Cruelty in the Constellations"],"ticketUrl":null,"time":" 7:30pm"}],"vName":"Bergy Bandroom"},"type":"Feature"},{"geometry":{"coordinates":[144.9568039,-37.8111442],"type":"Point"},"properties":{"events":[{"categories":["Music"],"eDate":"2025-11-15","eName":"The Big O: Roy Orbison Tribute Show with Joe Piastrino & The JP Band","genre":"Rock","price":"$38.00","supports":[],"ticketUrl":null,"time":" 7:30pm"}],"vName":"Bird's Basement"},"type":"Feature"},{"geometry":{"coordinates":[144.9617083,-37.7704205],"type":"Point"},"properties":{"events":[{"categories":["Music"],"eDate":"2025-11-15","eName":"Capitol Theatre Orchestra","genre":"Jazz","price":"$23.05","supports":[],"ticketUrl":null,"time":" 2pm"}],"vName":"Brunswick Ballroom"},"type":"Feature"},{"geometry":{"coordinates":[145.0004166,-37.7612582],"type":"Point"},"properties":{"events":[{"categories":["Music"],"eDate":"2025-11-15","eName":"Gaza Famine Fundraiser","genre":"Rock","price":"$15.00","supports":["Class Traitor"," Waxman"," Queen Hyena"," Fumigator"],"ticketUrl":null,"time":" 7pm"}],"vName":"Cactus Room"},"type":"Feature"},{"geometry":{"coordinates":[144.9713425,-37.8128595],"type":"Point"},"properties":{"events":[{"categories":["Music"],"eDate":"2025-11-15","eName":"The Witching Hour","genre":"Rock","price":"$15.43","supports":["Funkytown Fish"," Malicy"],"ticketUrl":null,"time":" 8pm"}],"vName":"Cherry Bar"},"type":"Feature"},{"geometry":{"coordinates":[144.9926664,-37.8248893],"type":"Point"},"properties":{"events":[{"categories":["Music","Other \"Dance \""],"eDate":"2025-11-15","eName":"Country Struts Line Dancing Class & Party with Double Dole String Band","genre":"Country/Folk","price":"$29.10","supports":["DJ Saloony Tunes"],"ticketUrl":null,"time":" 7pm"}],"vName":"Corner Hotel"},"type":"Feature"},{"geometry":{"coordinates":[144.9693768,-37.8164414],"type":"Point"},"properties":{"events":[{"categories":["Music"],"eDate":"2025-11-15","eName":"Steven Wilson","genre":"Rock","price":"$142.35","supports":[],"ticketUrl":null,"time":" 7pm"}],"vName":"Forum Melbourne"},"type":"Feature"},{"geometry":{"coordinates":[144.9875792,-37.7963739],"type":"Point"},"properties":{"events":[{"categories":["Music"],"eDate":"2025-11-15","eName":"Half Baked Festival","genre":"Rock","price":"Free","supports":["more"],"ticketUrl":null,"time":" 6pm"}],"vName":"Gem Bar"},"type":"Feature"},{"geometry":{"coordinates":[144.9787378,-37.7954205],"type":"Point"},"properties":{"events":[{"categories":["Music"],"eDate":"2025-11-15","eName":"Cherub Courtyard Takeover","genre":"Electronic","price":"Free","supports":[],"ticketUrl":null,"time":" 6pm"}],"vName":"Glamorama"},"type":"Feature"},{"geometry":{"coordinates":[144.9679835,-37.8201575],"type":"Point"},"properties":{"events":[{"categories":["Music"],"eDate":"2025-11-15","eName":"Piano Man: Celebrating the Music of Billy Joel","genre":"Classical","price":"$73.00","supports":[],"ticketUrl":null,"time":" 1pm"}],"vName":"Hamer Hall (Arts Centre Melbourne)"},"type":"Feature"},{"geometry":{"coordinates":[144.973013,-37.8640582],"type":"Point"},"properties":{"events":[{"categories":["Music"],"eDate":"2025-11-15","eName":"The Golden Gaytimes","genre":"Rock","price":"$10.75","supports":["The Wraylettes"," Frob"],"ticketUrl":null,"time":" 7:30pm"}],"vName":"Hotel Esplanade (aka The Espy)"},"type":"Feature"},{"geometry":{"coordinates":[144.9596527,-37.7720304],"type":"Point"},"properties":{"events":[{"categories":["Music"],"eDate":"2025-11-15","eName":"Shouse: Live","genre":"Electronic","price":"$28.56 - 49.47","supports":["Naliita"],"ticketUrl":null,"time":" 8pm"}],"vName":"Howler"},"type":"Feature"},{"geometry":{"coordinates":[144.9571785,-37.8188809],"type":"Point"},"properties":{"events":[{"categories":["Music"],"eDate":"2025-11-15","eName":"Daydream80s #4: new wave. pop. alternative. daytime.","genre":null,"price":"$23.00","supports":[],"ticketUrl":null,"time":" 3pm"}],"vName":"Inflation Entertainment Complex"},"type":"Feature"},{"geometry":{"coordinates":[144.8984802,-37.8111559],"type":"Point"},"properties":{"events":[{"categories":["Music"],"eDate":"2025-11-15","eName":"Amy Sheppard","genre":"Country/Folk","price":"$60.00","supports":[],"ticketUrl":null,"time":" 7pm"}],"vName":"Kindred Bandroom"},"type":"Feature"},{"geometry":{"coordinates":[144.9658499,-37.8147453],"type":"Point"},"properties":{"events":[{"categories":["Music"],"eDate":"2025-11-15","eName":"Ladders On Tables","genre":"Rock","price":"$48.35","supports":["The Last Martyr"," Days Like These"],"ticketUrl":null,"time":" 7pm"}],"vName":"Max Watt's (Melbourne)"},"type":"Feature"},{"geometry":{"coordinates":[144.9675876,-37.8240849],"type":"Point"},"properties":{"events":[{"categories":["Music"],"eDate":"2025-11-15","eName":"Paul Grabowsky & Mindy Meng Wang: Between Dreams","genre":"Jazz","price":"$55.00","supports":[],"ticketUrl":null,"time":" 6pm"},{"categories":["Music"],"eDate":"2025-11-15","eName":"Cocteau’s Circle","genre":"Classical","price":"$69.00","supports":[],"ticketUrl":null,"time":" 7:30pm"}],"vName":"Melbourne Recital Centre"},"type":"Feature"},{"geometry":{"coordinates":[144.9895284,-37.7993224],"type":"Point"},"properties":{"events":[{"categories":["Music"],"eDate":"2025-11-15","eName":"Double Date","genre":null,"price":"$17.00","supports":["Fisheye"," 40th Parallel"],"ticketUrl":null,"time":" 7pm"}],"vName":"Nighthawks"},"type":"Feature"},{"geometry":{"coordinates":[144.998414,-37.771471],"type":"Point"},"properties":{"events":[{"categories":["Music"],"eDate":"2025-11-15","eName":"All India Radio","genre":"Electronic","price":"$29.10","supports":["User"," DJ Glenn Bennie"],"ticketUrl":null,"time":" 8:30pm"}],"vName":"Northcote Social Club"},"type":"Feature"},{"geometry":{"coordinates":[144.9982706,-37.7737068],"type":"Point"},"properties":{"events":[{"categories":["Music"],"eDate":"2025-11-15","eName":"Gordo","genre":"Electronic","price":"$71.30","supports":[],"ticketUrl":null,"time":" 7:30pm"}],"vName":"Northcote Theatre"},"type":"Feature"},{"geometry":{"coordinates":[144.96084,-37.813514],"type":"Point"},"properties":{"events":[{"categories":["Music"],"eDate":"2025-11-15","eName":"Heather Stewart Swings Sings Strings","genre":"Jazz","price":"$45.00","supports":[],"ticketUrl":null,"time":" 6pm"},{"categories":["Music"],"eDate":"2025-11-15","eName":"Something Blue: Alanna & Old Hat Reimagines Joni Mitchell’s Blue","genre":"Jazz","price":"$45.00","supports":[],"ticketUrl":null,"time":" 6:30pm"},{"categories":["Music"],"eDate":"2025-11-15","eName":"The Royal Motown Revue","genre":"Soul/Funk","price":"$45.00","supports":["Nardia"," Paul Slattery & The Horns of Hip"],"ticketUrl":null,"time":" 9pm"},{"categories":["Music"],"eDate":"2025-11-15","eName":"Miss George: Tribute to Diana Krall","genre":"Jazz","price":"$45.00","supports":[],"ticketUrl":null,"time":" 9:30pm"}],"vName":"Paris Cat Jazz Club"},"type":"Feature"},{"geometry":{"coordinates":[144.9615882,-37.7711432],"type":"Point"},"properties":{"events":[{"categories":["Free","Music"],"eDate":"2025-11-15","eName":"Lisa Miller Trio","genre":"Country/Folk","price":"Free","supports":["Janie Gordon"],"ticketUrl":null,"time":" 2pm"}],"vName":"Retreat Hotel"},"type":"Feature"},{"geometry":{"coordinates":[144.993413,-37.8506652],"type":"Point"},"properties":{"events":[{"categories":["Music"],"eDate":"2025-11-15","eName":"Pop Punk Tribute Party","genre":"Punk","price":"$31.62 - 41.82","supports":[],"ticketUrl":null,"time":" 7pm"}],"vName":"Revolver Upstairs"},"type":"Feature"},{"geometry":{"coordinates":[144.9607404,-37.7743469],"type":"Point"},"properties":{"events":[{"categories":["Music"],"eDate":"2025-11-15","eName":"Velociraptor","genre":"Rock","price":"$29.13","supports":[],"ticketUrl":null,"time":" 7pm"}],"vName":"Stay Gold"},"type":"Feature"},{"geometry":{"coordinates":[144.9706211,-37.778276],"type":"Point"},"properties":{"events":[{"categories":["Free","Music"],"eDate":"2025-11-15","eName":"Bbsani","genre":"Electronic","price":"Free","supports":["Shahla Paynter"," Aka Zeb"," Kylemm"],"ticketUrl":null,"time":" 8pm"},{"categories":["Free","Music"],"eDate":"2025-11-15","eName":"bbsanii","genre":"Electronic","price":"Free","supports":[],"ticketUrl":null,"time":" 8pm"}],"vName":"The Beast"},"type":"Feature"},{"geometry":{"coordinates":[144.32141,-37.38866],"type":"Point"},"properties":{"events":[{"categories":["Free","Music"],"eDate":"2025-11-15","eName":"Nick Ellerby","genre":"Acoustic","price":"Free","supports":[],"ticketUrl":null,"time":" 3pm"}],"vName":"The Cosmopolitan Hotel"},"type":"Feature"},{"geometry":{"coordinates":[144.9657057,-37.8061581],"type":"Point"},"properties":{"events":[{"categories":["Music"],"eDate":"2025-11-15","eName":"The Prize","genre":"Rock","price":"$22.85","supports":["Aardvark"," Blue Communications"],"ticketUrl":null,"time":" 8pm"}],"vName":"The Curtin"},"type":"Feature"},{"geometry":{"coordinates":[144.9463641,-37.8047757],"type":"Point"},"properties":{"events":[{"categories":["Free","Music"],"eDate":"2025-11-15","eName":"The Rartel’s Last Show For Yonks","genre":"Punk","price":"Free","supports":["Sloppy Jalopies"," Planets Caravan"],"ticketUrl":null,"time":" 3pm"},{"categories":["Music"],"eDate":"2025-11-15","eName":"Rising Death 4","genre":"Metal","price":"$20.00","supports":[],"ticketUrl":null,"time":" 7pm"}],"vName":"The Last Chance Rock & Roll Bar"},"type":"Feature"},{"geometry":{"coordinates":[144.9998797,-37.7616512],"type":"Point"},"properties":{"events":[{"categories":["Music"],"eDate":"2025-11-15","eName":"Kazoo Man Group","genre":"Acoustic","price":"Free","supports":[],"ticketUrl":null,"time":" 8pm"}],"vName":"The Thornbury Local"},"type":"Feature"},{"geometry":{"coordinates":[144.9651425,-37.8119429],"type":"Point"},"properties":{"events":[{"categories":["Free","Music"],"eDate":"2025-11-15","eName":"Titration","genre":"Rock","price":"$20.40","supports":["B-Sides"," Blyss"," Dirty Gwen"],"ticketUrl":null,"time":" 7pm"},{"categories":["Free","Music"],"eDate":"2025-11-15","eName":"Sleazy Little Thing Vol. 2","genre":null,"price":"Free","supports":[],"ticketUrl":null,"time":"11pm"}],"vName":"The Toff In Town"},"type":"Feature"},{"geometry":{"coordinates":[144.9870814,-37.799406],"type":"Point"},"properties":{"events":[{"categories":["Music"],"eDate":"2025-11-15","eName":"screensaver","genre":null,"price":"$25.00 - 30.00","supports":["Tongue Dissolver"," Lothario"," Armour"],"ticketUrl":null,"time":" 7:30pm"}],"vName":"The Tote Hotel"},"type":"Feature"},{"geometry":{"coordinates":[144.9769451,-37.8055776],"type":"Point"},"properties":{"events":[{"categories":["Music"],"eDate":"2025-11-15","eName":"Heists","genre":"Metal","price":"Free","supports":["Outloved"," Signals"," St.Sinner"],"ticketUrl":null,"time":" 8pm"}],"vName":"The Workers Club"},"type":"Feature"},{"geometry":{"coordinates":[144.3591931,-38.145904],"type":"Point"},"properties":{"events":[{"categories":["Music"],"eDate":"2025-11-15","eName":"The Human Highway: The Music Of Neil Young","genre":"Country/Folk","price":"$34.70","supports":[],"ticketUrl":null,"time":" 8pm"}],"vName":"Wool Exchange"},"type":"Feature"}],"type":"FeatureCollection"}