{"features":[{"geometry":{"coordinates":[144.9715791,-37.8140656],"type":"Point"},"properties":{"events":[{"categories":["Music","Theatre"],"eDate":"2024-01-17","eName":"Dog Man: The Musical","genre":null,"price":"$39.50","supports":[],"ticketUrl":null,"time":"12pm"}],"vName":"Athenaeum Theatre"},"type":"Feature"},{"geometry":{"coordinates":[144.99828116650363,-37.7713296],"type":"Point"},"properties":{"events":[{"categories":["Music"],"eDate":"2024-01-17","eName":"Peter Koopman Trio","genre":"Jazz","price":"$20.00","supports":[],"ticketUrl":null,"time":" 7:30pm"}],"vName":"Bar 303"},"type":"Feature"},{"geometry":{"coordinates":[144.978425,-37.79773],"type":"Point"},"properties":{"events":[{"categories":["Music"],"eDate":"2024-01-17","eName":"Kakarot!","genre":"Soul/Funk","price":"$17.35","supports":["Skiptons"," more"],"ticketUrl":null,"time":" 8pm"}],"vName":"Bar Open"},"type":"Feature"},{"geometry":{"coordinates":[144.9945274,-37.8001115],"type":"Point"},"properties":{"events":[{"categories":["Free","Music","Other \"Food & Drink\""],"eDate":"2024-01-17","eName":"Emma Volard & Jake Amy present: Suna","genre":"Soul/Funk","price":"Free","supports":["Mothafunk"],"ticketUrl":null,"time":" 6pm"}],"vName":"Bodriggy Brewing Company"},"type":"Feature"},{"geometry":{"coordinates":[144.9787445,-37.7967357],"type":"Point"},"properties":{"events":[{"categories":["Other \"Spoken Word\"","Other \"Poetry & Forums\""],"eDate":"2024-01-17","eName":"Radio Talk: Poetry Open Mic","genre":null,"price":"Free","supports":[],"ticketUrl":null,"time":" 7pm"}],"vName":"Radio Bar"},"type":"Feature"},{"geometry":{"coordinates":[144.9746525926778,-37.823819181966286],"type":"Point"},"properties":{"events":[{"categories":["Music"],"eDate":"2024-01-17","eName":"Noah Kahan","genre":"Indie","price":"$123.15 - 287.00","supports":["Dylan Gossett"],"ticketUrl":null,"time":" 7:30pm"},{"categories":["Music"],"eDate":"2024-01-17","eName":"TwoSet Violin World Tour 2024","genre":"Classical","price":"$79.00","supports":[],"ticketUrl":null,"time":" 7:30pm"}],"vName":"Sidney Myer Music Bowl"},"type":"Feature"}],"type":"FeatureCollection"}