{"features":[{"geometry":{"coordinates":[144.978682,-37.7981225],"type":"Point"},"properties":{"events":[{"categories":["Music","Free"],"eDate":"2025-08-21","eName":"Tejo D’Cruz","genre":null,"price":"Free","supports":[],"ticketUrl":null,"time":" 9pm"}],"vName":"Baxter's Lot"},"type":"Feature"},{"geometry":{"coordinates":[144.9945274,-37.8001115],"type":"Point"},"properties":{"events":[{"categories":["Free","Other \"Food \"","Music"],"eDate":"2025-08-21","eName":"LCO","genre":null,"price":"Free","supports":[],"ticketUrl":null,"time":" 7pm"}],"vName":"Bodriggy Brewing Company"},"type":"Feature"},{"geometry":{"coordinates":[144.9777885,-37.8597831],"type":"Point"},"properties":{"events":[{"categories":["Music"],"eDate":"2025-08-21","eName":"Jamie MacDowell","genre":"Country/Folk","price":"Free","supports":[],"ticketUrl":null,"time":" 6:30pm"}],"vName":"Freddie Wimpoles"},"type":"Feature"},{"geometry":{"coordinates":[144.9780305,-37.8599731],"type":"Point"},"properties":{"events":[{"categories":["Music"],"eDate":"2025-08-21","eName":"Matt Arthur & The Lazybones: Six String Blues","genre":"Blues","price":"$25.00","supports":[],"ticketUrl":null,"time":" 7pm"}],"vName":"George Lane"},"type":"Feature"},{"geometry":{"coordinates":[144.973013,-37.8640582],"type":"Point"},"properties":{"events":[{"categories":["Music","Free"],"eDate":"2025-08-21","eName":"Willie J’s 6V6s","genre":"Rock","price":"Free","supports":[],"ticketUrl":null,"time":" 7:30pm"}],"vName":"Hotel Esplanade (aka The Espy)"},"type":"Feature"},{"geometry":{"coordinates":[144.8975289,-37.8022392],"type":"Point"},"properties":{"events":[{"categories":["Music","Free"],"eDate":"2025-08-21","eName":"Sister Paul","genre":null,"price":"Free","supports":["Cold Regards"],"ticketUrl":null,"time":" 6:45pm"}],"vName":"Mamma Chen's"},"type":"Feature"},{"geometry":{"coordinates":[144.9615882,-37.7711432],"type":"Point"},"properties":{"events":[{"categories":["Music"],"eDate":"2025-08-21","eName":"AP D’Antonio","genre":"Country/Folk","price":"$21.36 - 29.34","supports":[],"ticketUrl":null,"time":" 7pm"}],"vName":"Retreat Hotel"},"type":"Feature"},{"geometry":{"coordinates":[144.965405,-37.8117457],"type":"Point"},"properties":{"events":[{"categories":["Music"],"eDate":"2025-08-21","eName":"100% Phat","genre":null,"price":"Free","supports":[],"ticketUrl":null,"time":" 6pm"}],"vName":"Section 8"},"type":"Feature"},{"geometry":{"coordinates":[144.9706211,-37.778276],"type":"Point"},"properties":{"events":[{"categories":["Other \"Cabaret\"","Other \"Trivia \""],"eDate":"2025-08-21","eName":"Drag Bingo","genre":null,"price":"Free","supports":[],"ticketUrl":null,"time":" 8pm"}],"vName":"The Beast"},"type":"Feature"},{"geometry":{"coordinates":[144.996838,-37.7794356],"type":"Point"},"properties":{"events":[{"categories":["Music"],"eDate":"2025-08-21","eName":"Merpire","genre":"Indie","price":"Free","supports":[],"ticketUrl":null,"time":" 8pm"}],"vName":"The Merri Creek Tavern"},"type":"Feature"}],"type":"FeatureCollection"}