{"features":[{"geometry":{"coordinates":[144.978682,-37.7981225],"type":"Point"},"properties":{"events":[{"categories":["Free","Music"],"eDate":"2026-05-23","eName":"Xander Cuming","genre":null,"price":"Free","supports":[],"ticketUrl":null,"time":" 9pm"}],"vName":"Baxter's Lot"},"type":"Feature"},{"geometry":{"coordinates":[144.9891167,-37.7996488],"type":"Point"},"properties":{"events":[{"categories":["Music"],"eDate":"2026-05-23","eName":"The Peppermints","genre":"Rock","price":"$17.35","supports":["Sweet Temper"," The Heights"," Redacted"],"ticketUrl":null,"time":" 8pm"},{"categories":["Free","Music"],"eDate":"2026-05-23","eName":"Carlos Danger","genre":"Rock","price":"Free","supports":["DJ Cavey"],"ticketUrl":null,"time":" 8pm"}],"vName":"Bendigo Hotel"},"type":"Feature"},{"geometry":{"coordinates":[144.9617083,-37.7704205],"type":"Point"},"properties":{"events":[{"categories":["Free","Music"],"eDate":"2026-05-23","eName":"Kim Yang","genre":null,"price":"Free","supports":["Happy Axe"],"ticketUrl":null,"time":" 4:30pm"},{"categories":["Free","Music"],"eDate":"2026-05-23","eName":"Mac","genre":"Soul/Funk","price":"Free","supports":[],"ticketUrl":null,"time":" 8:30pm"}],"vName":"Brunswick Artists' Bar"},"type":"Feature"},{"geometry":{"coordinates":[145.0004166,-37.7612582],"type":"Point"},"properties":{"events":[{"categories":["Free","Music"],"eDate":"2026-05-23","eName":"Local Labels: Low Ambition Records","genre":null,"price":"Free","supports":["Lothario"," Captain Beep Boop"],"ticketUrl":null,"time":" 2pm"}],"vName":"Cactus Room"},"type":"Feature"},{"geometry":{"coordinates":[145.0002585,-37.7592368],"type":"Point"},"properties":{"events":[{"categories":["Music"],"eDate":"2026-05-23","eName":"HOT COUPLES NEAR YOU: An evening of duos","genre":"Electronic","price":"$15.00","supports":[],"ticketUrl":null,"time":" 8pm"},{"categories":["Music"],"eDate":"2026-05-23","eName":"HOT COUPLES NEAR YOU: An evening of duos","genre":"Electronic","price":"$15.00","supports":[],"ticketUrl":null,"time":" 8pm"}],"vName":"Cafe Gummo"},"type":"Feature"},{"geometry":{"coordinates":[144.9926664,-37.8248893],"type":"Point"},"properties":{"events":[{"categories":["Music","Other \"Dance \""],"eDate":"2026-05-23","eName":"Country Struts Line Dancing Class & Party","genre":"Country/Folk","price":"$29.10","supports":[],"ticketUrl":null,"time":" 7pm"}],"vName":"Corner Hotel"},"type":"Feature"},{"geometry":{"coordinates":[144.9627513,-37.760963],"type":"Point"},"properties":{"events":[{"categories":["Music"],"eDate":"2026-05-23","eName":"Youthless","genre":"Jazz","price":"Free","supports":[],"ticketUrl":null,"time":" 8pm"}],"vName":"Edinburgh Castle Hotel"},"type":"Feature"},{"geometry":{"coordinates":[144.9777885,-37.8597831],"type":"Point"},"properties":{"events":[{"categories":["Music"],"eDate":"2026-05-23","eName":"tutor 22","genre":"Acoustic","price":"Free","supports":[],"ticketUrl":null,"time":" 8pm"},{"categories":["Music"],"eDate":"2026-05-23","eName":"DJ Lyndon","genre":"Rock","price":"Free","supports":[],"ticketUrl":null,"time":"11pm"}],"vName":"Freddie Wimpoles"},"type":"Feature"},{"geometry":{"coordinates":[144.9787378,-37.7954205],"type":"Point"},"properties":{"events":[{"categories":["Music"],"eDate":"2026-05-23","eName":"Joey Coco","genre":"Electronic","price":"$0.00 - 30.00","supports":["Slumdog"," EMMYK"," Tilly"," Kailyn Crabbe"," Moylo"," Hank"],"ticketUrl":null,"time":" 9pm"}],"vName":"Glamorama"},"type":"Feature"},{"geometry":{"coordinates":[144.9679835,-37.8201575],"type":"Point"},"properties":{"events":[{"categories":["Music"],"eDate":"2026-05-23","eName":"Great Passions: Radulović plays Khachaturian","genre":"Classical","price":"$20.00 - 139.00","supports":[],"ticketUrl":null,"time":" 7:30pm"}],"vName":"Hamer Hall (Arts Centre Melbourne)"},"type":"Feature"},{"geometry":{"coordinates":[144.9596527,-37.7720304],"type":"Point"},"properties":{"events":[{"categories":["Music"],"eDate":"2026-05-23","eName":"Third Eye Presents “Embrace This Moment”: An Evening Of Tool","genre":"Metal","price":"$49.46 - 54.56","supports":[],"ticketUrl":null,"time":" 7pm"}],"vName":"Howler"},"type":"Feature"},{"geometry":{"coordinates":[144.8984802,-37.8111559],"type":"Point"},"properties":{"events":[{"categories":["Music"],"eDate":"2026-05-23","eName":"Yarraville With Soul: Block Party","genre":null,"price":"Free","supports":[],"ticketUrl":null,"time":" 4pm"}],"vName":"Kindred Bandroom"},"type":"Feature"},{"geometry":{"coordinates":[145.0008148,-37.8107158],"type":"Point"},"properties":{"events":[{"categories":["Music"],"eDate":"2026-05-23","eName":"Metal United Down Under 2026","genre":"Metal","price":"$34.70","supports":[],"ticketUrl":null,"time":" 6pm"}],"vName":"Leadbeater Hotel"},"type":"Feature"},{"geometry":{"coordinates":[144.9675876,-37.8240849],"type":"Point"},"properties":{"events":[{"categories":["Music"],"eDate":"2026-05-23","eName":"Canberra Tango Quintet – Echoes of Piazzolla: Zero Hour","genre":"Classical","price":"$70.00","supports":[],"ticketUrl":null,"time":" 7pm"},{"categories":["Music"],"eDate":"2026-05-23","eName":"Schubert’s Fantasy & Octet","genre":"Classical","price":"$49.00","supports":[],"ticketUrl":null,"time":" 7:30pm"}],"vName":"Melbourne Recital Centre"},"type":"Feature"},{"geometry":{"coordinates":[144.998414,-37.771471],"type":"Point"},"properties":{"events":[{"categories":["Music"],"eDate":"2026-05-23","eName":"Devil Electric","genre":"Rock","price":"$20.00 - 26.05","supports":["Goldminds"," Oceanlord"],"ticketUrl":null,"time":" 8pm"}],"vName":"Northcote Social Club"},"type":"Feature"},{"geometry":{"coordinates":[144.9982706,-37.7737068],"type":"Point"},"properties":{"events":[{"categories":["Music"],"eDate":"2026-05-23","eName":"Fear Factory","genre":"Metal","price":"$98.12","supports":[],"ticketUrl":null,"time":" 7:30pm"}],"vName":"Northcote Theatre"},"type":"Feature"},{"geometry":{"coordinates":[144.97711,-37.79833],"type":"Point"},"properties":{"events":[{"categories":["Music"],"eDate":"2026-05-23","eName":"Redback Blues","genre":"Blues","price":"Free","supports":[],"ticketUrl":null,"time":" 4pm"},{"categories":["Music"],"eDate":"2026-05-23","eName":"Caligula","genre":null,"price":"$35.00","supports":["Death Of Art"," DevilMonkey"],"ticketUrl":null,"time":" 8pm"}],"vName":"Old Bar"},"type":"Feature"},{"geometry":{"coordinates":[144.96084,-37.813514],"type":"Point"},"properties":{"events":[{"categories":["Music"],"eDate":"2026-05-23","eName":"The Little Bourke Big Band Presents: The Music Of The Muppets","genre":"Jazz","price":"$45.00","supports":[],"ticketUrl":null,"time":" 6pm"},{"categories":["Music"],"eDate":"2026-05-23","eName":"Anything Goes – The Songs Of Cole Porter: A Mark Morand Production","genre":"Jazz","price":"$45.00","supports":[],"ticketUrl":null,"time":" 6:30pm"},{"categories":["Music"],"eDate":"2026-05-23","eName":"Margot Petrie Presents: Melody Gardot Tribute","genre":"Jazz","price":"$48.00","supports":[],"ticketUrl":null,"time":" 9pm"},{"categories":["Music"],"eDate":"2026-05-23","eName":"Richard Pavlidis Quartet","genre":"Jazz","price":"$45.00","supports":[],"ticketUrl":null,"time":" 9:30pm"}],"vName":"Paris Cat Jazz Club"},"type":"Feature"},{"geometry":{"coordinates":[144.9615882,-37.7711432],"type":"Point"},"properties":{"events":[{"categories":["Free","Music"],"eDate":"2026-05-23","eName":"Mollie’s Hug","genre":"Rock","price":"Free","supports":[],"ticketUrl":null,"time":" 2pm"},{"categories":["Free","Music"],"eDate":"2026-05-23","eName":"NPC","genre":"Rock","price":"Free","supports":["Tether"," Jasper Fox"],"ticketUrl":null,"time":" 8pm"}],"vName":"Retreat Hotel"},"type":"Feature"},{"geometry":{"coordinates":[144.993413,-37.8506652],"type":"Point"},"properties":{"events":[{"categories":["Other \"Art \""],"eDate":"2026-05-23","eName":"No Comply: Tattoo x Art Exhibit","genre":null,"price":"Free","supports":[],"ticketUrl":null,"time":" 5pm"},{"categories":["Music"],"eDate":"2026-05-23","eName":"VINYLS: Hardcore Special – The Late Show","genre":"Electronic","price":"$31.62","supports":[],"ticketUrl":null,"time":"10pm"}],"vName":"Revolver Upstairs"},"type":"Feature"},{"geometry":{"coordinates":[144.9607404,-37.7743469],"type":"Point"},"properties":{"events":[{"categories":["Music"],"eDate":"2026-05-23","eName":"Goat Shaman","genre":"Rock","price":"$25.33","supports":[],"ticketUrl":null,"time":" 7:30pm"}],"vName":"Stay Gold"},"type":"Feature"},{"geometry":{"coordinates":[144.9657057,-37.8061581],"type":"Point"},"properties":{"events":[{"categories":["Music"],"eDate":"2026-05-23","eName":"Don’t Thank Me, Spank Me!","genre":null,"price":"$33.45","supports":["Pollyman"," Snake Thighs"],"ticketUrl":null,"time":" 8pm"}],"vName":"The Curtin"},"type":"Feature"},{"geometry":{"coordinates":[144.9794553,-37.7982653],"type":"Point"},"properties":{"events":[{"categories":["Music"],"eDate":"2026-05-23","eName":"Complete","genre":"Hip Hop","price":"$54.98","supports":[],"ticketUrl":null,"time":" 8pm"},{"categories":["Music"],"eDate":"2026-05-23","eName":"SEBii, kimj and Billionhappy: Australia 2026","genre":null,"price":"$119.90","supports":[],"ticketUrl":null,"time":"11pm"}],"vName":"The Night Cat"},"type":"Feature"},{"geometry":{"coordinates":[144.9651425,-37.8119429],"type":"Point"},"properties":{"events":[{"categories":["Music"],"eDate":"2026-05-23","eName":"Sundown on Eden","genre":"Jazz","price":"$19.38","supports":["Keira J & The Mice"," Nepenthes"],"ticketUrl":null,"time":" 6:30pm"}],"vName":"The Toff In Town"},"type":"Feature"},{"geometry":{"coordinates":[144.9661635,-37.8176298],"type":"Point"},"properties":{"events":[{"categories":["Music"],"eDate":"2026-05-23","eName":"Tribe: Timor-Leste Independence Day","genre":"Electronic","price":"$32.90","supports":[],"ticketUrl":null,"time":"10pm"}],"vName":"Wax Music Lounge"},"type":"Feature"},{"geometry":{"coordinates":[144.9984324,-37.7729134],"type":"Point"},"properties":{"events":[{"categories":["Music"],"eDate":"2026-05-23","eName":"Chloe Gill","genre":"Indie","price":"Free","supports":["Sadie Mustoe"],"ticketUrl":null,"time":" 7pm"}],"vName":"Wesley Anne"},"type":"Feature"},{"geometry":{"coordinates":[144.8951847,-37.8121401],"type":"Point"},"properties":{"events":[{"categories":["Music"],"eDate":"2026-05-23","eName":"Grand Wazoo: The Legacy Tour – 45 Years of SOUL","genre":"Soul/Funk","price":"$45.00 - 60.00","supports":[],"ticketUrl":null,"time":" 7:30pm"}],"vName":"Yarraville Club"},"type":"Feature"}],"type":"FeatureCollection"}