{"features":[{"geometry":{"coordinates":[144.99828116650363,-37.7713296],"type":"Point"},"properties":{"events":[{"categories":["Music"],"eDate":"2025-01-02","eName":"Ollie Rolfe Trio & Guests","genre":"Jazz","price":"$20.00","supports":[],"ticketUrl":null,"time":" 8pm"}],"vName":"Bar 303"},"type":"Feature"},{"geometry":{"coordinates":[144.9712356,-37.812902],"type":"Point"},"properties":{"events":[{"categories":["Comedy"],"eDate":"2025-01-02","eName":"Basement Comedy Club","genre":null,"price":"$24.00","supports":[],"ticketUrl":null,"time":" 8pm"}],"vName":"Morris House"},"type":"Feature"},{"geometry":{"coordinates":[144.9615882,-37.7711432],"type":"Point"},"properties":{"events":[{"categories":["Free","Music"],"eDate":"2025-01-02","eName":"Anne Simmons","genre":"Country/Folk","price":"Free","supports":["Hologram Sam"," Kelsey Jean"],"ticketUrl":null,"time":" 7:30pm"}],"vName":"Retreat Hotel"},"type":"Feature"},{"geometry":{"coordinates":[144.965405,-37.8117457],"type":"Point"},"properties":{"events":[{"categories":["Free","Music"],"eDate":"2025-01-02","eName":"Lady Erica & Friends","genre":"Electronic","price":"Free","supports":["DJ Kiti"," Sam Stacka"," MC Manaki"],"ticketUrl":null,"time":" 6pm"}],"vName":"Section 8"},"type":"Feature"},{"geometry":{"coordinates":[144.9968036,-37.7794807],"type":"Point"},"properties":{"events":[{"categories":["Music"],"eDate":"2025-01-02","eName":"Nathan Roche","genre":"Indie","price":"Free","supports":["The Sprouts"," Tam Vantage"],"ticketUrl":null,"time":" 8pm"}],"vName":"The Merri Creek Tavern"},"type":"Feature"}],"type":"FeatureCollection"}