{"features":[{"geometry":{"coordinates":[144.9679835,-37.8201575],"type":"Point"},"properties":{"events":[{"categories":["Comedy"],"eDate":"2026-05-16","eName":"Up Next","genre":null,"price":"$20.00","supports":[],"ticketUrl":null,"time":" 6pm"}],"vName":"Arts Centre Melbourne"},"type":"Feature"},{"geometry":{"coordinates":[144.978682,-37.7981225],"type":"Point"},"properties":{"events":[{"categories":["Free","Music"],"eDate":"2026-05-16","eName":"Harrisen Hughes","genre":null,"price":"Free","supports":[],"ticketUrl":null,"time":" 9pm"}],"vName":"Baxter's Lot"},"type":"Feature"},{"geometry":{"coordinates":[144.9891167,-37.7996488],"type":"Point"},"properties":{"events":[{"categories":["Music"],"eDate":"2026-05-16","eName":"Dysmetria","genre":"Rock","price":"$15.00","supports":["Spillkit"," Passages"],"ticketUrl":null,"time":" 8:30pm"},{"categories":["Music"],"eDate":"2026-05-16","eName":"The Deadbeats","genre":"Punk","price":"$17.35","supports":["Keggin"," In The Esky"," The Wash"],"ticketUrl":null,"time":" 8:30pm"}],"vName":"Bendigo Hotel"},"type":"Feature"},{"geometry":{"coordinates":[144.9607158,-37.776327],"type":"Point"},"properties":{"events":[{"categories":["Music"],"eDate":"2026-05-16","eName":"Josie’s Vacation","genre":"Rock","price":"$11.75","supports":["Tainted Facade"," Roscoe Mule"," Ruby & The Tuesdays"],"ticketUrl":null,"time":" 1pm"},{"categories":["Music"],"eDate":"2026-05-16","eName":"Growth","genre":"Metal","price":"$20.00","supports":["Tumour"," Barriers"," Lily Of The Valley"],"ticketUrl":null,"time":" 7pm"}],"vName":"Bergy Bandroom"},"type":"Feature"},{"geometry":{"coordinates":[143.7858966,-38.3366915],"type":"Point"},"properties":{"events":[{"categories":["Music","Other \"Spoken Word, Poetry \""],"eDate":"2026-05-16","eName":"An Evening with Steve Kilbey","genre":"Indie","price":"$62.90","supports":[],"ticketUrl":null,"time":" 7pm"}],"vName":"Birregurra Mechanics Hall"},"type":"Feature"},{"geometry":{"coordinates":[144.9617083,-37.7704205],"type":"Point"},"properties":{"events":[{"categories":["Free","Music"],"eDate":"2026-05-16","eName":"ItsRosieQuartz","genre":null,"price":"Free","supports":["Jessie Eilers"],"ticketUrl":null,"time":" 8:30pm"}],"vName":"Brunswick Artists' Bar"},"type":"Feature"},{"geometry":{"coordinates":[145.0004166,-37.7612582],"type":"Point"},"properties":{"events":[{"categories":["Free","Music"],"eDate":"2026-05-16","eName":"Local Labels: It Records","genre":null,"price":"Free","supports":["Popular Music"," Claire Birchall"],"ticketUrl":null,"time":" 2pm"}],"vName":"Cactus Room"},"type":"Feature"},{"geometry":{"coordinates":[144.9248037,-37.7656716],"type":"Point"},"properties":{"events":[{"categories":["Other \"Dance \""],"eDate":"2026-05-16","eName":"Ama Dance Academy presents Swetha Padma: The White Lotus","genre":null,"price":"$45.00 - 55.00","supports":[],"ticketUrl":null,"time":" 6pm"}],"vName":"Clocktower Centre"},"type":"Feature"},{"geometry":{"coordinates":[144.9655776,-37.8317594],"type":"Point"},"properties":{"events":[{"categories":["Music","Other \"Dance \""],"eDate":"2026-05-16","eName":"THE NEW ORDER: World Goth Day","genre":null,"price":"$23.00 - 30.00","supports":[],"ticketUrl":null,"time":" 9pm"}],"vName":"Club Pandora"},"type":"Feature"},{"geometry":{"coordinates":[144.9926664,-37.8248893],"type":"Point"},"properties":{"events":[{"categories":["Music"],"eDate":"2026-05-16","eName":"Eskimo Joe: Black Fingernails Red Wine 20th Anniversary Tour","genre":"Rock","price":"Free","supports":["Alex Lloyd"],"ticketUrl":null,"time":" 8:30pm"}],"vName":"Corner Hotel"},"type":"Feature"},{"geometry":{"coordinates":[144.9627513,-37.760963],"type":"Point"},"properties":{"events":[{"categories":["Music"],"eDate":"2026-05-16","eName":"Youthless","genre":"Jazz","price":"Free","supports":[],"ticketUrl":null,"time":" 8pm"}],"vName":"Edinburgh Castle Hotel"},"type":"Feature"},{"geometry":{"coordinates":[144.9489214,-37.8106039],"type":"Point"},"properties":{"events":[{"categories":["Music"],"eDate":"2026-05-16","eName":"Warren Zeiders","genre":"Country/Folk","price":"Free","supports":["Mack Geiger"],"ticketUrl":null,"time":" 7pm"}],"vName":"Festival Hall"},"type":"Feature"},{"geometry":{"coordinates":[144.9693768,-37.8164414],"type":"Point"},"properties":{"events":[{"categories":["Music"],"eDate":"2026-05-16","eName":"Spin Doctors","genre":"Rock","price":"Free","supports":[],"ticketUrl":null,"time":" 7:30pm"}],"vName":"Forum Melbourne"},"type":"Feature"},{"geometry":{"coordinates":[144.9780305,-37.8599731],"type":"Point"},"properties":{"events":[{"categories":["Music"],"eDate":"2026-05-16","eName":"Ned Branchi","genre":null,"price":"Free","supports":["Robin Casinader"],"ticketUrl":null,"time":" 2:30pm"}],"vName":"George Lane"},"type":"Feature"},{"geometry":{"coordinates":[144.983442,-37.804851],"type":"Point"},"properties":{"events":[{"categories":["Music"],"eDate":"2026-05-16","eName":"The Colliflowers","genre":"Indie","price":"$19.50 - 30.00","supports":["Sunday Funday"," Finn Kirby"],"ticketUrl":null,"time":" 8pm"}],"vName":"Grace Darling Hotel"},"type":"Feature"},{"geometry":{"coordinates":[144.9679835,-37.8201575],"type":"Point"},"properties":{"events":[{"categories":["Music","Theatre"],"eDate":"2026-05-16","eName":"The Man From Snowy River in Concert (Matinee Session)","genre":"Classical","price":"$99.00","supports":[],"ticketUrl":null,"time":" 3pm"},{"categories":["Music","Theatre"],"eDate":"2026-05-16","eName":"The Man From Snowy River in Concert","genre":"Classical","price":"$99.00","supports":[],"ticketUrl":null,"time":" 7:30pm"}],"vName":"Hamer Hall (Arts Centre Melbourne)"},"type":"Feature"},{"geometry":{"coordinates":[144.973013,-37.8640582],"type":"Point"},"properties":{"events":[{"categories":["Music"],"eDate":"2026-05-16","eName":"Lara Buchanan","genre":"Rock","price":"Free","supports":[],"ticketUrl":null,"time":" 1:30pm"}],"vName":"Hotel Esplanade (aka The Espy)"},"type":"Feature"},{"geometry":{"coordinates":[144.9596527,-37.7720304],"type":"Point"},"properties":{"events":[{"categories":["Music"],"eDate":"2026-05-16","eName":"These New South Whales","genre":"Punk","price":"$39.95","supports":["Rinse'"],"ticketUrl":null,"time":" 8pm"}],"vName":"Howler"},"type":"Feature"},{"geometry":{"coordinates":[145.0008148,-37.8107158],"type":"Point"},"properties":{"events":[{"categories":["Music"],"eDate":"2026-05-16","eName":"One Whole Hand","genre":"Rock","price":"$23.75","supports":["Death Of Art"," Deep Majestic Thunder"," Projectile Dysfunction"],"ticketUrl":null,"time":" 7pm"}],"vName":"Leadbeater Hotel"},"type":"Feature"},{"geometry":{"coordinates":[144.9675876,-37.8240849],"type":"Point"},"properties":{"events":[{"categories":["Music"],"eDate":"2026-05-16","eName":"String Spectacular","genre":"Classical","price":"$43.00 - 105.00","supports":[],"ticketUrl":null,"time":" 7:30pm"},{"categories":["Music"],"eDate":"2026-05-16","eName":"String Spectacular","genre":"Classical","price":"$20.00 - 105.00","supports":[],"ticketUrl":null,"time":" 7:30pm"}],"vName":"Melbourne Recital Centre"},"type":"Feature"},{"geometry":{"coordinates":[144.998414,-37.771471],"type":"Point"},"properties":{"events":[{"categories":["Music"],"eDate":"2026-05-16","eName":"Monsters of Riff 2026","genre":"Metal","price":"$30.00","supports":["Witchgrinder"," Aardvark"," Ion Sky"],"ticketUrl":null,"time":" 7:30pm"}],"vName":"Northcote Social Club"},"type":"Feature"},{"geometry":{"coordinates":[144.9982706,-37.7737068],"type":"Point"},"properties":{"events":[{"categories":["Music"],"eDate":"2026-05-16","eName":"Hanumankind","genre":"Hip Hop","price":"$81.50","supports":[],"ticketUrl":null,"time":" 7:30pm"}],"vName":"Northcote Theatre"},"type":"Feature"},{"geometry":{"coordinates":[144.97711,-37.79833],"type":"Point"},"properties":{"events":[{"categories":["Free","Music"],"eDate":"2026-05-16","eName":"Roarcuss","genre":"Punk","price":"Free","supports":["Made Austria"],"ticketUrl":null,"time":" 3pm"}],"vName":"Old Bar"},"type":"Feature"},{"geometry":{"coordinates":[144.96084,-37.813514],"type":"Point"},"properties":{"events":[{"categories":["Music"],"eDate":"2026-05-16","eName":"Something Blue: Alanna & Old Hat reimagines Joni Mitchell’s Blue","genre":"Jazz","price":"$45.00","supports":[],"ticketUrl":null,"time":" 6pm"},{"categories":["Music"],"eDate":"2026-05-16","eName":"Great American Songbook Project with Emma Gilmartin & Nick Haywood","genre":"Jazz","price":"$45.00","supports":[],"ticketUrl":null,"time":" 6:30pm"},{"categories":["Music"],"eDate":"2026-05-16","eName":"Neo Soul Reimagined with Leska","genre":"Jazz","price":"$45.00","supports":[],"ticketUrl":null,"time":" 9pm"},{"categories":["Music"],"eDate":"2026-05-16","eName":"Stan Meets Chet with Luca Brading Quartet","genre":"Jazz","price":"$45.00","supports":[],"ticketUrl":null,"time":" 9:30pm"}],"vName":"Paris Cat Jazz Club"},"type":"Feature"},{"geometry":{"coordinates":[144.9607404,-37.7743469],"type":"Point"},"properties":{"events":[{"categories":["Music"],"eDate":"2026-05-16","eName":"The Great Big Beer Band","genre":"Country/Folk","price":"$33.70","supports":[],"ticketUrl":null,"time":" 7pm"},{"categories":["Music"],"eDate":"2026-05-16","eName":"Castles In Paris: Peep vs $B Appreciation Night","genre":"Hip Hop","price":"$16.85 - 23.50","supports":[],"ticketUrl":null,"time":"11pm"}],"vName":"Stay Gold"},"type":"Feature"},{"geometry":{"coordinates":[144.9657057,-37.8061581],"type":"Point"},"properties":{"events":[{"categories":["Music"],"eDate":"2026-05-16","eName":"Nancy & The Jam Fancys","genre":"Rock","price":"$20.00","supports":["Internet Romance"," Flight to Dubai"],"ticketUrl":null,"time":" 8pm"}],"vName":"The Curtin"},"type":"Feature"},{"geometry":{"coordinates":[144.9463641,-37.8047757],"type":"Point"},"properties":{"events":[{"categories":["Free","Music"],"eDate":"2026-05-16","eName":"Watty Thompson: Celebrating 10 Years Of The Last Chance","genre":"Rock","price":"Free","supports":[],"ticketUrl":null,"time":" 7am"}],"vName":"The Last Chance Rock & Roll Bar"},"type":"Feature"},{"geometry":{"coordinates":[144.9708437,-37.7973184],"type":"Point"},"properties":{"events":[{"categories":["Other \"Cabaret\""],"eDate":"2026-05-16","eName":"Dootfest in Space","genre":null,"price":"$25.83","supports":[],"ticketUrl":null,"time":" 8:30pm"}],"vName":"The Motley Bauhaus"},"type":"Feature"},{"geometry":{"coordinates":[144.9794553,-37.7982653],"type":"Point"},"properties":{"events":[{"categories":["Music"],"eDate":"2026-05-16","eName":"Charley: Tour Of A Serial Idealist","genre":"Pop","price":"$35.21","supports":[],"ticketUrl":null,"time":" 8pm"},{"categories":["Music"],"eDate":"2026-05-16","eName":"Charley","genre":null,"price":"$41.89","supports":[],"ticketUrl":null,"time":" 8pm"}],"vName":"The Night Cat"},"type":"Feature"},{"geometry":{"coordinates":[144.9651425,-37.8119429],"type":"Point"},"properties":{"events":[{"categories":["Music"],"eDate":"2026-05-16","eName":"Toff Club","genre":"Electronic","price":"Free","supports":["Aristo G"," Michael Badger"],"ticketUrl":null,"time":"11pm"}],"vName":"The Toff In Town"},"type":"Feature"},{"geometry":{"coordinates":[144.9870814,-37.799406],"type":"Point"},"properties":{"events":[{"categories":["Free","Music"],"eDate":"2026-05-16","eName":"The Styes","genre":"Rock","price":"Free","supports":["Blondehouse"," Phoenix Street"],"ticketUrl":null,"time":" 2:30pm"},{"categories":["Music"],"eDate":"2026-05-16","eName":"Skin Thief","genre":"Metal","price":"$16.35","supports":["All Is Violent"," Sands"],"ticketUrl":null,"time":" 8pm"},{"categories":["Music"],"eDate":"2026-05-16","eName":"Kitschen Boy","genre":"Rock","price":"$28.60","supports":["Sunbeam Sound Machine"," Gloomie"],"ticketUrl":null,"time":" 8:30pm"}],"vName":"The Tote Hotel"},"type":"Feature"},{"geometry":{"coordinates":[144.9661635,-37.8176298],"type":"Point"},"properties":{"events":[{"categories":["Music"],"eDate":"2026-05-16","eName":"New York Cats & Prisma Presents Sub Level 001","genre":"Electronic","price":"$17.55 - 30.70","supports":[],"ticketUrl":null,"time":" 8pm"}],"vName":"Wax Music Lounge"},"type":"Feature"},{"geometry":{"coordinates":[144.9984324,-37.7729134],"type":"Point"},"properties":{"events":[{"categories":["Music"],"eDate":"2026-05-16","eName":"Ferdinand","genre":"Jazz","price":"Free","supports":[],"ticketUrl":null,"time":" 6pm"}],"vName":"Wesley Anne"},"type":"Feature"}],"type":"FeatureCollection"}