{"features":[{"geometry":{"coordinates":[144.9679835243618,-37.8201575],"type":"Point"},"properties":{"events":[{"categories":["Comedy"],"eDate":"2024-04-09","eName":"Hannah Gadsby: Woof!","genre":null,"price":"$55.00 - 79.00","supports":[],"ticketUrl":null,"time":" 6:15pm"},{"categories":["Comedy"],"eDate":"2024-04-09","eName":"Geraldine Hickey: Don't Tease Me About My Gloves","genre":null,"price":"$35.00 - 48.00","supports":[],"ticketUrl":null,"time":" 6:15pm"},{"categories":["Comedy","Theatre"],"eDate":"2024-04-09","eName":"Circus Oz: Smash It!","genre":null,"price":"$20.00 - 111.00","supports":[],"ticketUrl":null,"time":" 8pm"},{"categories":["Comedy"],"eDate":"2024-04-09","eName":"Josh Thomas: Let's Tidy Up","genre":null,"price":"$49.00 - 59.00","supports":[],"ticketUrl":null,"time":" 8:30pm"}],"vName":"Arts Centre Melbourne"},"type":"Feature"},{"geometry":{"coordinates":[144.978425,-37.79773],"type":"Point"},"properties":{"events":[{"categories":["Music"],"eDate":"2024-04-09","eName":"Make It Up Club","genre":"Jazz","price":"$15.00","supports":[],"ticketUrl":null,"time":" 8pm"}],"vName":"Bar Open"},"type":"Feature"},{"geometry":{"coordinates":[144.9628440552175,-37.76100605],"type":"Point"},"properties":{"events":[{"categories":["Music"],"eDate":"2024-04-09","eName":"Open Mic Night","genre":"Acoustic","price":"Free","supports":[],"ticketUrl":null,"time":" 7:30pm"}],"vName":"Edinburgh Castle Hotel"},"type":"Feature"},{"geometry":{"coordinates":[144.96741062735794,-37.82454855],"type":"Point"},"properties":{"events":[{"categories":["Music"],"eDate":"2024-04-09","eName":"Stardew Valley: Festival of Seasons","genre":"Classical","price":"$57.00 - 86.00","supports":[],"ticketUrl":null,"time":" 8pm"}],"vName":"Melbourne Recital Centre"},"type":"Feature"},{"geometry":{"coordinates":[144.9627231,-37.8073581],"type":"Point"},"properties":{"events":[{"categories":["Comedy"],"eDate":"2024-04-09","eName":"Paul Williams: Mamiya 7","genre":null,"price":"$25.00 - 35.00","supports":[],"ticketUrl":null,"time":" 7:40pm"}],"vName":"Melbourne Town Hall"},"type":"Feature"},{"geometry":{"coordinates":[144.9712356,-37.812902],"type":"Point"},"properties":{"events":[{"categories":["Comedy"],"eDate":"2024-04-09","eName":"Tom Cashman: Everything","genre":null,"price":"$25.50 - 35.50","supports":[],"ticketUrl":null,"time":" 7:30pm"}],"vName":"Morris House"},"type":"Feature"},{"geometry":{"coordinates":[144.9715321,-37.8098002],"type":"Point"},"properties":{"events":[{"categories":["Comedy"],"eDate":"2024-04-09","eName":"Two Little Dickheads: Slot Fillers","genre":null,"price":"$20.00 - 25.00","supports":[],"ticketUrl":null,"time":" 9pm"}],"vName":"StoryVille"},"type":"Feature"},{"geometry":{"coordinates":[144.9706095,-37.7783326],"type":"Point"},"properties":{"events":[{"categories":["Free","Trivia"],"eDate":"2024-04-09","eName":"Trivia Tuesdays","genre":null,"price":"Free","supports":[],"ticketUrl":null,"time":" 7:30pm"}],"vName":"The Beast"},"type":"Feature"},{"geometry":{"coordinates":[144.9651425,-37.8119429],"type":"Point"},"properties":{"events":[{"categories":["Comedy"],"eDate":"2024-04-09","eName":"Best Of The Festival: Comedy Superstars","genre":null,"price":"$30.00 - 35.00","supports":[],"ticketUrl":null,"time":" 6pm"},{"categories":["Comedy"],"eDate":"2024-04-09","eName":"Simon Taylor: Big Time","genre":null,"price":"$28.50 - 35.50","supports":[],"ticketUrl":null,"time":" 7:15pm"},{"categories":["Comedy"],"eDate":"2024-04-09","eName":"Mel & Sam: The Platonic Human Centipede","genre":null,"price":"$35.50","supports":[],"ticketUrl":null,"time":" 9:45pm"},{"categories":["Free","Music"],"eDate":"2024-04-09","eName":"Now.Here.This. Live Jazz","genre":"Jazz","price":"Free","supports":["The Now Here This All-Star Band"],"ticketUrl":null,"time":"11pm"}],"vName":"The Toff In Town"},"type":"Feature"},{"geometry":{"coordinates":[144.9730268,-37.8148148],"type":"Point"},"properties":{"events":[{"categories":["Festival","Comedy","Other \"Spoken Word\"","Other \"Poetry & Forums\""],"eDate":"2024-04-09","eName":"Literary Death Match","genre":null,"price":"$10.00 - 20.00","supports":[],"ticketUrl":null,"time":" 7pm"}],"vName":"fortyfivedownstairs"},"type":"Feature"}],"type":"FeatureCollection"}