{"features":[{"geometry":{"coordinates":[144.9679369,-37.8120109],"type":"Point"},"properties":{"events":[{"categories":["Music"],"eDate":"2025-05-01","eName":"Merkules","genre":"Hip Hop","price":"$64.90","supports":[],"ticketUrl":null,"time":" 7pm"}],"vName":"170 Russell"},"type":"Feature"},{"geometry":{"coordinates":[144.9982812,-37.7713296],"type":"Point"},"properties":{"events":[{"categories":["Music"],"eDate":"2025-05-01","eName":"The Putbacks","genre":"Soul/Funk","price":"Free","supports":[],"ticketUrl":null,"time":" 8pm"}],"vName":"Bar 303"},"type":"Feature"},{"geometry":{"coordinates":[144.978425,-37.79773],"type":"Point"},"properties":{"events":[{"categories":["Other \"Spoken Word, Poetry \""],"eDate":"2025-05-01","eName":"Bad Flâneur","genre":null,"price":"$7.00","supports":[],"ticketUrl":null,"time":" 7pm"}],"vName":"Bar Open"},"type":"Feature"},{"geometry":{"coordinates":[144.978682,-37.7981225],"type":"Point"},"properties":{"events":[{"categories":["Free","Music"],"eDate":"2025-05-01","eName":"Lewis Ciavarella","genre":null,"price":"Free","supports":[],"ticketUrl":null,"time":" 9pm"}],"vName":"Baxter's Lot"},"type":"Feature"},{"geometry":{"coordinates":[144.9607158,-37.776327],"type":"Point"},"properties":{"events":[{"categories":["Music"],"eDate":"2025-05-01","eName":"The Peppermints","genre":"Pop","price":"$16.85","supports":["Sophia Maltarollo"," Scarlet & The Harlets"],"ticketUrl":null,"time":" 7pm"}],"vName":"Bergy Bandroom"},"type":"Feature"},{"geometry":{"coordinates":[144.9617083,-37.7704205],"type":"Point"},"properties":{"events":[{"categories":["Music"],"eDate":"2025-05-01","eName":"Ruth Moody","genre":"Country/Folk","price":"$54.67","supports":["Gabby Steel"],"ticketUrl":null,"time":" 8pm"}],"vName":"Brunswick Ballroom"},"type":"Feature"},{"geometry":{"coordinates":[144.9679835,-37.8201575],"type":"Point"},"properties":{"events":[{"categories":["Music"],"eDate":"2025-05-01","eName":"Chris de Burgh","genre":"Acoustic","price":"$109.90","supports":[],"ticketUrl":null,"time":" 7:30pm"}],"vName":"Hamer Hall (Arts Centre Melbourne)"},"type":"Feature"},{"geometry":{"coordinates":[144.9658499,-37.8147453],"type":"Point"},"properties":{"events":[{"categories":["Music"],"eDate":"2025-05-01","eName":"Always Based","genre":"Punk","price":"$22.45","supports":["Tongue Dissolver"," Vanessa Worm"," Kai Cult"," nabii"," Soft P*rn"],"ticketUrl":null,"time":" 7pm"}],"vName":"Max Watt's (Melbourne)"},"type":"Feature"},{"geometry":{"coordinates":[144.9675876,-37.8240849],"type":"Point"},"properties":{"events":[{"categories":["Music"],"eDate":"2025-05-01","eName":"Melbourne Chamber Orchestra: Fantasia","genre":"Classical","price":"$72.00","supports":[],"ticketUrl":null,"time":" 7:30pm"}],"vName":"Melbourne Recital Centre"},"type":"Feature"},{"geometry":{"coordinates":[144.998414,-37.771471],"type":"Point"},"properties":{"events":[{"categories":["Music"],"eDate":"2025-05-01","eName":"Vapors of Morphine","genre":"Rock","price":"$67.50","supports":["Jeb Caldwell"],"ticketUrl":null,"time":" 7:30pm"}],"vName":"Northcote Social Club"},"type":"Feature"},{"geometry":{"coordinates":[144.9583409,-37.7664168],"type":"Point"},"properties":{"events":[{"categories":["Music","Other \"Dance \""],"eDate":"2025-05-01","eName":"Country Struts – Brunswick Thursdays","genre":"Country/Folk","price":"$16.50","supports":[],"ticketUrl":null,"time":" 6pm"}],"vName":"Quadraphonic Club"},"type":"Feature"},{"geometry":{"coordinates":[145.0142411,-37.7310367],"type":"Point"},"properties":{"events":[{"categories":["Free","Music"],"eDate":"2025-05-01","eName":"Open Mic @ Ragtime Tavern","genre":"Acoustic","price":"Free","supports":[],"ticketUrl":null,"time":" 7pm"}],"vName":"Ragtime Tavern"},"type":"Feature"},{"geometry":{"coordinates":[144.9615882,-37.7711432],"type":"Point"},"properties":{"events":[{"categories":["Music"],"eDate":"2025-05-01","eName":"Lace Dress","genre":"Rock","price":"$15.00","supports":["Turge"," PieSale"],"ticketUrl":null,"time":" 7pm"}],"vName":"Retreat Hotel"},"type":"Feature"},{"geometry":{"coordinates":[145.3534507,-37.9100746],"type":"Point"},"properties":{"events":[{"categories":["Music","Other \"Trivia \"","Other \"Cabaret\""],"eDate":"2025-05-01","eName":"Dragged To Drag Bingo: Country Showdown","genre":"Country/Folk","price":"Free","supports":[],"ticketUrl":null,"time":" 6pm"}],"vName":"Sooki Lounge"},"type":"Feature"},{"geometry":{"coordinates":[144.9607404,-37.7743469],"type":"Point"},"properties":{"events":[{"categories":["Music","Comedy","Theatre","Other \"Dance \"","Other \"Cabaret\""],"eDate":"2025-05-01","eName":"altimate.SHOWDOWN: Naarm – Heat One","genre":"Electronic","price":"$16.35","supports":[],"ticketUrl":null,"time":" 6pm"}],"vName":"Stay Gold"},"type":"Feature"},{"geometry":{"coordinates":[144.9706211,-37.778276],"type":"Point"},"properties":{"events":[{"categories":["Free","Music"],"eDate":"2025-05-01","eName":"The Dust Revival Band + Inga Liljestrom","genre":"Country/Folk","price":"Free","supports":[],"ticketUrl":null,"time":" 8:30pm"}],"vName":"The Beast"},"type":"Feature"},{"geometry":{"coordinates":[144.9657057,-37.8061581],"type":"Point"},"properties":{"events":[{"categories":["Music"],"eDate":"2025-05-01","eName":"Robert Baxter","genre":"Pop","price":"$17.75 - 21.85","supports":["Jessie Hill"," DJ Mon Franco"," DJ Superhotbarbie"],"ticketUrl":null,"time":" 7:30pm"}],"vName":"The Curtin"},"type":"Feature"},{"geometry":{"coordinates":[144.9555612,-37.8066759],"type":"Point"},"properties":{"events":[{"categories":["Free","Music"],"eDate":"2025-05-01","eName":"Open Mic Night @ The Drunken Poet","genre":"Acoustic","price":"Free","supports":[],"ticketUrl":null,"time":" 5pm"}],"vName":"The Drunken Poet"},"type":"Feature"},{"geometry":{"coordinates":[144.9586498,-37.766903],"type":"Point"},"properties":{"events":[{"categories":["Music"],"eDate":"2025-05-01","eName":"Yunior Terry’s Undercurrents","genre":"Jazz","price":"$25.00 - 30.00","supports":[],"ticketUrl":null,"time":" 7:30pm"}],"vName":"The Jazzlab"},"type":"Feature"},{"geometry":{"coordinates":[144.9463641,-37.8047757],"type":"Point"},"properties":{"events":[{"categories":["Music"],"eDate":"2025-05-01","eName":"Typeset","genre":"Rock","price":"$11.25","supports":["Fellview"," Unto the Breach"],"ticketUrl":null,"time":" 7pm"}],"vName":"The Last Chance Rock & Roll Bar"},"type":"Feature"},{"geometry":{"coordinates":[144.9879283,-37.7505509],"type":"Point"},"properties":{"events":[{"categories":["Music"],"eDate":"2025-05-01","eName":"Open Mic Night @ The Merri Bar","genre":"Acoustic","price":"Free","supports":[],"ticketUrl":null,"time":" 7:30pm"}],"vName":"The Merri Bar"},"type":"Feature"},{"geometry":{"coordinates":[144.9708437,-37.7973184],"type":"Point"},"properties":{"events":[{"categories":["Music"],"eDate":"2025-05-01","eName":"Michael Griffin Jazz","genre":"Jazz","price":"Free","supports":[],"ticketUrl":null,"time":" 6:30pm"}],"vName":"The Motley Bauhaus"},"type":"Feature"},{"geometry":{"coordinates":[144.9870814,-37.799406],"type":"Point"},"properties":{"events":[{"categories":["Music"],"eDate":"2025-05-01","eName":"Adam Mendum","genre":"Country/Folk","price":"$23.50","supports":["Jasmijn Woods"," Bray"],"ticketUrl":null,"time":" 7pm"}],"vName":"The Tote Hotel"},"type":"Feature"},{"geometry":{"coordinates":[144.9769451,-37.8055776],"type":"Point"},"properties":{"events":[{"categories":["Music"],"eDate":"2025-05-01","eName":"Gangrene Dream","genre":"Rock","price":"$12.75","supports":["Little Theatre"," more"],"ticketUrl":null,"time":" 7pm"}],"vName":"The Workers Club"},"type":"Feature"}],"type":"FeatureCollection"}