{"features":[{"geometry":{"coordinates":[144.99828116650363,-37.7713296],"type":"Point"},"properties":{"events":[{"categories":["Free","Music"],"eDate":"2024-06-08","eName":"Rudi Soundsystem presents Bassline","genre":null,"price":"Free","supports":[],"ticketUrl":null,"time":" 8pm"}],"vName":"Bar 303"},"type":"Feature"},{"geometry":{"coordinates":[144.978425,-37.79773],"type":"Point"},"properties":{"events":[{"categories":["Music"],"eDate":"2024-06-08","eName":"Big Alcatraz","genre":"Rock","price":"$15.00","supports":["Rocky & Nancys"," Eddy St"],"ticketUrl":null,"time":" 6pm"}],"vName":"Bar Open"},"type":"Feature"},{"geometry":{"coordinates":[144.9607158,-37.776327],"type":"Point"},"properties":{"events":[{"categories":["Music"],"eDate":"2024-06-08","eName":"Linen","genre":"Rock","price":"$16.85","supports":["Boggle"," No Hoper"," Soundtrackmusic"],"ticketUrl":null,"time":" 8pm"}],"vName":"Bergy Bandroom"},"type":"Feature"},{"geometry":{"coordinates":[144.9617018,-37.7704566],"type":"Point"},"properties":{"events":[{"categories":["Music"],"eDate":"2024-06-08","eName":"Opelousas & The Backwood Creatures","genre":"Soul/Funk","price":"$38.86","supports":[],"ticketUrl":null,"time":" 2pm"},{"categories":["Music"],"eDate":"2024-06-08","eName":"Gaza Fundraiser: A Concert for Peace with White Rabbit","genre":"Rock","price":"$25.00","supports":[],"ticketUrl":null,"time":" 8pm"}],"vName":"Brunswick Ballroom"},"type":"Feature"},{"geometry":{"coordinates":[144.99266639479475,-37.82488935],"type":"Point"},"properties":{"events":[{"categories":["Music"],"eDate":"2024-06-08","eName":"Mark Seymour & The Undertow","genre":"Rock","price":"$55.00","supports":[],"ticketUrl":null,"time":" 8:30pm"}],"vName":"Corner Hotel"},"type":"Feature"},{"geometry":{"coordinates":[144.9764962,-37.7983139],"type":"Point"},"properties":{"events":[{"categories":["Music"],"eDate":"2024-06-08","eName":"UNDFND Presents: Witters & Willy Mav","genre":"Experimental","price":"$11.36","supports":[],"ticketUrl":null,"time":" 9pm"}],"vName":"Laundry Bar"},"type":"Feature"},{"geometry":{"coordinates":[144.8971518,-37.8054274],"type":"Point"},"properties":{"events":[{"categories":["Music"],"eDate":"2024-06-08","eName":"Honey Bucket: 10th Anniversary","genre":null,"price":"$15.00 - 20.00","supports":["Milk After Sex"," Annaliese Rose"],"ticketUrl":null,"time":" 7pm"}],"vName":"Mamma Chen's"},"type":"Feature"},{"geometry":{"coordinates":[144.96741062735794,-37.82454855],"type":"Point"},"properties":{"events":[{"categories":["Music"],"eDate":"2024-06-08","eName":"Maha Jatra","genre":"Global","price":"$79.00","supports":[],"ticketUrl":null,"time":" 6:30pm"}],"vName":"Melbourne Recital Centre"},"type":"Feature"},{"geometry":{"coordinates":[144.998414,-37.771471],"type":"Point"},"properties":{"events":[{"categories":["Music"],"eDate":"2024-06-08","eName":"vaultboy","genre":"Hip Hop","price":"$54.90","supports":["Raria"],"ticketUrl":null,"time":" 7:30pm"}],"vName":"Northcote Social Club"},"type":"Feature"},{"geometry":{"coordinates":[144.97711,-37.79833],"type":"Point"},"properties":{"events":[{"categories":["Music"],"eDate":"2024-06-08","eName":"Suffer'in Fitzroy","genre":"Metal","price":"$11.25","supports":[],"ticketUrl":null,"time":" 8pm"}],"vName":"Old Bar"},"type":"Feature"},{"geometry":{"coordinates":[144.9605705,-37.8132486],"type":"Point"},"properties":{"events":[{"categories":["Music"],"eDate":"2024-06-08","eName":"Yvette Swings WITH Billie","genre":"Jazz","price":"$45.00","supports":[],"ticketUrl":null,"time":" 6pm"}],"vName":"Paris Cat Jazz Club"},"type":"Feature"},{"geometry":{"coordinates":[144.9828155,-37.8567825],"type":"Point"},"properties":{"events":[{"categories":["Music"],"eDate":"2024-06-08","eName":"The Tonalists","genre":null,"price":"Free","supports":[],"ticketUrl":null,"time":" 7:30pm"}],"vName":"St Kilda Sports Club"},"type":"Feature"},{"geometry":{"coordinates":[144.9607404,-37.7743469],"type":"Point"},"properties":{"events":[{"categories":["Music"],"eDate":"2024-06-08","eName":"Kevin Devine","genre":"Acoustic","price":"$49.99","supports":["Jimmy Kyle"],"ticketUrl":null,"time":" 7:30pm"},{"categories":["Music"],"eDate":"2024-06-08","eName":"On Repeat: ABBA","genre":"Pop","price":"$14.30 - 22.00","supports":[],"ticketUrl":null,"time":"11pm"}],"vName":"Stay Gold"},"type":"Feature"},{"geometry":{"coordinates":[144.9706095,-37.7783326],"type":"Point"},"properties":{"events":[{"categories":["Free","Music"],"eDate":"2024-06-08","eName":"The Tarantinos","genre":"Rock","price":"Free","supports":[],"ticketUrl":null,"time":" 9pm"}],"vName":"The Beast"},"type":"Feature"},{"geometry":{"coordinates":[144.9657057,-37.8061581],"type":"Point"},"properties":{"events":[{"categories":["Music"],"eDate":"2024-06-08","eName":"Clamm","genre":"Punk","price":"$24.90","supports":["Vanessa Worm"," The Blinds"],"ticketUrl":null,"time":" 8pm"}],"vName":"The Curtin"},"type":"Feature"},{"geometry":{"coordinates":[144.9585654,-37.8059962],"type":"Point"},"properties":{"events":[{"categories":["Music"],"eDate":"2024-06-08","eName":"Relays: Vic Bitter Tour","genre":null,"price":"$15.00","supports":["The Mods"," Ze Wisenheimer"],"ticketUrl":null,"time":" 1pm"}],"vName":"The Last Chance Rock & Roll Bar"},"type":"Feature"},{"geometry":{"coordinates":[144.9651425,-37.8119429],"type":"Point"},"properties":{"events":[{"categories":["Music"],"eDate":"2024-06-08","eName":"Baile do Pivete","genre":null,"price":"$20.40 - 26.52","supports":[],"ticketUrl":null,"time":" 9pm"}],"vName":"The Toff In Town"},"type":"Feature"},{"geometry":{"coordinates":[144.9846126,-37.7989941],"type":"Point"},"properties":{"events":[{"categories":["Music"],"eDate":"2024-06-08","eName":"Don't Thank Me, Spank Me!","genre":"Indie","price":"$23.50","supports":["Cong Josie & The True Romantixx"," Sandy Dish"," DJ Richie1250"],"ticketUrl":null,"time":" 8pm"},{"categories":["Free","Music"],"eDate":"2024-06-08","eName":"Up Late with Bacchus Harsh","genre":"Punk","price":"Free","supports":[],"ticketUrl":null,"time":"11:30pm"}],"vName":"The Tote Hotel"},"type":"Feature"},{"geometry":{"coordinates":[144.9618426,-37.8125531],"type":"Point"},"properties":{"events":[{"categories":["Free","Music"],"eDate":"2024-06-08","eName":"Flip Mode","genre":null,"price":"Free","supports":[],"ticketUrl":null,"time":" 4pm"}],"vName":"Whitehart Bar"},"type":"Feature"}],"type":"FeatureCollection"}