{"features":[{"geometry":{"coordinates":[144.968386,-37.81843],"type":"Point"},"properties":{"events":[{"categories":["Music","Comedy"],"eDate":"2025-04-15","eName":"Cameron James: Broken Records","genre":"Indie","price":"$25.00 - 35.00","supports":[],"ticketUrl":null,"time":" 7:30pm"}],"vName":"ACMI"},"type":"Feature"},{"geometry":{"coordinates":[144.9679835243618,-37.8201575],"type":"Point"},"properties":{"events":[{"categories":["Music","Comedy","Other \"Cabaret\""],"eDate":"2025-04-15","eName":"Jude Perl: Jude Perl Tries To Finish A Sentence","genre":"Pop","price":"$32.00 - 35.00","supports":[],"ticketUrl":null,"time":" 6pm"},{"categories":["Comedy","Other \"Cabaret\""],"eDate":"2025-04-15","eName":"The Booth Variety Spectacular & Formal Apology Hour!","genre":null,"price":"$23.00 - 33.00","supports":[],"ticketUrl":null,"time":" 6:15pm"},{"categories":["Music","Comedy"],"eDate":"2025-04-15","eName":"Gillian Cosgriff: Fresh New Worries","genre":"Pop","price":"$30.00 - 39.00","supports":[],"ticketUrl":null,"time":" 7:20pm"},{"categories":["Music","Comedy","Other \"Cabaret\""],"eDate":"2025-04-15","eName":"One Man Musical By Flo & Joan","genre":"Classical","price":"$32.00 - 36.00","supports":[],"ticketUrl":null,"time":" 8pm"},{"categories":["Comedy"],"eDate":"2025-04-15","eName":"Adam Kay - This is Going to Hurt: Secret Diaries of a Junior Doctor","genre":null,"price":"$69.90","supports":[],"ticketUrl":null,"time":" 8:30pm"}],"vName":"Arts Centre Melbourne"},"type":"Feature"},{"geometry":{"coordinates":[144.978682,-37.7981225],"type":"Point"},"properties":{"events":[{"categories":["Free","Music"],"eDate":"2025-04-15","eName":"Libby Ingels","genre":null,"price":"Free","supports":[],"ticketUrl":null,"time":" 9pm"}],"vName":"Baxter's Lot"},"type":"Feature"},{"geometry":{"coordinates":[144.96918237308262,-37.817775499999996],"type":"Point"},"properties":{"events":[{"categories":["Comedy"],"eDate":"2025-04-15","eName":"Bron Lewis: Who’s Talking?","genre":null,"price":"$25.00 - 30.00","supports":[],"ticketUrl":null,"time":" 6:15pm"}],"vName":"Beer Deluxe"},"type":"Feature"},{"geometry":{"coordinates":[144.9668096,-37.8133834],"type":"Point"},"properties":{"events":[{"categories":["Comedy"],"eDate":"2025-04-15","eName":"Wil Anderson: Whatchu Talkin' 'Bout Wil?","genre":null,"price":"$39.00 - 49.00","supports":[],"ticketUrl":null,"time":" 6pm"},{"categories":["Comedy"],"eDate":"2025-04-15","eName":"Lou Wall: Breaking The Fifth Wall","genre":null,"price":"$28.00 - 35.50","supports":[],"ticketUrl":null,"time":" 7:30pm"},{"categories":["Comedy"],"eDate":"2025-04-15","eName":"Michael Hing: Get In The Submarine","genre":null,"price":"$28.00 - 34.00","supports":[],"ticketUrl":null,"time":" 8:50pm"}],"vName":"Comedy Republic"},"type":"Feature"},{"geometry":{"coordinates":[144.983442,-37.804851],"type":"Point"},"properties":{"events":[{"categories":["Comedy","Theatre"],"eDate":"2025-04-15","eName":"Throuple the Musical","genre":null,"price":"$18.00 - 26.00","supports":[],"ticketUrl":null,"time":" 8:45pm"}],"vName":"Grace Darling Hotel"},"type":"Feature"},{"geometry":{"coordinates":[144.9679835243618,-37.8201575],"type":"Point"},"properties":{"events":[{"categories":["Comedy"],"eDate":"2025-04-15","eName":"Danny Bhoy: DEAR WORLD...","genre":null,"price":"$56.90","supports":[],"ticketUrl":null,"time":" 6:30pm"},{"categories":["Comedy"],"eDate":"2025-04-15","eName":"Vivek Mahbubani","genre":null,"price":"$26.00 - 36.00","supports":[],"ticketUrl":null,"time":" 7:45pm"}],"vName":"Hamer Hall (Arts Centre Melbourne)"},"type":"Feature"},{"geometry":{"coordinates":[145.0293642,-37.8073947],"type":"Point"},"properties":{"events":[{"categories":["Music","Festival","Comedy"],"eDate":"2025-04-15","eName":"Woody's Giggle & Strum Show","genre":null,"price":"$20.00","supports":[],"ticketUrl":null,"time":"11am"}],"vName":"Kew Court House"},"type":"Feature"},{"geometry":{"coordinates":[144.9659879,-37.8147557],"type":"Point"},"properties":{"events":[{"categories":["Comedy"],"eDate":"2025-04-15","eName":"Melanie Bracewell: A Little Treat","genre":null,"price":"$35.00 - 45.00","supports":[],"ticketUrl":null,"time":" 6:15pm"},{"categories":["Comedy"],"eDate":"2025-04-15","eName":"Melbourne International Comedy Festival presents Festival Club","genre":null,"price":"$10.00 - 22.00","supports":[],"ticketUrl":null,"time":"11pm"}],"vName":"Max Watt's (Melbourne)"},"type":"Feature"},{"geometry":{"coordinates":[144.9627231,-37.8073581],"type":"Point"},"properties":{"events":[{"categories":["Comedy"],"eDate":"2025-04-15","eName":"Nazeem Hussain: You Paid For This","genre":null,"price":"$35.00 - 45.00","supports":[],"ticketUrl":null,"time":" 6pm"},{"categories":["Comedy"],"eDate":"2025-04-15","eName":"Tom Cashman: 2 Truths, 1 Lie & 17 Slight Exaggerations","genre":null,"price":"$25.00 - 35.00","supports":[],"ticketUrl":null,"time":" 7:40pm"}],"vName":"Melbourne Town Hall"},"type":"Feature"},{"geometry":{"coordinates":[144.9712356,-37.812902],"type":"Point"},"properties":{"events":[{"categories":["Comedy"],"eDate":"2025-04-15","eName":"Guy Williams: If you midly criticise me I’ll say its cancel culture and turn to the alt right","genre":null,"price":"$25.00 - 35.00","supports":[],"ticketUrl":null,"time":" 8:50pm"}],"vName":"Morris House"},"type":"Feature"},{"geometry":{"coordinates":[144.9555612,-37.8066759],"type":"Point"},"properties":{"events":[{"categories":["Free","Music"],"eDate":"2025-04-15","eName":"Tribute Tuesdays: The Acrobats play The Cure","genre":"Acoustic","price":"Free","supports":[],"ticketUrl":null,"time":" 8pm"}],"vName":"The Drunken Poet"},"type":"Feature"},{"geometry":{"coordinates":[144.9708437,-37.7973184],"type":"Point"},"properties":{"events":[{"categories":["Comedy"],"eDate":"2025-04-15","eName":"Piotr Sikora: Furiozo - Man Looking for Trouble","genre":null,"price":"$22.29 - 30.39","supports":[],"ticketUrl":null,"time":" 8:30pm"}],"vName":"The Motley Bauhaus"},"type":"Feature"},{"geometry":{"coordinates":[144.9651425,-37.8119429],"type":"Point"},"properties":{"events":[{"categories":["Free","Music"],"eDate":"2025-04-15","eName":"NOW.HERE.THIS. Live Jazz","genre":"Jazz","price":"Free","supports":["The Now Here This All-Star Band"],"ticketUrl":null,"time":" 9pm"}],"vName":"The Toff In Town"},"type":"Feature"}],"type":"FeatureCollection"}