{"features":[{"geometry":{"coordinates":[144.978682,-37.7981225],"type":"Point"},"properties":{"events":[{"categories":["Free","Music"],"eDate":"2025-08-30","eName":"Tejo D’Cruz","genre":null,"price":"Free","supports":[],"ticketUrl":null,"time":" 9pm"}],"vName":"Baxter's Lot"},"type":"Feature"},{"geometry":{"coordinates":[144.9891167,-37.7996488],"type":"Point"},"properties":{"events":[{"categories":["Music"],"eDate":"2025-08-30","eName":"Bendigo Hotel 1 Year Revival Anniversary: Cosmic Psychos","genre":"Punk","price":"Free","supports":["Stepmother"," Frons"],"ticketUrl":null,"time":" 9pm"}],"vName":"Bendigo Hotel"},"type":"Feature"},{"geometry":{"coordinates":[144.9617083,-37.7704205],"type":"Point"},"properties":{"events":[{"categories":["Music"],"eDate":"2025-08-30","eName":"Sweethearts","genre":"Soul/Funk","price":"$17.95","supports":[],"ticketUrl":null,"time":" 2pm"},{"categories":["Music"],"eDate":"2025-08-30","eName":"James Reyne","genre":"Rock","price":"$70.00","supports":[],"ticketUrl":null,"time":" 8:30pm"}],"vName":"Brunswick Ballroom"},"type":"Feature"},{"geometry":{"coordinates":[145.0002585,-37.7592368],"type":"Point"},"properties":{"events":[{"categories":["Music"],"eDate":"2025-08-30","eName":"The Pass","genre":"Rock","price":"$15.00","supports":["Agonhymn"," Noise Vows"," Twangy Fuzz"],"ticketUrl":null,"time":" 8pm"}],"vName":"Cafe Gummo"},"type":"Feature"},{"geometry":{"coordinates":[144.9655776,-37.8317594],"type":"Point"},"properties":{"events":[{"categories":["Music","Other \"Dance \""],"eDate":"2025-08-30","eName":"The New Order: 11th Anniversary","genre":null,"price":"$20.00 - 25.00","supports":[],"ticketUrl":null,"time":" 9pm"}],"vName":"Club Pandora"},"type":"Feature"},{"geometry":{"coordinates":[144.9926664,-37.8248893],"type":"Point"},"properties":{"events":[{"categories":["Music"],"eDate":"2025-08-30","eName":"HOMEGROWN Festival","genre":"Electronic","price":"$35.00","supports":["Free Parking"," Rangerz"," Halo Voices"," Lia Magu"," James Price"," Judd Sellton"," Ivanka Fernando"," Oly Ithier"," Matthew Yao"," Jesse Chin-Quan"],"ticketUrl":null,"time":" 4pm"}],"vName":"Corner Hotel"},"type":"Feature"},{"geometry":{"coordinates":[144.9777885,-37.8597831],"type":"Point"},"properties":{"events":[{"categories":["Music"],"eDate":"2025-08-30","eName":"Mixed Tape","genre":"Country/Folk","price":"Free","supports":[],"ticketUrl":null,"time":" 6:30pm"}],"vName":"Freddie Wimpoles"},"type":"Feature"},{"geometry":{"coordinates":[144.8984802,-37.8111559],"type":"Point"},"properties":{"events":[{"categories":["Music"],"eDate":"2025-08-30","eName":"Live Hip Hop Showcase: The Nuance Of Dichotomy","genre":null,"price":"$20.00","supports":[],"ticketUrl":null,"time":" 7:30pm"}],"vName":"Kindred Bandroom"},"type":"Feature"},{"geometry":{"coordinates":[144.8975289,-37.8022392],"type":"Point"},"properties":{"events":[{"categories":["Free","Music","Markets","Other \"Art \"","Other \"Cabaret\""],"eDate":"2025-08-30","eName":"CARABINERS: A Queer Variety Night","genre":null,"price":"Free","supports":[],"ticketUrl":null,"time":" 4pm"},{"categories":["Music"],"eDate":"2025-08-30","eName":"ARIE ROSE: “Left Behind” Single Launch","genre":null,"price":"$15.00 - 20.00","supports":["Tomalia"," Erfurt Latrine Disaster"],"ticketUrl":null,"time":" 7:30pm"}],"vName":"Mamma Chen's"},"type":"Feature"},{"geometry":{"coordinates":[144.9658499,-37.8147453],"type":"Point"},"properties":{"events":[{"categories":["Music"],"eDate":"2025-08-30","eName":"Resonance","genre":"Indie","price":"$28.50 - 48.50","supports":["Mami"," Danny Bollas"," Iterations"," Sunami"],"ticketUrl":null,"time":" 9pm"}],"vName":"Max Watt's (Melbourne)"},"type":"Feature"},{"geometry":{"coordinates":[144.9615882,-37.7711432],"type":"Point"},"properties":{"events":[{"categories":["Free","Music"],"eDate":"2025-08-30","eName":"David Cosma","genre":"Rock","price":"Free","supports":[],"ticketUrl":null,"time":" 2:30pm"}],"vName":"Retreat Hotel"},"type":"Feature"},{"geometry":{"coordinates":[144.9706211,-37.778276],"type":"Point"},"properties":{"events":[{"categories":["Music"],"eDate":"2025-08-30","eName":"Fundraiser For Falastin","genre":"Electronic","price":"Free","supports":[],"ticketUrl":null,"time":" 8pm"}],"vName":"The Beast"},"type":"Feature"},{"geometry":{"coordinates":[144.9840598,-37.7827901],"type":"Point"},"properties":{"events":[{"categories":["Music"],"eDate":"2025-08-30","eName":"Middle Management","genre":null,"price":"$15.00","supports":["Assorted Pleasures"," BoysnLove"],"ticketUrl":null,"time":" 8:30pm"}],"vName":"The Fitzroy Pinnacle"},"type":"Feature"},{"geometry":{"coordinates":[144.9879283,-37.7505509],"type":"Point"},"properties":{"events":[{"categories":["Music"],"eDate":"2025-08-30","eName":"Ebi Nori","genre":"Acoustic","price":"Free","supports":[],"ticketUrl":null,"time":" 7pm"}],"vName":"The Merri Bar"},"type":"Feature"},{"geometry":{"coordinates":[144.9708437,-37.7973184],"type":"Point"},"properties":{"events":[{"categories":["Comedy","Theatre"],"eDate":"2025-08-30","eName":"The Big HOO-HAA!","genre":null,"price":"$32.00","supports":[],"ticketUrl":null,"time":" 8:30pm"}],"vName":"The Motley Bauhaus"},"type":"Feature"},{"geometry":{"coordinates":[144.9651425,-37.8119429],"type":"Point"},"properties":{"events":[{"categories":["Free","Music"],"eDate":"2025-08-30","eName":"Is That Garage?","genre":"Electronic","price":"Free","supports":[],"ticketUrl":null,"time":"11pm"}],"vName":"The Toff In Town"},"type":"Feature"},{"geometry":{"coordinates":[144.9769451,-37.8055776],"type":"Point"},"properties":{"events":[{"categories":["Music"],"eDate":"2025-08-30","eName":"Sharp Edges","genre":"Rock","price":"$20.00","supports":["Quiet Neighbours"," Misfitdeo"],"ticketUrl":null,"time":" 1pm"},{"categories":["Music"],"eDate":"2025-08-30","eName":"Willie J’s 6V6s","genre":"Rock","price":"$20.00","supports":[],"ticketUrl":null,"time":" 8pm"}],"vName":"The Workers Club"},"type":"Feature"}],"type":"FeatureCollection"}