{"features":[{"geometry":{"coordinates":[144.978425,-37.79773],"type":"Point"},"properties":{"events":[{"categories":["Free","Music"],"eDate":"2024-02-16","eName":"The Four Scoops","genre":"Jazz","price":"Free","supports":[],"ticketUrl":null,"time":" 6pm"}],"vName":"Bar Open"},"type":"Feature"},{"geometry":{"coordinates":[144.9607158,-37.776327],"type":"Point"},"properties":{"events":[{"categories":["Music"],"eDate":"2024-02-16","eName":"Oscar the Wild","genre":"Rock","price":"$16.85","supports":["Tamara & The Dreams"],"ticketUrl":null,"time":" 8pm"}],"vName":"Bergy Bandroom"},"type":"Feature"},{"geometry":{"coordinates":[144.80238778071427,-37.745293950000004],"type":"Point"},"properties":{"events":[{"categories":["Theatre","Dance"],"eDate":"2024-02-16","eName":"M_N","genre":null,"price":"$10.00 - 15.00","supports":[],"ticketUrl":null,"time":" 2pm"}],"vName":"Bowery Theatre"},"type":"Feature"},{"geometry":{"coordinates":[144.9617018,-37.7704566],"type":"Point"},"properties":{"events":[{"categories":["Music","Festival","Other \"Spoken Word\"","Other \"Poetry & Forums\""],"eDate":"2024-02-16","eName":"Divorce Party with Clementine Ford and Yumi Stynes","genre":"Pop","price":"$43.96","supports":[],"ticketUrl":null,"time":" 8pm"}],"vName":"Brunswick Ballroom"},"type":"Feature"},{"geometry":{"coordinates":[144.99266639479475,-37.82488935],"type":"Point"},"properties":{"events":[{"categories":["Music"],"eDate":"2024-02-16","eName":"No Cigar","genre":"Rock","price":"$40.40","supports":[],"ticketUrl":null,"time":" 8:30pm"}],"vName":"Corner Hotel"},"type":"Feature"},{"geometry":{"coordinates":[145.03588565533943,-37.8230335],"type":"Point"},"properties":{"events":[{"categories":["Music"],"eDate":"2024-02-16","eName":"The Shanghai Mimi Band","genre":"Jazz","price":"$30.00 - 38.00","supports":[],"ticketUrl":null,"time":" 8pm"}],"vName":"Hawthorn Arts Centre"},"type":"Feature"},{"geometry":{"coordinates":[144.973013,-37.8640582],"type":"Point"},"properties":{"events":[{"categories":["Music"],"eDate":"2024-02-16","eName":"Pseudo Echo","genre":"Electronic","price":"$59.00","supports":[],"ticketUrl":null,"time":" 7pm"}],"vName":"Hotel Esplanade (aka The Espy)"},"type":"Feature"},{"geometry":{"coordinates":[144.9764962,-37.7983139],"type":"Point"},"properties":{"events":[{"categories":["Music"],"eDate":"2024-02-16","eName":"Rich Brian & Yung Gravy Party","genre":"Hip Hop","price":"$10.00","supports":[],"ticketUrl":null,"time":"10pm"},{"categories":["Music"],"eDate":"2024-02-16","eName":"Dave & Central Cee Party","genre":"Hip Hop","price":"$10.00","supports":[],"ticketUrl":null,"time":"11pm"}],"vName":"Laundry Bar"},"type":"Feature"},{"geometry":{"coordinates":[144.9936498,-37.8000264],"type":"Point"},"properties":{"events":[{"categories":["Free","Music"],"eDate":"2024-02-16","eName":"Kill Bell","genre":"Rock","price":"Free","supports":[],"ticketUrl":null,"time":" 7pm"}],"vName":"Lulie Tavern"},"type":"Feature"},{"geometry":{"coordinates":[144.8971518,-37.8054274],"type":"Point"},"properties":{"events":[{"categories":["Music"],"eDate":"2024-02-16","eName":"The Subordinates","genre":null,"price":"$10.00 - 15.00","supports":["Planet Bitchy"," The Salmon Sisters"],"ticketUrl":null,"time":" 6pm"}],"vName":"Mamma Chen's"},"type":"Feature"},{"geometry":{"coordinates":[144.96741062735794,-37.82454855],"type":"Point"},"properties":{"events":[{"categories":["Music"],"eDate":"2024-02-16","eName":"Sophie Hutchings","genre":"Indie","price":"$65.00","supports":[],"ticketUrl":null,"time":" 7pm"}],"vName":"Melbourne Recital Centre"},"type":"Feature"},{"geometry":{"coordinates":[144.9712356,-37.812902],"type":"Point"},"properties":{"events":[{"categories":["Comedy"],"eDate":"2024-02-16","eName":"Basement Comedy Club Fridays","genre":null,"price":"$22.00","supports":[],"ticketUrl":null,"time":" 8pm"}],"vName":"Morris House"},"type":"Feature"},{"geometry":{"coordinates":[144.998414,-37.771471],"type":"Point"},"properties":{"events":[{"categories":["Music"],"eDate":"2024-02-16","eName":"Parsnip","genre":"Rock","price":"$24.00","supports":["Woollen Kits"," Shifters"],"ticketUrl":null,"time":" 8:30pm"}],"vName":"Northcote Social Club"},"type":"Feature"},{"geometry":{"coordinates":[144.90239079583333,-37.79990865],"type":"Point"},"properties":{"events":[{"categories":["Other \"Cabaret\""],"eDate":"2024-02-16","eName":"Dragon Balls XL: Queer Lunar New Year","genre":null,"price":"$20.00","supports":[],"ticketUrl":null,"time":" 7:30pm"}],"vName":"Pride Of Our Footscray Community Bar"},"type":"Feature"},{"geometry":{"coordinates":[144.9631913,-37.7617818],"type":"Point"},"properties":{"events":[{"categories":["Music"],"eDate":"2024-02-16","eName":"COOLDAD + Babe","genre":"Rock","price":"$10.00","supports":[],"ticketUrl":null,"time":" 8pm"}],"vName":"Ringo Barr"},"type":"Feature"},{"geometry":{"coordinates":[144.9706095,-37.7783326],"type":"Point"},"properties":{"events":[{"categories":["Free","Music"],"eDate":"2024-02-16","eName":"Lamassu","genre":"Rock","price":"Free","supports":["Oceanlord"," Honeybone"],"ticketUrl":null,"time":" 9pm"}],"vName":"The Beast"},"type":"Feature"},{"geometry":{"coordinates":[144.9657057,-37.8061581],"type":"Point"},"properties":{"events":[{"categories":["Music"],"eDate":"2024-02-16","eName":"Fitz Ritz","genre":"Punk","price":"$29.99","supports":[],"ticketUrl":null,"time":" 8pm"}],"vName":"The Curtin"},"type":"Feature"},{"geometry":{"coordinates":[144.9830837,-37.7988316],"type":"Point"},"properties":{"events":[{"categories":["Music"],"eDate":"2024-02-16","eName":"Gabriele Poso","genre":"Electronic","price":"$38.59 - 48.78","supports":[],"ticketUrl":null,"time":" 9pm"}],"vName":"The Night Cat"},"type":"Feature"},{"geometry":{"coordinates":[144.9846126,-37.7989941],"type":"Point"},"properties":{"events":[{"categories":["Music"],"eDate":"2024-02-16","eName":"Super American Eagle","genre":"Rock","price":"$16.35","supports":[],"ticketUrl":null,"time":" 8pm"}],"vName":"The Tote Hotel"},"type":"Feature"},{"geometry":{"coordinates":[144.9618426,-37.8125531],"type":"Point"},"properties":{"events":[{"categories":["Free","Music","Other \"Food & Drink\""],"eDate":"2024-02-16","eName":"NY 77-99; The Sounds of New York City","genre":null,"price":"Free","supports":[],"ticketUrl":null,"time":" 7pm"}],"vName":"Whitehart Bar"},"type":"Feature"}],"type":"FeatureCollection"}