{"features":[{"geometry":{"coordinates":[144.99828116650363,-37.7713296],"type":"Point"},"properties":{"events":[{"categories":["Music"],"eDate":"2024-07-10","eName":"Shottle Bop: Sean Coffin meets Julien Wilson","genre":"Jazz","price":"$20.00","supports":[],"ticketUrl":null,"time":" 8:30pm"}],"vName":"Bar 303"},"type":"Feature"},{"geometry":{"coordinates":[144.978682,-37.7981225],"type":"Point"},"properties":{"events":[{"categories":["Music"],"eDate":"2024-07-10","eName":"Tim Richards","genre":null,"price":"Free","supports":[],"ticketUrl":null,"time":" 9:30pm"},{"categories":["Music"],"eDate":"2024-07-10","eName":"Jack Milligan","genre":null,"price":"Free","supports":[],"ticketUrl":null,"time":" 9:30pm"}],"vName":"Baxter's Lot"},"type":"Feature"},{"geometry":{"coordinates":[144.998414,-37.771471],"type":"Point"},"properties":{"events":[{"categories":["Theatre","Other \"Film\""],"eDate":"2024-07-10","eName":"Dirty Dancing: Film Screening","genre":null,"price":"Free","supports":[],"ticketUrl":null,"time":" 8pm"}],"vName":"Northcote Social Club"},"type":"Feature"},{"geometry":{"coordinates":[144.97711,-37.79833],"type":"Point"},"properties":{"events":[{"categories":["Music"],"eDate":"2024-07-10","eName":"Peripathetic - Cher Tan Book Launch + ESP Mayhem","genre":"Rock","price":"$23.50","supports":["Shoshana Rosenberg"," Skezm"," Overthrone"],"ticketUrl":null,"time":" 7:30pm"}],"vName":"Old Bar"},"type":"Feature"},{"geometry":{"coordinates":[145.001392343033,-37.75592655],"type":"Point"},"properties":{"events":[{"categories":["Free","Music"],"eDate":"2024-07-10","eName":"Licklash + DOLLS","genre":"Punk","price":"Free","supports":[],"ticketUrl":null,"time":" 6pm"}],"vName":"Shotkickers"},"type":"Feature"},{"geometry":{"coordinates":[144.9651227,-37.815011],"type":"Point"},"properties":{"events":[{"categories":["Other \"Cabaret\""],"eDate":"2024-07-10","eName":"Popera: Sex, Death and Politics","genre":null,"price":"$15.00 - 39.00","supports":[],"ticketUrl":null,"time":" 7pm"}],"vName":"The Butterfly Club"},"type":"Feature"}],"type":"FeatureCollection"}