{"features":[{"geometry":{"coordinates":[144.9679835243618,-37.8201575],"type":"Point"},"properties":{"events":[{"categories":["Theatre"],"eDate":"2024-05-08","eName":"A Midsummer Night's Dream (Matinee)","genre":null,"price":"$40.00 - 110.00","supports":[],"ticketUrl":null,"time":" 2pm"},{"categories":["Theatre"],"eDate":"2024-05-08","eName":"A Midsummer Night's Dream","genre":null,"price":"$40.00 - 110.00","supports":[],"ticketUrl":null,"time":" 7:30pm"}],"vName":"Arts Centre Melbourne"},"type":"Feature"},{"geometry":{"coordinates":[144.9500257,-37.8032773],"type":"Point"},"properties":{"events":[{"categories":["Music","Art"],"eDate":"2024-05-08","eName":"Rainbow Chan 陳雋然 : The Bridal Lament 哭嫁歌","genre":"Experimental","price":"$35.00","supports":[],"ticketUrl":null,"time":" 7:30pm"}],"vName":"Arts House"},"type":"Feature"},{"geometry":{"coordinates":[144.9607158,-37.776327],"type":"Point"},"properties":{"events":[{"categories":["Music"],"eDate":"2024-05-08","eName":"Dylan’s Omens","genre":"Rock","price":"$17.85","supports":["Danger Den"," C.A.T.O"," Emma Yue"],"ticketUrl":null,"time":" 8pm"}],"vName":"Bergy Bandroom"},"type":"Feature"},{"geometry":{"coordinates":[144.97711,-37.79833],"type":"Point"},"properties":{"events":[{"categories":["Music"],"eDate":"2024-05-08","eName":"Queens Of Culture","genre":"Hip Hop","price":"$15.00","supports":["Grace Chia"," Villiana"," Helen Earth"," Phinix"," DJ Mizhap"],"ticketUrl":null,"time":" 8pm"}],"vName":"Old Bar"},"type":"Feature"},{"geometry":{"coordinates":[145.13337431967784,-37.91372355],"type":"Point"},"properties":{"events":[{"categories":["Music"],"eDate":"2024-05-08","eName":"Live at The Counts: Monique diMattina","genre":"Jazz","price":"$10.00 - 25.00","supports":[],"ticketUrl":null,"time":" 7:30pm"}],"vName":"The Ian Potter Centre for Performing Arts"},"type":"Feature"},{"geometry":{"coordinates":[144.9585654,-37.8059962],"type":"Point"},"properties":{"events":[{"categories":["Free","Music"],"eDate":"2024-05-08","eName":"Algor Mortis + Miserable Creature","genre":"Metal","price":"Free","supports":[],"ticketUrl":null,"time":" 7pm"}],"vName":"The Last Chance Rock & Roll Bar"},"type":"Feature"},{"geometry":{"coordinates":[144.9983987,-37.7729204],"type":"Point"},"properties":{"events":[{"categories":["Trivia"],"eDate":"2024-05-08","eName":"Trivia With Sparx","genre":null,"price":"Free","supports":[],"ticketUrl":null,"time":" 7:30pm"}],"vName":"Wesley Anne"},"type":"Feature"}],"type":"FeatureCollection"}