{"features":[{"geometry":{"coordinates":[144.978682,-37.7981225],"type":"Point"},"properties":{"events":[{"categories":["Free","Music"],"eDate":"2026-02-01","eName":"Baxter’s Live Open Mic","genre":null,"price":"Free","supports":[],"ticketUrl":null,"time":" 6pm"},{"categories":["Free","Music"],"eDate":"2026-02-01","eName":"Woody Samson","genre":null,"price":"Free","supports":[],"ticketUrl":null,"time":" 9pm"}],"vName":"Baxter's Lot"},"type":"Feature"},{"geometry":{"coordinates":[146.9617587,-36.7264615],"type":"Point"},"properties":{"events":[{"categories":["Free","Music"],"eDate":"2026-02-01","eName":"Sanfona: Summer Tour 2026","genre":"Jazz","price":"Free","supports":[],"ticketUrl":null,"time":" 2pm"}],"vName":"Bright Brewery"},"type":"Feature"},{"geometry":{"coordinates":[145.0004166,-37.7612582],"type":"Point"},"properties":{"events":[{"categories":["Music"],"eDate":"2026-02-01","eName":"Beacs","genre":null,"price":"$10.00","supports":["Shelly's Motor Club"," Kelsey Jean & The Bad Health"],"ticketUrl":null,"time":" 2pm"},{"categories":["Music"],"eDate":"2026-02-01","eName":"Beacs + Shelly’s Motor Club + Kelsey Jean & the Bad Health","genre":null,"price":"$10.00","supports":["Shelly's Motor Club"," Kelsey Jean & The Bad Health"],"ticketUrl":null,"time":" 2pm"}],"vName":"Cactus Room"},"type":"Feature"},{"geometry":{"coordinates":[144.9501312,-37.8042459],"type":"Point"},"properties":{"events":[{"categories":["Comedy"],"eDate":"2026-02-01","eName":"Sunday Night Comedy","genre":null,"price":"$10.00","supports":[],"ticketUrl":null,"time":" 7:30pm"}],"vName":"Club Voltaire"},"type":"Feature"},{"geometry":{"coordinates":[144.9879283,-37.7505509],"type":"Point"},"properties":{"events":[{"categories":["Music"],"eDate":"2026-02-01","eName":"Dear Buffalo","genre":"Country/Folk","price":"Free","supports":[],"ticketUrl":null,"time":" 4pm"}],"vName":"The Merri Bar"},"type":"Feature"},{"geometry":{"coordinates":[144.9763814,-37.8607022],"type":"Point"},"properties":{"events":[{"categories":["Free","Music","Other \"Food \""],"eDate":"2026-02-01","eName":"Midsumma Festival: Sunday Sizzle – Pride March Rooftop Party","genre":"Electronic","price":"Free","supports":["DJ Callum"," DJ Ron"],"ticketUrl":null,"time":"12pm"}],"vName":"Victorian Pride Centre"},"type":"Feature"},{"geometry":{"coordinates":[144.9730268,-37.8148148],"type":"Point"},"properties":{"events":[{"categories":["Festival","Theatre"],"eDate":"2026-02-01","eName":"The Placeholder","genre":null,"price":"$38.00","supports":[],"ticketUrl":null,"time":" 5pm"}],"vName":"fortyfivedownstairs"},"type":"Feature"}],"type":"FeatureCollection"}