{"features":[{"geometry":{"coordinates":[144.978682,-37.7981225],"type":"Point"},"properties":{"events":[{"categories":["Free","Music"],"eDate":"2025-12-13","eName":"Lewis Toms","genre":null,"price":"Free","supports":[],"ticketUrl":null,"time":" 9pm"}],"vName":"Baxter's Lot"},"type":"Feature"},{"geometry":{"coordinates":[144.9891167,-37.7996488],"type":"Point"},"properties":{"events":[{"categories":["Music"],"eDate":"2025-12-13","eName":"Emo Diva: Divorce Core Christmas Party","genre":"Punk","price":"$0.00 - 29.10","supports":[],"ticketUrl":null,"time":" 9pm"}],"vName":"Bendigo Hotel"},"type":"Feature"},{"geometry":{"coordinates":[144.9607158,-37.776327],"type":"Point"},"properties":{"events":[{"categories":["Music"],"eDate":"2025-12-13","eName":"Takee","genre":"Indie","price":"$16.85 - 22.95","supports":["Mila + Lucas"," Adam Mendum"],"ticketUrl":null,"time":" 1pm"},{"categories":["Music"],"eDate":"2025-12-13","eName":"ROSARIES","genre":"Rock","price":"$16.85","supports":["Oil Rig"," Phase Wanderer"],"ticketUrl":null,"time":" 8pm"}],"vName":"Bergy Bandroom"},"type":"Feature"},{"geometry":{"coordinates":[144.9617083,-37.7704205],"type":"Point"},"properties":{"events":[{"categories":["Free","Music"],"eDate":"2025-12-13","eName":"Matt Malone & The Holy Spirits","genre":"Country/Folk","price":"Free","supports":[],"ticketUrl":null,"time":" 4pm"},{"categories":["Free","Music"],"eDate":"2025-12-13","eName":"Cytosis","genre":"Rock","price":"Free","supports":["Astral High"," Backo"],"ticketUrl":null,"time":" 8pm"}],"vName":"Brunswick Artists' Bar"},"type":"Feature"},{"geometry":{"coordinates":[144.9617083,-37.7704205],"type":"Point"},"properties":{"events":[{"categories":["Music"],"eDate":"2025-12-13","eName":"Stranger Cole","genre":"Global","price":"$70.99","supports":[],"ticketUrl":null,"time":" 8:30pm"}],"vName":"Brunswick Ballroom"},"type":"Feature"},{"geometry":{"coordinates":[145.0004166,-37.7612582],"type":"Point"},"properties":{"events":[{"categories":["Music","Festival"],"eDate":"2025-12-13","eName":"DIY on High (Cactus Room)","genre":null,"price":"$15.00","supports":["The Salmon Sisters"," Kristol Pisstol"," The Brakes"," Pussy Horse"],"ticketUrl":null,"time":" 2pm"}],"vName":"Cactus Room"},"type":"Feature"},{"geometry":{"coordinates":[145.0002585,-37.7592368],"type":"Point"},"properties":{"events":[{"categories":["Music","Festival"],"eDate":"2025-12-13","eName":"DIY on High (Cafe Gummo)","genre":null,"price":"$15.00","supports":["The Salmon Sisters"," Kristol Pisstol"," The Brakes"," Pussy Horse"],"ticketUrl":null,"time":" 2pm"}],"vName":"Cafe Gummo"},"type":"Feature"},{"geometry":{"coordinates":[144.9655776,-37.8317594],"type":"Point"},"properties":{"events":[{"categories":["Music","Other \"Dance \""],"eDate":"2025-12-13","eName":"THE NEW ORDER: Rocky Horror Xmas Show","genre":null,"price":"$20.00 - 25.00","supports":[],"ticketUrl":null,"time":" 9pm"}],"vName":"Club Pandora"},"type":"Feature"},{"geometry":{"coordinates":[144.9747815,-37.7689698],"type":"Point"},"properties":{"events":[{"categories":["Music"],"eDate":"2025-12-13","eName":"PSI PHI + Tarcutta","genre":null,"price":"$15.00 - 20.00","supports":[],"ticketUrl":null,"time":" 8pm"}],"vName":"Cross Street Music Hall"},"type":"Feature"},{"geometry":{"coordinates":[144.9785611,-37.7965465],"type":"Point"},"properties":{"events":[{"categories":["Music"],"eDate":"2025-12-13","eName":"Dust","genre":"Punk","price":"$35.20","supports":[],"ticketUrl":null,"time":" 8pm"}],"vName":"Evelyn Hotel"},"type":"Feature"},{"geometry":{"coordinates":[144.9875792,-37.7963739],"type":"Point"},"properties":{"events":[{"categories":["Music"],"eDate":"2025-12-13","eName":"Alison Parade","genre":"Indie","price":"$13.00","supports":["Noturns"],"ticketUrl":null,"time":" 3:30pm"},{"categories":["Music"],"eDate":"2025-12-13","eName":"Seedy Jeezus + Non","genre":"Rock","price":"$18.10","supports":[],"ticketUrl":null,"time":" 8:30pm"}],"vName":"Gem Bar"},"type":"Feature"},{"geometry":{"coordinates":[144.9679835,-37.8201575],"type":"Point"},"properties":{"events":[{"categories":["Music"],"eDate":"2025-12-13","eName":"Classic Kids: A Symphonic Christmas (Relaxed Performance)","genre":"Classical","price":"$28.00","supports":[],"ticketUrl":null,"time":"12:30pm"},{"categories":["Music"],"eDate":"2025-12-13","eName":"Handel’s Messiah","genre":"Classical","price":"$81.00","supports":[],"ticketUrl":null,"time":" 7pm"}],"vName":"Hamer Hall (Arts Centre Melbourne)"},"type":"Feature"},{"geometry":{"coordinates":[144.973013,-37.8640582],"type":"Point"},"properties":{"events":[{"categories":["Music"],"eDate":"2025-12-13","eName":"The Best-of Fest ’25","genre":"Indie","price":"$28.05","supports":[],"ticketUrl":null,"time":" 1:30pm"},{"categories":["Music"],"eDate":"2025-12-13","eName":"Raptor","genre":"Rock","price":"$15.85","supports":["Valenta"," Swordfish"],"ticketUrl":null,"time":" 7:30pm"}],"vName":"Hotel Esplanade (aka The Espy)"},"type":"Feature"},{"geometry":{"coordinates":[144.9596527,-37.7720304],"type":"Point"},"properties":{"events":[{"categories":["Music"],"eDate":"2025-12-13","eName":"Little Ravers: Christmas Special Melbourne","genre":"Electronic","price":"$17.34 - 28.56","supports":[],"ticketUrl":null,"time":"12pm"},{"categories":["Music"],"eDate":"2025-12-13","eName":"Crushes","genre":"Indie","price":"$15.00 - 20.00","supports":["Lady Bitch"," Lunic"],"ticketUrl":null,"time":" 7:30pm"},{"categories":["Music"],"eDate":"2025-12-13","eName":"Scowl","genre":"Punk","price":"$55.00","supports":["End It"," Secret World"],"ticketUrl":null,"time":" 8pm"}],"vName":"Howler"},"type":"Feature"},{"geometry":{"coordinates":[144.9571785,-37.8188809],"type":"Point"},"properties":{"events":[{"categories":["Music"],"eDate":"2025-12-13","eName":"Daydream80s #5 – new wave. pop. alternative. daytime.","genre":"Pop","price":"$23.00","supports":[],"ticketUrl":null,"time":" 3pm"}],"vName":"Inflation Entertainment Complex"},"type":"Feature"},{"geometry":{"coordinates":[144.9712356,-37.812902],"type":"Point"},"properties":{"events":[{"categories":["Comedy"],"eDate":"2025-12-13","eName":"Jokes In Progress","genre":null,"price":"$15.00","supports":[],"ticketUrl":null,"time":" 6:15pm"},{"categories":["Music"],"eDate":"2025-12-13","eName":"Tilly Lovelock","genre":"Electronic","price":"Free","supports":[],"ticketUrl":null,"time":" 7pm"}],"vName":"Morris House"},"type":"Feature"},{"geometry":{"coordinates":[144.9833121,-37.8062477],"type":"Point"},"properties":{"events":[{"categories":["Music"],"eDate":"2025-12-13","eName":"Thick N Juicy Presents ACTION","genre":"Electronic","price":"$20.00 - 25.00","supports":[],"ticketUrl":null,"time":"10pm"},{"categories":["Music"],"eDate":"2025-12-13","eName":"XTSS","genre":"Electronic","price":"$16.45 - 27.40","supports":[],"ticketUrl":null,"time":"10pm"},{"categories":["Music"],"eDate":"2025-12-13","eName":"Eat The Beat: Together","genre":"Electronic","price":"$20.00 - 25.00","supports":["more"],"ticketUrl":null,"time":"10pm"}],"vName":"New Guernica"},"type":"Feature"},{"geometry":{"coordinates":[144.9982706,-37.7737068],"type":"Point"},"properties":{"events":[{"categories":["Music"],"eDate":"2025-12-13","eName":"Se So Neon","genre":null,"price":"$79.90","supports":[],"ticketUrl":null,"time":" 7:30pm"}],"vName":"Northcote Theatre"},"type":"Feature"},{"geometry":{"coordinates":[144.97711,-37.79833],"type":"Point"},"properties":{"events":[{"categories":["Music"],"eDate":"2025-12-13","eName":"The Stripp","genre":"Rock","price":"$17.35","supports":["Space Junk"," Howl"],"ticketUrl":null,"time":" 8pm"}],"vName":"Old Bar"},"type":"Feature"},{"geometry":{"coordinates":[144.32141,-37.38866],"type":"Point"},"properties":{"events":[{"categories":["Free","Music"],"eDate":"2025-12-13","eName":"Victoriana Gaye","genre":"Country/Folk","price":"Free","supports":[],"ticketUrl":null,"time":" 3pm"}],"vName":"The Cosmopolitan Hotel"},"type":"Feature"},{"geometry":{"coordinates":[144.9770425,-37.8588717],"type":"Point"},"properties":{"events":[{"categories":["Music"],"eDate":"2025-12-13","eName":"Milly Joel Trio","genre":"Indie","price":"Free","supports":["DJ Aha"],"ticketUrl":null,"time":" 9pm"}],"vName":"The Fifth Province"},"type":"Feature"},{"geometry":{"coordinates":[144.9879283,-37.7505509],"type":"Point"},"properties":{"events":[{"categories":["Music"],"eDate":"2025-12-13","eName":"Luke Koszanski & Huich Goh","genre":"Acoustic","price":"Free","supports":[],"ticketUrl":null,"time":" 7pm"}],"vName":"The Merri Bar"},"type":"Feature"},{"geometry":{"coordinates":[144.9794553,-37.7982653],"type":"Point"},"properties":{"events":[{"categories":["Music"],"eDate":"2025-12-13","eName":"MAMMAL Xmas Show","genre":"Rock","price":"$50.90","supports":["Bushido"," Xani"],"ticketUrl":null,"time":" 7:30pm"}],"vName":"The Night Cat"},"type":"Feature"},{"geometry":{"coordinates":[144.9651425,-37.8119429],"type":"Point"},"properties":{"events":[{"categories":["Music"],"eDate":"2025-12-13","eName":"STEPPER","genre":"Electronic","price":"$28.56","supports":[],"ticketUrl":null,"time":" 9pm"}],"vName":"The Toff In Town"},"type":"Feature"},{"geometry":{"coordinates":[144.9984324,-37.7729134],"type":"Point"},"properties":{"events":[{"categories":["Music"],"eDate":"2025-12-13","eName":"Tony Yang","genre":"Jazz","price":"Free","supports":[],"ticketUrl":null,"time":" 6pm"},{"categories":["Music"],"eDate":"2025-12-13","eName":"Blue Fur","genre":"Rock","price":"$23.20","supports":["Acid Arrow"],"ticketUrl":null,"time":" 8pm"},{"categories":["Music"],"eDate":"2025-12-13","eName":"Blue Fur","genre":"Rock","price":"$20.00","supports":[],"ticketUrl":null,"time":" 8pm"}],"vName":"Wesley Anne"},"type":"Feature"},{"geometry":{"coordinates":[144.9618781,-37.8126316],"type":"Point"},"properties":{"events":[{"categories":["Free","Music"],"eDate":"2025-12-13","eName":"Bent Street Crew with Otteo & Friends","genre":null,"price":"Free","supports":[],"ticketUrl":null,"time":" 4pm"}],"vName":"Whitehart Bar"},"type":"Feature"}],"type":"FeatureCollection"}