{"features":[{"geometry":{"coordinates":[144.99828116650363,-37.7713296],"type":"Point"},"properties":{"events":[{"categories":["Music"],"eDate":"2024-07-12","eName":"Opa! Bato Balkan Brass","genre":"Jazz","price":"$30.00","supports":[],"ticketUrl":null,"time":" 8:30pm"}],"vName":"Bar 303"},"type":"Feature"},{"geometry":{"coordinates":[144.978682,-37.7981225],"type":"Point"},"properties":{"events":[{"categories":["Music"],"eDate":"2024-07-12","eName":"Tejo D'Cruz","genre":null,"price":"Free","supports":[],"ticketUrl":null,"time":" 9:30pm"},{"categories":["Music"],"eDate":"2024-07-12","eName":"Ziggy Durling","genre":null,"price":"Free","supports":[],"ticketUrl":null,"time":"10pm"}],"vName":"Baxter's Lot"},"type":"Feature"},{"geometry":{"coordinates":[144.9607158,-37.776327],"type":"Point"},"properties":{"events":[{"categories":["Music"],"eDate":"2024-07-12","eName":"Nice Biscuit","genre":"Rock","price":"$28.05","supports":["Heavy Amber"," Winsky"],"ticketUrl":null,"time":" 8pm"}],"vName":"Bergy Bandroom"},"type":"Feature"},{"geometry":{"coordinates":[144.9945274,-37.8001115],"type":"Point"},"properties":{"events":[{"categories":["Music"],"eDate":"2024-07-12","eName":"Proponent Records Compilation Album Vol. 2 Launch Party","genre":"Electronic","price":"$20.00","supports":[],"ticketUrl":null,"time":" 6pm"}],"vName":"Bodriggy Brewing Company"},"type":"Feature"},{"geometry":{"coordinates":[144.9617018,-37.7704566],"type":"Point"},"properties":{"events":[{"categories":["Other \"Spoken Word\"","Other \"Poetry & Forums\""],"eDate":"2024-07-12","eName":"An Evening with Lucinda Light","genre":null,"price":"$54.67","supports":[],"ticketUrl":null,"time":" 8pm"}],"vName":"Brunswick Ballroom"},"type":"Feature"},{"geometry":{"coordinates":[144.9713425,-37.8128595],"type":"Point"},"properties":{"events":[{"categories":["Free","Music"],"eDate":"2024-07-12","eName":"BUCK WILD: Country & Southern Rock Party","genre":null,"price":"Free","supports":[],"ticketUrl":null,"time":" 9pm"}],"vName":"Cherry Bar"},"type":"Feature"},{"geometry":{"coordinates":[144.9248037207342,-37.7656716],"type":"Point"},"properties":{"events":[{"categories":["Theatre"],"eDate":"2024-07-12","eName":"The Very Hungry Caterpillar Show","genre":null,"price":"$45.00","supports":[],"ticketUrl":null,"time":"12pm"}],"vName":"Clocktower Centre"},"type":"Feature"},{"geometry":{"coordinates":[144.99266639479475,-37.82488935],"type":"Point"},"properties":{"events":[{"categories":["Music"],"eDate":"2024-07-12","eName":"Sly Withers","genre":"Punk","price":"$39.90","supports":["Smol Fish"," Eaglemont"],"ticketUrl":null,"time":" 8:30pm"}],"vName":"Corner Hotel"},"type":"Feature"},{"geometry":{"coordinates":[144.9745581,-37.7694446],"type":"Point"},"properties":{"events":[{"categories":["Music"],"eDate":"2024-07-12","eName":"Remorse Of God + Ask The Ages","genre":null,"price":"$20.00","supports":[],"ticketUrl":null,"time":" 8pm"}],"vName":"Cross Street Music Hall"},"type":"Feature"},{"geometry":{"coordinates":[144.9875917,-37.7963837],"type":"Point"},"properties":{"events":[{"categories":["Free","Music"],"eDate":"2024-07-12","eName":"De Porsal","genre":"Rock","price":"Free","supports":["Secret Act"," Carp Factory"," Billiam"],"ticketUrl":null,"time":" 8pm"}],"vName":"Gem Bar"},"type":"Feature"},{"geometry":{"coordinates":[144.973013,-37.8640582],"type":"Point"},"properties":{"events":[{"categories":["Music"],"eDate":"2024-07-12","eName":"Grace Cummings","genre":"Indie","price":"$38.25","supports":[],"ticketUrl":null,"time":" 7:30pm"}],"vName":"Hotel Esplanade (aka The Espy)"},"type":"Feature"},{"geometry":{"coordinates":[144.9596527,-37.7720304],"type":"Point"},"properties":{"events":[{"categories":["Music"],"eDate":"2024-07-12","eName":"Harrison Storm","genre":null,"price":"$37.50","supports":[],"ticketUrl":null,"time":" 8pm"}],"vName":"Howler"},"type":"Feature"},{"geometry":{"coordinates":[144.8971518,-37.8054274],"type":"Point"},"properties":{"events":[{"categories":["Music"],"eDate":"2024-07-12","eName":"Magpie","genre":null,"price":"$15.00 - 20.00","supports":["Phase Wanderer"," Scuff"," Mindstain"," A Band Called Moss"],"ticketUrl":null,"time":" 6:45pm"}],"vName":"Mamma Chen's"},"type":"Feature"},{"geometry":{"coordinates":[144.96741062735794,-37.82454855],"type":"Point"},"properties":{"events":[{"categories":["Music","Other \"Spoken Word\"","Other \"Poetry & Forums\""],"eDate":"2024-07-12","eName":"Jim O'Rourke: A Masterclass on the Serge Paperface","genre":"Electronic","price":"$37.00","supports":[],"ticketUrl":null,"time":" 7pm"}],"vName":"Melbourne Recital Centre"},"type":"Feature"},{"geometry":{"coordinates":[144.9712356,-37.812902],"type":"Point"},"properties":{"events":[{"categories":["Comedy"],"eDate":"2024-07-12","eName":"Basement Comedy Club","genre":null,"price":"$24.00","supports":[],"ticketUrl":null,"time":" 8pm"}],"vName":"Morris House"},"type":"Feature"},{"geometry":{"coordinates":[144.998414,-37.771471],"type":"Point"},"properties":{"events":[{"categories":["Music"],"eDate":"2024-07-12","eName":"Reputation: The Ultimate Taylor Swift Show","genre":"Pop","price":"$34.10","supports":[],"ticketUrl":null,"time":" 8pm"}],"vName":"Northcote Social Club"},"type":"Feature"},{"geometry":{"coordinates":[144.9977626,-37.7755001],"type":"Point"},"properties":{"events":[{"categories":["Music"],"eDate":"2024-07-12","eName":"Cosmo’s Midnight","genre":"Electronic","price":"$64.90","supports":["Amin Payne"],"ticketUrl":null,"time":" 7:30pm"}],"vName":"Northcote Theatre"},"type":"Feature"},{"geometry":{"coordinates":[144.97711,-37.79833],"type":"Point"},"properties":{"events":[{"categories":["Music"],"eDate":"2024-07-12","eName":"Human Noise","genre":"Rock","price":"$15.00","supports":["Dog World"," Mr Industry"],"ticketUrl":null,"time":" 8pm"}],"vName":"Old Bar"},"type":"Feature"},{"geometry":{"coordinates":[144.9605705,-37.8132486],"type":"Point"},"properties":{"events":[{"categories":["Music"],"eDate":"2024-07-12","eName":"Jackie Bornstein's Great Women of Jazz","genre":"Jazz","price":"$45.00","supports":[],"ticketUrl":null,"time":" 6pm"},{"categories":["Music"],"eDate":"2024-07-12","eName":"Steph McCorkelle Band","genre":"Jazz","price":"$45.00","supports":[],"ticketUrl":null,"time":" 6:30pm"},{"categories":["Music"],"eDate":"2024-07-12","eName":"Throw Your Arms Around Me: An Australian Songbook - Raleigh Williams","genre":"Jazz","price":"$45.00","supports":[],"ticketUrl":null,"time":" 9pm"},{"categories":["Music"],"eDate":"2024-07-12","eName":"The Shuffle Club","genre":"Jazz","price":"$45.00","supports":[],"ticketUrl":null,"time":" 9:30pm"}],"vName":"Paris Cat Jazz Club"},"type":"Feature"},{"geometry":{"coordinates":[144.9615882,-37.7711432],"type":"Point"},"properties":{"events":[{"categories":["Music"],"eDate":"2024-07-12","eName":"Spürts","genre":"Rock","price":"$12.25","supports":["Dog Door"," Think About You"],"ticketUrl":null,"time":" 7:30pm"}],"vName":"Retreat Hotel"},"type":"Feature"},{"geometry":{"coordinates":[145.001392343033,-37.75592655],"type":"Point"},"properties":{"events":[{"categories":["Music"],"eDate":"2024-07-12","eName":"Mood Spill","genre":"Rock","price":"$18.35","supports":["Foggy Notion"," Ailsa Mitchell"],"ticketUrl":null,"time":" 8pm"}],"vName":"Shotkickers"},"type":"Feature"},{"geometry":{"coordinates":[144.9657057,-37.8061581],"type":"Point"},"properties":{"events":[{"categories":["Music"],"eDate":"2024-07-12","eName":"Bones & Jones","genre":"Country/Folk","price":"$27.95","supports":["Tamara & The Dreams"," Gavin!"],"ticketUrl":null,"time":" 8pm"}],"vName":"The Curtin"},"type":"Feature"},{"geometry":{"coordinates":[144.9706095,-37.7783326],"type":"Point"},"properties":{"events":[{"categories":["Music","Other \"Food & Drink\""],"eDate":"2024-07-12","eName":"The Gumbo Incident","genre":"Jazz","price":"Free","supports":[],"ticketUrl":null,"time":" 6pm"}],"vName":"The Moldy Fig"},"type":"Feature"},{"geometry":{"coordinates":[144.9708437,-37.7973184],"type":"Point"},"properties":{"events":[{"categories":["Free","Art"],"eDate":"2024-07-12","eName":"It's All Made Up, Baby!","genre":null,"price":"Free","supports":[],"ticketUrl":null,"time":"12pm"},{"categories":["Other \"Spoken Word\"","Other \"Poetry & Forums\""],"eDate":"2024-07-12","eName":"Underground Philosophy","genre":null,"price":"$35.46","supports":[],"ticketUrl":null,"time":" 6:30pm"},{"categories":["Other \"Cabaret\""],"eDate":"2024-07-12","eName":"Bauhaus Burlesque","genre":null,"price":"$30.39","supports":[],"ticketUrl":null,"time":" 8:30pm"}],"vName":"The Motley Bauhaus"},"type":"Feature"},{"geometry":{"coordinates":[144.9651425,-37.8119429],"type":"Point"},"properties":{"events":[{"categories":["Free","Music"],"eDate":"2024-07-12","eName":"Hyper Toff: Christian Belvedere","genre":"Electronic","price":"Free","supports":[],"ticketUrl":null,"time":"11pm"}],"vName":"The Toff In Town"},"type":"Feature"},{"geometry":{"coordinates":[144.9769450659087,-37.8055776],"type":"Point"},"properties":{"events":[{"categories":["Music"],"eDate":"2024-07-12","eName":"Aston's Bad Bitch World Tour (Part 1)","genre":"Pop","price":"$28.60","supports":[],"ticketUrl":null,"time":" 8pm"}],"vName":"The Workers Club"},"type":"Feature"}],"type":"FeatureCollection"}