{"features":[{"geometry":{"coordinates":[144.9763781,-37.7983136],"type":"Point"},"properties":{"events":[{"categories":["Music"],"eDate":"2024-02-15","eName":"SUBSOLAR","genre":null,"price":"$5.00","supports":["Mailey"," Donny Balins"],"ticketUrl":null,"time":" 8pm"}],"vName":"Bad Decisions Bar"},"type":"Feature"},{"geometry":{"coordinates":[144.9607158,-37.776327],"type":"Point"},"properties":{"events":[{"categories":["Music"],"eDate":"2024-02-15","eName":"Mystic Tea Party","genre":"Electronic","price":"$22.95","supports":["Full Fleshed"," Minor Delusion"],"ticketUrl":null,"time":" 8pm"}],"vName":"Bergy Bandroom"},"type":"Feature"},{"geometry":{"coordinates":[144.9945274,-37.8001115],"type":"Point"},"properties":{"events":[{"categories":["Free","Music","Other \"Food & Drink\""],"eDate":"2024-02-15","eName":"Samson For President","genre":"Soul/Funk","price":"Free","supports":[],"ticketUrl":null,"time":" 7:30pm"}],"vName":"Bodriggy Brewing Company"},"type":"Feature"},{"geometry":{"coordinates":[144.96904143685853,-37.81799793179876],"type":"Point"},"properties":{"events":[{"categories":["Free","Music"],"eDate":"2024-02-15","eName":"Budjerah by Candlelight","genre":"R&B","price":"Free","supports":[],"ticketUrl":null,"time":" 8:30pm"}],"vName":"Federation Square"},"type":"Feature"},{"geometry":{"coordinates":[144.96947,-37.816565],"type":"Point"},"properties":{"events":[{"categories":["Music"],"eDate":"2024-02-15","eName":"Northlane","genre":"Metal","price":"$79.90","supports":["Erra"," Landmvrks"," Banks Arcade"],"ticketUrl":null,"time":" 6:30pm"}],"vName":"Forum Melbourne"},"type":"Feature"},{"geometry":{"coordinates":[144.9596527,-37.7720304],"type":"Point"},"properties":{"events":[{"categories":["Comedy"],"eDate":"2024-02-15","eName":"Sci Fight Comedy Debate: Natural Selection is Over","genre":null,"price":"$34.68","supports":[],"ticketUrl":null,"time":" 7pm"}],"vName":"Howler"},"type":"Feature"},{"geometry":{"coordinates":[144.95436919999997,-37.8016691],"type":"Point"},"properties":{"events":[{"categories":["Theatre"],"eDate":"2024-02-15","eName":"The Duchess of Malfi","genre":null,"price":"$45.00","supports":[],"ticketUrl":null,"time":" 7:30pm"}],"vName":"Melbourne Meat Market"},"type":"Feature"},{"geometry":{"coordinates":[144.90239079583333,-37.79990865],"type":"Point"},"properties":{"events":[{"categories":["Trivia"],"eDate":"2024-02-15","eName":"Let's Get Trivial","genre":null,"price":"$10.00","supports":[],"ticketUrl":null,"time":" 7:30pm"}],"vName":"Pride Of Our Footscray Community Bar"},"type":"Feature"},{"geometry":{"coordinates":[145.0142411,-37.7310367],"type":"Point"},"properties":{"events":[{"categories":["Free","Music"],"eDate":"2024-02-15","eName":"Open Mic @ Ragtime Tavern","genre":"Acoustic","price":"Free","supports":[],"ticketUrl":null,"time":" 7pm"}],"vName":"Ragtime Tavern"},"type":"Feature"},{"geometry":{"coordinates":[144.9631913,-37.7617818],"type":"Point"},"properties":{"events":[{"categories":["Free","Music"],"eDate":"2024-02-15","eName":"Open Mic Thursdays @ Ringo Barr","genre":"Acoustic","price":"Free","supports":[],"ticketUrl":null,"time":" 7pm"}],"vName":"Ringo Barr"},"type":"Feature"},{"geometry":{"coordinates":[144.9830837,-37.7988316],"type":"Point"},"properties":{"events":[{"categories":["Music"],"eDate":"2024-02-15","eName":"Private Function","genre":"Punk","price":"$34.56","supports":[],"ticketUrl":null,"time":" 7:30pm"}],"vName":"The Night Cat"},"type":"Feature"},{"geometry":{"coordinates":[144.9769450659087,-37.8055776],"type":"Point"},"properties":{"events":[{"categories":["Music","Festival","Dance"],"eDate":"2024-02-15","eName":"TAB Family","genre":null,"price":"$15.00","supports":["Robert Baxter"," Michael Kay"," Romanie"],"ticketUrl":null,"time":" 7pm"}],"vName":"The Workers Club"},"type":"Feature"}],"type":"FeatureCollection"}