{"features":[{"geometry":{"coordinates":[144.9679835243618,-37.8201575],"type":"Point"},"properties":{"events":[{"categories":["Music","Comedy","Theatre"],"eDate":"2024-08-25","eName":"Murder for Two","genre":"Jazz","price":"$59.00 - 79.00","supports":[],"ticketUrl":null,"time":" 5pm"}],"vName":"Arts Centre Melbourne"},"type":"Feature"},{"geometry":{"coordinates":[144.978682,-37.7981225],"type":"Point"},"properties":{"events":[{"categories":["Free","Music"],"eDate":"2024-08-25","eName":"Glen Wee","genre":null,"price":"Free","supports":[],"ticketUrl":null,"time":" 9:30pm"}],"vName":"Baxter's Lot"},"type":"Feature"},{"geometry":{"coordinates":[144.9945274,-37.8001115],"type":"Point"},"properties":{"events":[{"categories":["Free","Music","Dance","Other \"Food & Drink\""],"eDate":"2024-08-25","eName":"Bodriggy Bootscoot feat: Elly McK & The Unbelievers","genre":null,"price":"Free","supports":[],"ticketUrl":null,"time":" 1:30pm"}],"vName":"Bodriggy Brewing Company"},"type":"Feature"},{"geometry":{"coordinates":[144.9679835243618,-37.8201575],"type":"Point"},"properties":{"events":[{"categories":["Music"],"eDate":"2024-08-25","eName":"Yesterday's Gone: The Fleetwood Mac Legacy","genre":"Rock","price":"$99.90 - 114.90","supports":[],"ticketUrl":null,"time":" 2pm"}],"vName":"Hamer Hall (Arts Centre Melbourne)"},"type":"Feature"},{"geometry":{"coordinates":[144.8971518,-37.8054274],"type":"Point"},"properties":{"events":[{"categories":["Free","Other \"Spoken Word\"","Other \"Poetry & Forums\""],"eDate":"2024-08-25","eName":"Neurodivergent Artist Meetups: Industry Events Designed For Us","genre":null,"price":"Free","supports":[],"ticketUrl":null,"time":" 4pm"},{"categories":["Music"],"eDate":"2024-08-25","eName":"Plonk","genre":null,"price":"$10.00","supports":[],"ticketUrl":null,"time":" 6pm"}],"vName":"Mamma Chen's"},"type":"Feature"},{"geometry":{"coordinates":[144.9786817,-37.8671902],"type":"Point"},"properties":{"events":[{"categories":["Music"],"eDate":"2024-08-25","eName":"Soul Sacrifice: The Music of Santana","genre":"Soul/Funk","price":"$35.00 - 55.00","supports":[],"ticketUrl":null,"time":" 3pm"}],"vName":"Memo Music Hall"},"type":"Feature"},{"geometry":{"coordinates":[145.3553553,-37.9078552],"type":"Point"},"properties":{"events":[{"categories":["Free","Music"],"eDate":"2024-08-25","eName":"Music with Chris & Charley","genre":null,"price":"Free","supports":[],"ticketUrl":null,"time":"12pm"}],"vName":"Micawber Tavern"},"type":"Feature"},{"geometry":{"coordinates":[144.97711,-37.79833],"type":"Point"},"properties":{"events":[{"categories":["Free","Music"],"eDate":"2024-08-25","eName":"Runners & The Young + Pete Blackburn","genre":"Rock","price":"Free","supports":[],"ticketUrl":null,"time":" 5pm"}],"vName":"Old Bar"},"type":"Feature"},{"geometry":{"coordinates":[145.0142411,-37.7310367],"type":"Point"},"properties":{"events":[{"categories":["Free","Music"],"eDate":"2024-08-25","eName":"Sunday Sunset Sessions","genre":"Jazz","price":"Free","supports":[],"ticketUrl":null,"time":" 6pm"}],"vName":"Ragtime Tavern"},"type":"Feature"},{"geometry":{"coordinates":[144.9615882,-37.7711432],"type":"Point"},"properties":{"events":[{"categories":["Free","Music"],"eDate":"2024-08-25","eName":"Low Down Big Band","genre":"Jazz","price":"Free","supports":[],"ticketUrl":null,"time":" 2:30pm"},{"categories":["Music"],"eDate":"2024-08-25","eName":"Snowgum Presents A Gig for Gaza","genre":null,"price":"$15.00 - 20.00","supports":[],"ticketUrl":null,"time":" 7pm"}],"vName":"Retreat Hotel"},"type":"Feature"},{"geometry":{"coordinates":[144.9631913,-37.7617818],"type":"Point"},"properties":{"events":[{"categories":["Free","Music"],"eDate":"2024-08-25","eName":"Boogie Rockafella + Curly & The Fringe","genre":"Rock","price":"Free","supports":[],"ticketUrl":null,"time":" 8pm"}],"vName":"Ringo Barr"},"type":"Feature"},{"geometry":{"coordinates":[144.9585654,-37.8059962],"type":"Point"},"properties":{"events":[{"categories":["Music"],"eDate":"2024-08-25","eName":"Krusty Virus","genre":null,"price":"$10.00","supports":["Magpie"," Donny Balins"],"ticketUrl":null,"time":" 3pm"}],"vName":"The Last Chance Rock & Roll Bar"},"type":"Feature"},{"geometry":{"coordinates":[144.93665199999998,-37.794959750000004],"type":"Point"},"properties":{"events":[{"categories":["Music"],"eDate":"2024-08-25","eName":"Sleeper Cell with DJ Assault","genre":"Electronic","price":"$40.00","supports":["C:1"," Heni"," Kufa"," Minimale Fatale"," Zjoso"],"ticketUrl":null,"time":" 3pm"}],"vName":"The Third Day"},"type":"Feature"},{"geometry":{"coordinates":[144.9618426,-37.8125531],"type":"Point"},"properties":{"events":[{"categories":["Free","Music"],"eDate":"2024-08-25","eName":"Daffa Duck","genre":null,"price":"Free","supports":["Paz"," Brother Julian"],"ticketUrl":null,"time":" 2pm"}],"vName":"Whitehart Bar"},"type":"Feature"}],"type":"FeatureCollection"}