{"features":[{"geometry":{"coordinates":[144.9982812,-37.7713296],"type":"Point"},"properties":{"events":[{"categories":["Music"],"eDate":"2025-08-12","eName":"Klub M.U.K","genre":"Acoustic","price":"Free","supports":[],"ticketUrl":null,"time":" 7:30pm"}],"vName":"Bar 303"},"type":"Feature"},{"geometry":{"coordinates":[144.9596527,-37.7720304],"type":"Point"},"properties":{"events":[{"categories":["Other \"Spoken Word, Poetry \"","Comedy"],"eDate":"2025-08-12","eName":"National Science Week Presents Sci Fight Comedy Debate: Psychology Is A Freud","genre":null,"price":"$25.50 - 31.62","supports":[],"ticketUrl":null,"time":" 6:30pm"}],"vName":"Howler"},"type":"Feature"},{"geometry":{"coordinates":[144.9675876,-37.8240849],"type":"Point"},"properties":{"events":[{"categories":["Music"],"eDate":"2025-08-12","eName":"Flinders Quartet","genre":"Classical","price":"$53.00","supports":[],"ticketUrl":null,"time":" 7pm"},{"categories":["Music"],"eDate":"2025-08-12","eName":"Julia Holter: The Passion of Joan of Arc","genre":null,"price":"$97.50","supports":[],"ticketUrl":null,"time":" 7:30pm"}],"vName":"Melbourne Recital Centre"},"type":"Feature"},{"geometry":{"coordinates":[144.9706211,-37.778276],"type":"Point"},"properties":{"events":[{"categories":["Other \"Trivia \"","Free"],"eDate":"2025-08-12","eName":"Trivia Tuesdays with Funky Bunch","genre":null,"price":"Free","supports":[],"ticketUrl":null,"time":" 8pm"}],"vName":"The Beast"},"type":"Feature"},{"geometry":{"coordinates":[144.9657057,-37.8061581],"type":"Point"},"properties":{"events":[{"categories":["Free","Music"],"eDate":"2025-08-12","eName":"Tangingugun","genre":null,"price":"Free","supports":["Sienna Thornton"," Messiah To Ninjin"," Linen"],"ticketUrl":null,"time":" 6:30pm"}],"vName":"The Curtin"},"type":"Feature"},{"geometry":{"coordinates":[144.9879283,-37.7505509],"type":"Point"},"properties":{"events":[{"categories":["Other \"Trivia \""],"eDate":"2025-08-12","eName":"Trivia Tuesdays @ The Merri Bar","genre":null,"price":"Free","supports":[],"ticketUrl":null,"time":" 7:30pm"}],"vName":"The Merri Bar"},"type":"Feature"},{"geometry":{"coordinates":[144.9661635,-37.8176298],"type":"Point"},"properties":{"events":[{"categories":["Free","Music"],"eDate":"2025-08-12","eName":"Brazlombia","genre":null,"price":"Free","supports":[],"ticketUrl":null,"time":" 8pm"}],"vName":"Wax Music Lounge"},"type":"Feature"}],"type":"FeatureCollection"}