{"features":[{"geometry":{"coordinates":[145.0192156,-37.7562323],"type":"Point"},"properties":{"events":[{"categories":["Music","Theatre"],"eDate":"2025-11-09","eName":"Hair The Musical (Matinee Session)","genre":"Rock","price":"$59.00 - 139.00","supports":[],"ticketUrl":null,"time":" 1pm"},{"categories":["Music","Theatre"],"eDate":"2025-11-09","eName":"Hair The Musical","genre":"Rock","price":"$59.00 - 139.00","supports":[],"ticketUrl":null,"time":" 6:30pm"}],"vName":"Athenaeum Theatre"},"type":"Feature"},{"geometry":{"coordinates":[144.978682,-37.7981225],"type":"Point"},"properties":{"events":[{"categories":["Music","Free"],"eDate":"2025-11-09","eName":"Xander Cuming","genre":null,"price":"Free","supports":[],"ticketUrl":null,"time":" 9pm"}],"vName":"Baxter's Lot"},"type":"Feature"},{"geometry":{"coordinates":[144.9945274,-37.8001115],"type":"Point"},"properties":{"events":[{"categories":["Other \"Food \"","Music","Free"],"eDate":"2025-11-09","eName":"CMEZA IN THE BREWPUB","genre":null,"price":"Free","supports":[],"ticketUrl":null,"time":" 4pm"}],"vName":"Bodriggy Brewing Company"},"type":"Feature"},{"geometry":{"coordinates":[144.9617083,-37.7704205],"type":"Point"},"properties":{"events":[{"categories":["Music"],"eDate":"2025-11-09","eName":"Little Faiths","genre":null,"price":"Free","supports":["Signal Chain"," The Delvenes"],"ticketUrl":null,"time":" 4pm"}],"vName":"Brunswick Artists' Bar"},"type":"Feature"},{"geometry":{"coordinates":[144.9706211,-37.778276],"type":"Point"},"properties":{"events":[{"categories":["Music","Free"],"eDate":"2025-11-09","eName":"Crossfade","genre":"Electronic","price":"Free","supports":[],"ticketUrl":null,"time":" 4pm"}],"vName":"The Beast"},"type":"Feature"},{"geometry":{"coordinates":[145.0141502,-37.8117556],"type":"Point"},"properties":{"events":[{"categories":["Music"],"eDate":"2025-11-09","eName":"Full Moon Reset","genre":null,"price":"$45.00","supports":[],"ticketUrl":null,"time":" 5pm"}],"vName":"The Open Space"},"type":"Feature"}],"type":"FeatureCollection"}