{"features":[{"geometry":{"coordinates":[145.0192156,-37.7562323],"type":"Point"},"properties":{"events":[{"categories":["Music","Theatre"],"eDate":"2025-10-25","eName":"Hair The Musical","genre":"Rock","price":"$59.00 - 139.00","supports":[],"ticketUrl":null,"time":" 7:30pm"}],"vName":"Athenaeum Theatre"},"type":"Feature"},{"geometry":{"coordinates":[144.9982812,-37.7713296],"type":"Point"},"properties":{"events":[{"categories":["Free","Music"],"eDate":"2025-10-25","eName":"Homebass","genre":"Electronic","price":"Free","supports":[],"ticketUrl":null,"time":" 8:30pm"}],"vName":"Bar 303"},"type":"Feature"},{"geometry":{"coordinates":[144.978682,-37.7981225],"type":"Point"},"properties":{"events":[{"categories":["Free","Music"],"eDate":"2025-10-25","eName":"Harrisen Hughes","genre":null,"price":"Free","supports":[],"ticketUrl":null,"time":" 9pm"}],"vName":"Baxter's Lot"},"type":"Feature"},{"geometry":{"coordinates":[144.9891167,-37.7996488],"type":"Point"},"properties":{"events":[{"categories":["Music"],"eDate":"2025-10-25","eName":"Dark Ritual Part 2","genre":"Metal","price":"$19.00","supports":[],"ticketUrl":null,"time":" 7:30pm"},{"categories":["Music"],"eDate":"2025-10-25","eName":"Threefold Death At The Bendi","genre":"Metal","price":"$28.05","supports":["Tumour"],"ticketUrl":null,"time":" 8:45pm"}],"vName":"Bendigo Hotel"},"type":"Feature"},{"geometry":{"coordinates":[144.9607158,-37.776327],"type":"Point"},"properties":{"events":[{"categories":["Music"],"eDate":"2025-10-25","eName":"Isabelle Davis","genre":"Indie","price":"$28.05","supports":["Olivia Mae"," Meisie"],"ticketUrl":null,"time":" 2pm"},{"categories":["Music"],"eDate":"2025-10-25","eName":"Mac the Knife","genre":null,"price":"$28.05","supports":["OH! Daisy"," The Mundaynes"],"ticketUrl":null,"time":" 8pm"}],"vName":"Bergy Bandroom"},"type":"Feature"},{"geometry":{"coordinates":[144.9568039,-37.8111442],"type":"Point"},"properties":{"events":[{"categories":["Music"],"eDate":"2025-10-25","eName":"Tom Waits For No Man","genre":null,"price":"$50.00","supports":[],"ticketUrl":null,"time":" 6pm"}],"vName":"Bird's Basement"},"type":"Feature"},{"geometry":{"coordinates":[144.9617083,-37.7704205],"type":"Point"},"properties":{"events":[{"categories":["Music"],"eDate":"2025-10-25","eName":"The Sharp","genre":"Rock","price":"$43.96","supports":["Greg Arnold"],"ticketUrl":null,"time":" 2pm"},{"categories":["Music"],"eDate":"2025-10-25","eName":"Bear’s Den","genre":"Rock","price":"Free","supports":["Chitra"],"ticketUrl":null,"time":" 8:30pm"}],"vName":"Brunswick Ballroom"},"type":"Feature"},{"geometry":{"coordinates":[145.0002585,-37.7592368],"type":"Point"},"properties":{"events":[{"categories":["Music"],"eDate":"2025-10-25","eName":"Ze Wisenheimer","genre":null,"price":"$13.00","supports":["Leonardo’s Robot"," Fourth"],"ticketUrl":null,"time":" 8pm"}],"vName":"Cafe Gummo"},"type":"Feature"},{"geometry":{"coordinates":[144.9713425,-37.8128595],"type":"Point"},"properties":{"events":[{"categories":["Music"],"eDate":"2025-10-25","eName":"RinRin","genre":"Punk","price":"$24.00","supports":["Peni Parker"," Excuse For An Exit"],"ticketUrl":null,"time":" 7:30pm"}],"vName":"Cherry Bar"},"type":"Feature"},{"geometry":{"coordinates":[145.0006883,-37.8838373],"type":"Point"},"properties":{"events":[{"categories":["Music"],"eDate":"2025-10-25","eName":"The Tamara Kuldin Quartet","genre":"Jazz","price":"$27.00 - 32.00","supports":[],"ticketUrl":null,"time":" 8pm"}],"vName":"Classic Southside"},"type":"Feature"},{"geometry":{"coordinates":[144.9926664,-37.8248893],"type":"Point"},"properties":{"events":[{"categories":["Music"],"eDate":"2025-10-25","eName":"Seth Sentry","genre":"Hip Hop","price":"$70.00","supports":[],"ticketUrl":null,"time":" 8pm"}],"vName":"Corner Hotel"},"type":"Feature"},{"geometry":{"coordinates":[144.9627513,-37.760963],"type":"Point"},"properties":{"events":[{"categories":["Music"],"eDate":"2025-10-25","eName":"Blue Mode","genre":"Jazz","price":"Free","supports":[],"ticketUrl":null,"time":" 8pm"}],"vName":"Edinburgh Castle Hotel"},"type":"Feature"},{"geometry":{"coordinates":[144.9787378,-37.7954205],"type":"Point"},"properties":{"events":[{"categories":["Music"],"eDate":"2025-10-25","eName":"RESONATE Day Party","genre":"Electronic","price":"Free","supports":["more"],"ticketUrl":null,"time":" 3pm"}],"vName":"Glamorama"},"type":"Feature"},{"geometry":{"coordinates":[144.9679835,-37.8201575],"type":"Point"},"properties":{"events":[{"categories":["Music"],"eDate":"2025-10-25","eName":"Impressions of Paris","genre":"Classical","price":"$75.00","supports":["Melbourne Symphony Orchestra"],"ticketUrl":null,"time":" 2pm"}],"vName":"Hamer Hall (Arts Centre Melbourne)"},"type":"Feature"},{"geometry":{"coordinates":[144.973013,-37.8640582],"type":"Point"},"properties":{"events":[{"categories":["Music"],"eDate":"2025-10-25","eName":"HZED","genre":"Rock","price":"$22.95","supports":["The Hidden Charms"," 74 Kings"],"ticketUrl":null,"time":" 6:30pm"}],"vName":"Hotel Esplanade (aka The Espy)"},"type":"Feature"},{"geometry":{"coordinates":[144.9596527,-37.7720304],"type":"Point"},"properties":{"events":[{"categories":["Music"],"eDate":"2025-10-25","eName":"Mark Farina: Day Party","genre":"Electronic","price":"$23.46 - 44.37","supports":[],"ticketUrl":null,"time":"12pm"}],"vName":"Howler"},"type":"Feature"},{"geometry":{"coordinates":[145.0358258,-37.9334203],"type":"Point"},"properties":{"events":[{"categories":["Music"],"eDate":"2025-10-25","eName":"Festival of Ragas: Gurukul Music in Minds","genre":"Global","price":"$12.00 - 47.00","supports":[],"ticketUrl":null,"time":" 7pm"}],"vName":"Kingston City Hall"},"type":"Feature"},{"geometry":{"coordinates":[145.0008148,-37.8107158],"type":"Point"},"properties":{"events":[{"categories":["Music"],"eDate":"2025-10-25","eName":"Tilly Fenton","genre":"Indie","price":"$30.85","supports":[],"ticketUrl":null,"time":"12:30pm"},{"categories":["Music"],"eDate":"2025-10-25","eName":"Persecution + Nothing Sacred","genre":"Metal","price":"$28.85","supports":["Firing Squad"],"ticketUrl":null,"time":" 8pm"}],"vName":"Leadbeater Hotel"},"type":"Feature"},{"geometry":{"coordinates":[145.0355738,-37.8205529],"type":"Point"},"properties":{"events":[{"categories":["Music"],"eDate":"2025-10-25","eName":"The Emma Gilmartin Quartet","genre":"Jazz","price":"$27.00 - 32.00","supports":[],"ticketUrl":null,"time":" 8pm"}],"vName":"Lido Jazz Room"},"type":"Feature"},{"geometry":{"coordinates":[144.9658499,-37.8147453],"type":"Point"},"properties":{"events":[{"categories":["Music"],"eDate":"2025-10-25","eName":"Melanie Charles + WhoAllGonBeThere","genre":"Jazz","price":"$75.00","supports":[],"ticketUrl":null,"time":" 8pm"}],"vName":"Max Watt's (Melbourne)"},"type":"Feature"},{"geometry":{"coordinates":[144.9675876,-37.8240849],"type":"Point"},"properties":{"events":[{"categories":["Music"],"eDate":"2025-10-25","eName":"Tarab Ensemble: Melodies of the Vast Minority (Early Session)","genre":"Classical","price":"$73.00","supports":[],"ticketUrl":null,"time":" 5pm"},{"categories":["Music"],"eDate":"2025-10-25","eName":"Linda May Han Oh","genre":"Jazz","price":"$54.00 - 64.00","supports":[],"ticketUrl":null,"time":" 7:30pm"},{"categories":["Music"],"eDate":"2025-10-25","eName":"Tarab Ensemble: Melodies of the Vast Minority","genre":"Classical","price":"$73.00","supports":[],"ticketUrl":null,"time":" 8pm"}],"vName":"Melbourne Recital Centre"},"type":"Feature"},{"geometry":{"coordinates":[144.9790251,-37.8675008],"type":"Point"},"properties":{"events":[{"categories":["Music"],"eDate":"2025-10-25","eName":"Snarskicircuslindyband & Friends","genre":"Indie","price":"$40.00 - 60.00","supports":[],"ticketUrl":null,"time":" 7pm"}],"vName":"Memo Music Hall"},"type":"Feature"},{"geometry":{"coordinates":[144.998414,-37.771471],"type":"Point"},"properties":{"events":[{"categories":["Music"],"eDate":"2025-10-25","eName":"Zindzi & The Zillionaires","genre":"R&B","price":"$29.10 - 40.40","supports":[],"ticketUrl":null,"time":" 1:15pm"},{"categories":["Music"],"eDate":"2025-10-25","eName":"Amaya Laucirica","genre":"Indie","price":"$24.00 - 29.10","supports":["Punko"," Phia Exiner"],"ticketUrl":null,"time":" 7:30pm"},{"categories":["Music"],"eDate":"2025-10-25","eName":"Amaya Laucirica","genre":"Pop","price":"$24.00 - 29.10","supports":["Punko"," Phia Exiner"],"ticketUrl":null,"time":" 7:30pm"}],"vName":"Northcote Social Club"},"type":"Feature"},{"geometry":{"coordinates":[144.9982706,-37.7737068],"type":"Point"},"properties":{"events":[{"categories":["Music"],"eDate":"2025-10-25","eName":"The Temper Trap","genre":"Indie","price":"$79.90","supports":[],"ticketUrl":null,"time":" 7:30pm"}],"vName":"Northcote Theatre"},"type":"Feature"},{"geometry":{"coordinates":[144.97711,-37.79833],"type":"Point"},"properties":{"events":[{"categories":["Music"],"eDate":"2025-10-25","eName":"Keyo Rose’s Flying Circus","genre":"Rock","price":"Free","supports":["My Dog Satellite"," Pussy Horse"," Arrows of Desire"],"ticketUrl":null,"time":" 8pm"}],"vName":"Old Bar"},"type":"Feature"},{"geometry":{"coordinates":[144.96084,-37.813514],"type":"Point"},"properties":{"events":[{"categories":["Music"],"eDate":"2025-10-25","eName":"The Little Bourke Big Band Presents: Cult Movie Classics","genre":"Jazz","price":"$45.00","supports":[],"ticketUrl":null,"time":" 6pm"},{"categories":["Music"],"eDate":"2025-10-25","eName":"Nardia Presents: The Women Of Jazz And Soul with Iseula","genre":"Jazz","price":"$45.00","supports":[],"ticketUrl":null,"time":" 6:30pm"},{"categories":["Music"],"eDate":"2025-10-25","eName":"The Radiohead Project with Amelia Evans","genre":"Jazz","price":"$45.00","supports":[],"ticketUrl":null,"time":" 9pm"},{"categories":["Music"],"eDate":"2025-10-25","eName":"Solomon Sisay & His Band","genre":"Jazz","price":"$45.00","supports":[],"ticketUrl":null,"time":" 9:30pm"}],"vName":"Paris Cat Jazz Club"},"type":"Feature"},{"geometry":{"coordinates":[144.9862196,-37.9091087],"type":"Point"},"properties":{"events":[{"categories":["Music","Comedy"],"eDate":"2025-10-25","eName":"Going Blonde","genre":null,"price":"$55.00","supports":[],"ticketUrl":null,"time":" 8pm"}],"vName":"Royal Brighton Yacht Club"},"type":"Feature"},{"geometry":{"coordinates":[145.0013923,-37.7559265],"type":"Point"},"properties":{"events":[{"categories":["Music"],"eDate":"2025-10-25","eName":"Fest For Lé Fuck Of It","genre":"Rock","price":"$23.45 - 28.80","supports":[],"ticketUrl":null,"time":" 4pm"}],"vName":"Shotkickers"},"type":"Feature"},{"geometry":{"coordinates":[144.9607404,-37.7743469],"type":"Point"},"properties":{"events":[{"categories":["Free","Music"],"eDate":"2025-10-25","eName":"Shannen James","genre":"Indie","price":"Free","supports":[],"ticketUrl":null,"time":" 2pm"}],"vName":"Stay Gold"},"type":"Feature"},{"geometry":{"coordinates":[144.32141,-37.38866],"type":"Point"},"properties":{"events":[{"categories":["Free","Music"],"eDate":"2025-10-25","eName":"Blu Windows","genre":"Acoustic","price":"Free","supports":[],"ticketUrl":null,"time":" 3pm"}],"vName":"The Cosmopolitan Hotel"},"type":"Feature"},{"geometry":{"coordinates":[144.9995955,-37.762377],"type":"Point"},"properties":{"events":[{"categories":["Music"],"eDate":"2025-10-25","eName":"Forward Ever #22","genre":"Electronic","price":"$20.00 - 30.00","supports":[],"ticketUrl":null,"time":" 6pm"}],"vName":"The Croxton"},"type":"Feature"},{"geometry":{"coordinates":[144.9657057,-37.8061581],"type":"Point"},"properties":{"events":[{"categories":["Free","Music"],"eDate":"2025-10-25","eName":"Big Wheels: A Party For Everyone","genre":"Electronic","price":"Free","supports":[],"ticketUrl":null,"time":" 8pm"}],"vName":"The Curtin"},"type":"Feature"},{"geometry":{"coordinates":[144.9770425,-37.8588717],"type":"Point"},"properties":{"events":[{"categories":["Music"],"eDate":"2025-10-25","eName":"Look Sharp Trio + DJ Shadow","genre":"Pop","price":"Free","supports":[],"ticketUrl":null,"time":" 9pm"}],"vName":"The Fifth Province"},"type":"Feature"},{"geometry":{"coordinates":[144.9463641,-37.8047757],"type":"Point"},"properties":{"events":[{"categories":["Music"],"eDate":"2025-10-25","eName":"Rapid Fest","genre":"Rock","price":"$28.60","supports":[],"ticketUrl":null,"time":" 7pm"}],"vName":"The Last Chance Rock & Roll Bar"},"type":"Feature"},{"geometry":{"coordinates":[144.996838,-37.7794356],"type":"Point"},"properties":{"events":[{"categories":["Music"],"eDate":"2025-10-25","eName":"Kim Salmon","genre":"Acoustic","price":"$30.00","supports":[],"ticketUrl":null,"time":" 8:30pm"}],"vName":"The Merri Creek Tavern"},"type":"Feature"},{"geometry":{"coordinates":[144.9708437,-37.7973184],"type":"Point"},"properties":{"events":[{"categories":["Music"],"eDate":"2025-10-25","eName":"Motley Jazz Jam","genre":"Jazz","price":"Free","supports":[],"ticketUrl":null,"time":" 7:30pm"},{"categories":["Comedy"],"eDate":"2025-10-25","eName":"The Big HOO HAA!","genre":null,"price":"$30.39","supports":[],"ticketUrl":null,"time":" 8:30pm"}],"vName":"The Motley Bauhaus"},"type":"Feature"},{"geometry":{"coordinates":[145.0141502,-37.8117556],"type":"Point"},"properties":{"events":[{"categories":["Music"],"eDate":"2025-10-25","eName":"ZÖJ: Give Water to Birds","genre":"Global","price":"$45.00","supports":[],"ticketUrl":null,"time":" 6:30pm"}],"vName":"The Open Space"},"type":"Feature"},{"geometry":{"coordinates":[145.1818891,-37.8163371],"type":"Point"},"properties":{"events":[{"categories":["Music"],"eDate":"2025-10-25","eName":"Melbourne Veena Festival 2025: The Boite & Pichumani School of Carnatic Music","genre":"Global","price":"$35.00","supports":[],"ticketUrl":null,"time":" 4pm"},{"categories":["Music"],"eDate":"2025-10-25","eName":"Spring of Melbourne Concert","genre":"Global","price":"Free","supports":[],"ticketUrl":null,"time":" 6:30pm"}],"vName":"The Round"},"type":"Feature"},{"geometry":{"coordinates":[144.9998797,-37.7616512],"type":"Point"},"properties":{"events":[{"categories":["Music"],"eDate":"2025-10-25","eName":"Hamish Thompson Trio","genre":"Rock","price":"Free","supports":[],"ticketUrl":null,"time":" 8pm"}],"vName":"The Thornbury Local"},"type":"Feature"},{"geometry":{"coordinates":[144.9769451,-37.8055776],"type":"Point"},"properties":{"events":[{"categories":["Music"],"eDate":"2025-10-25","eName":"Tin Lizzy","genre":"Rock","price":"$20.00","supports":["Banjig"," The Thongs"],"ticketUrl":null,"time":" 1pm"}],"vName":"The Workers Club"},"type":"Feature"},{"geometry":{"coordinates":[144.9984324,-37.7729134],"type":"Point"},"properties":{"events":[{"categories":["Music"],"eDate":"2025-10-25","eName":"Alice Bisschops Trio","genre":"Jazz","price":"Free","supports":[],"ticketUrl":null,"time":" 6pm"},{"categories":["Music"],"eDate":"2025-10-25","eName":"Mark Campbell & The Ravens","genre":"Country/Folk","price":"$23.20","supports":[],"ticketUrl":null,"time":" 8pm"}],"vName":"Wesley Anne"},"type":"Feature"}],"type":"FeatureCollection"}