{"features":[{"geometry":{"coordinates":[144.9982812,-37.7713296],"type":"Point"},"properties":{"events":[{"categories":["Music"],"eDate":"2025-09-11","eName":"LUME","genre":"Jazz","price":"$15.00","supports":["Yasmin Leyre"," Ffion Stoakes"],"ticketUrl":null,"time":" 8pm"}],"vName":"Bar 303"},"type":"Feature"},{"geometry":{"coordinates":[144.978682,-37.7981225],"type":"Point"},"properties":{"events":[{"categories":["Free","Music"],"eDate":"2025-09-11","eName":"Liliana","genre":null,"price":"Free","supports":[],"ticketUrl":null,"time":" 9pm"}],"vName":"Baxter's Lot"},"type":"Feature"},{"geometry":{"coordinates":[144.9607158,-37.776327],"type":"Point"},"properties":{"events":[{"categories":["Music"],"eDate":"2025-09-11","eName":"Alisha.K","genre":"Indie","price":"$25.00","supports":["Aunty Blue"," Githmi"],"ticketUrl":null,"time":" 7pm"}],"vName":"Bergy Bandroom"},"type":"Feature"},{"geometry":{"coordinates":[144.9568039,-37.8111442],"type":"Point"},"properties":{"events":[{"categories":["Music"],"eDate":"2025-09-11","eName":"The Syncopators","genre":"Jazz","price":"$38.00","supports":[],"ticketUrl":null,"time":" 7:30pm"}],"vName":"Bird's Basement"},"type":"Feature"},{"geometry":{"coordinates":[144.9945274,-37.8001115],"type":"Point"},"properties":{"events":[{"categories":["Free","Music","Other \"Food \""],"eDate":"2025-09-11","eName":"Hasta Pronto: Sabor Y Ritmo","genre":null,"price":"Free","supports":[],"ticketUrl":null,"time":" 7pm"},{"categories":["Comedy","Other \"Food \""],"eDate":"2025-09-11","eName":"On The Gags Weekly Comedy Night","genre":null,"price":"$22.00","supports":["more"],"ticketUrl":null,"time":" 7:30pm"}],"vName":"Bodriggy Brewing Company"},"type":"Feature"},{"geometry":{"coordinates":[144.9617083,-37.7704205],"type":"Point"},"properties":{"events":[{"categories":["Music"],"eDate":"2025-09-11","eName":"Katy Kirby","genre":"Acoustic","price":"$43.96","supports":[],"ticketUrl":null,"time":" 8pm"}],"vName":"Brunswick Ballroom"},"type":"Feature"},{"geometry":{"coordinates":[144.9713425,-37.8128595],"type":"Point"},"properties":{"events":[{"categories":["Free","Music"],"eDate":"2025-09-11","eName":"Loaded: Britpop & Indie Anthems","genre":null,"price":"Free","supports":[],"ticketUrl":null,"time":"10pm"}],"vName":"Cherry Bar"},"type":"Feature"},{"geometry":{"coordinates":[144.9627513,-37.760963],"type":"Point"},"properties":{"events":[{"categories":["Music"],"eDate":"2025-09-11","eName":"John Henderson","genre":"Jazz","price":"Free","supports":[],"ticketUrl":null,"time":" 7pm"}],"vName":"Edinburgh Castle Hotel"},"type":"Feature"},{"geometry":{"coordinates":[144.9777885,-37.8597831],"type":"Point"},"properties":{"events":[{"categories":["Music"],"eDate":"2025-09-11","eName":"Jamie MacDowell","genre":"Acoustic","price":"Free","supports":[],"ticketUrl":null,"time":" 7pm"}],"vName":"Freddie Wimpoles"},"type":"Feature"},{"geometry":{"coordinates":[144.973013,-37.8640582],"type":"Point"},"properties":{"events":[{"categories":["Free","Music"],"eDate":"2025-09-11","eName":"Willie J’s 6V6s","genre":"Rock","price":"Free","supports":[],"ticketUrl":null,"time":" 7:30pm"}],"vName":"Hotel Esplanade (aka The Espy)"},"type":"Feature"},{"geometry":{"coordinates":[144.998414,-37.771471],"type":"Point"},"properties":{"events":[{"categories":["Music"],"eDate":"2025-09-11","eName":"Guy Blackman","genre":"Indie","price":"$24.00","supports":["Who Cares?"," Matt Harkin"],"ticketUrl":null,"time":" 8pm"}],"vName":"Northcote Social Club"},"type":"Feature"},{"geometry":{"coordinates":[144.97711,-37.79833],"type":"Point"},"properties":{"events":[{"categories":["Music"],"eDate":"2025-09-11","eName":"Sons Of Citrus + Arborists","genre":"Punk","price":"Free","supports":[],"ticketUrl":null,"time":" 7:30pm"},{"categories":["Music"],"eDate":"2025-09-11","eName":"DJ Moloko","genre":"Rock","price":"Free","supports":[],"ticketUrl":null,"time":"10:30pm"}],"vName":"Old Bar"},"type":"Feature"},{"geometry":{"coordinates":[144.96084,-37.813514],"type":"Point"},"properties":{"events":[{"categories":["Music"],"eDate":"2025-09-11","eName":"Deep South Brass 8 Band","genre":"Jazz","price":"$35.00","supports":[],"ticketUrl":null,"time":" 7:30pm"},{"categories":["Music"],"eDate":"2025-09-11","eName":"Blue Trombone: the Music of JJ Johnson with Lachlan Smith Quartet","genre":"Jazz","price":"$40.00","supports":[],"ticketUrl":null,"time":" 8pm"}],"vName":"Paris Cat Jazz Club"},"type":"Feature"},{"geometry":{"coordinates":[144.965405,-37.8117457],"type":"Point"},"properties":{"events":[{"categories":["Free","Music"],"eDate":"2025-09-11","eName":"Saganaki Posse","genre":null,"price":"Free","supports":[],"ticketUrl":null,"time":" 6pm"}],"vName":"Section 8"},"type":"Feature"},{"geometry":{"coordinates":[144.9607404,-37.7743469],"type":"Point"},"properties":{"events":[{"categories":["Music"],"eDate":"2025-09-11","eName":"Brant Bjork Trio","genre":"Rock","price":"$68.80","supports":[],"ticketUrl":null,"time":" 7pm"}],"vName":"Stay Gold"},"type":"Feature"},{"geometry":{"coordinates":[144.9706211,-37.778276],"type":"Point"},"properties":{"events":[{"categories":["Other \"Trivia \"","Other \"Cabaret\""],"eDate":"2025-09-11","eName":"Drag Bingo","genre":null,"price":"Free","supports":[],"ticketUrl":null,"time":" 8pm"}],"vName":"The Beast"},"type":"Feature"},{"geometry":{"coordinates":[144.9770425,-37.8588717],"type":"Point"},"properties":{"events":[{"categories":["Music"],"eDate":"2025-09-11","eName":"Dan & Cyril","genre":"Acoustic","price":"Free","supports":[],"ticketUrl":null,"time":" 8pm"}],"vName":"The Fifth Province"},"type":"Feature"},{"geometry":{"coordinates":[144.9651425,-37.8119429],"type":"Point"},"properties":{"events":[{"categories":["Free","Music"],"eDate":"2025-09-11","eName":"Max König","genre":"Jazz","price":"Free","supports":[],"ticketUrl":null,"time":" 8pm"}],"vName":"The Toff In Town"},"type":"Feature"}],"type":"FeatureCollection"}