{"features":[{"geometry":{"coordinates":[144.9500257,-37.8032773],"type":"Point"},"properties":{"events":[{"categories":["Theatre"],"eDate":"2024-11-17","eName":"Cliffhanger","genre":null,"price":"$35.00","supports":[],"ticketUrl":null,"time":" 5pm"}],"vName":"Arts House"},"type":"Feature"},{"geometry":{"coordinates":[144.978682,-37.7981225],"type":"Point"},"properties":{"events":[{"categories":["Free","Music"],"eDate":"2024-11-17","eName":"HH & Sax Gawn","genre":null,"price":"Free","supports":[],"ticketUrl":null,"time":" 9pm"}],"vName":"Baxter's Lot"},"type":"Feature"},{"geometry":{"coordinates":[144.9945274,-37.8001115],"type":"Point"},"properties":{"events":[{"categories":["Free","Music","Other \"Food & Drink\""],"eDate":"2024-11-17","eName":"Gospel Sundays Vs Le Soul","genre":null,"price":"Free","supports":["DJ Jack Wolfgramm"],"ticketUrl":null,"time":" 2pm"}],"vName":"Bodriggy Brewing Company"},"type":"Feature"},{"geometry":{"coordinates":[144.96947,-37.816565],"type":"Point"},"properties":{"events":[{"categories":["Music"],"eDate":"2024-11-17","eName":"Dropkick Murphys","genre":"Punk","price":"$139.90","supports":["Alkaline Trio"],"ticketUrl":null,"time":" 7pm"}],"vName":"Forum Melbourne"},"type":"Feature"},{"geometry":{"coordinates":[144.98535244416098,-37.79426315],"type":"Point"},"properties":{"events":[{"categories":["Music"],"eDate":"2024-11-17","eName":"Kit Genesis","genre":"Indie","price":"$20.00","supports":[],"ticketUrl":null,"time":" 7pm"}],"vName":"Gasometer Hotel"},"type":"Feature"},{"geometry":{"coordinates":[144.9936498,-37.8000264],"type":"Point"},"properties":{"events":[{"categories":["Music","Other \"Food & Drink\""],"eDate":"2024-11-17","eName":"Cash Williams & Nic Malouf","genre":"Acoustic","price":"Free","supports":["Naomi Oakley"],"ticketUrl":null,"time":" 4pm"},{"categories":["Free","Music"],"eDate":"2024-11-17","eName":"Anna Ransom","genre":"Country/Folk","price":"Free","supports":[],"ticketUrl":null,"time":" 6:30pm"}],"vName":"Lulie Tavern"},"type":"Feature"},{"geometry":{"coordinates":[144.9659879,-37.8147557],"type":"Point"},"properties":{"events":[{"categories":["Music"],"eDate":"2024-11-17","eName":"Tyson Yoshi","genre":null,"price":"$96.40","supports":[],"ticketUrl":null,"time":" 7pm"}],"vName":"Max Watt's (Melbourne)"},"type":"Feature"},{"geometry":{"coordinates":[144.9615882,-37.7711432],"type":"Point"},"properties":{"events":[{"categories":["Music"],"eDate":"2024-11-17","eName":"Tim Williams & The Endless Winter","genre":null,"price":"Free","supports":["Kxx"],"ticketUrl":null,"time":" 6pm"}],"vName":"Retreat Hotel"},"type":"Feature"},{"geometry":{"coordinates":[144.9631913,-37.7617818],"type":"Point"},"properties":{"events":[{"categories":["Free","Music"],"eDate":"2024-11-17","eName":"Will Larsen","genre":"Indie","price":"Free","supports":[],"ticketUrl":null,"time":" 8pm"}],"vName":"Ringo Barr"},"type":"Feature"},{"geometry":{"coordinates":[145.001392343033,-37.75592655],"type":"Point"},"properties":{"events":[{"categories":["Music"],"eDate":"2024-11-17","eName":"SLAUX","genre":"Rock","price":"$18.35","supports":["Dante Z.C"," Complainer"],"ticketUrl":null,"time":" 3pm"}],"vName":"Shotkickers"},"type":"Feature"},{"geometry":{"coordinates":[144.9607404,-37.7743469],"type":"Point"},"properties":{"events":[{"categories":["Comedy"],"eDate":"2024-11-17","eName":"Shayne Smith","genre":null,"price":"$45.00","supports":[],"ticketUrl":null,"time":" 7pm"}],"vName":"Stay Gold"},"type":"Feature"},{"geometry":{"coordinates":[144.9585654,-37.8059962],"type":"Point"},"properties":{"events":[{"categories":["Free","Music"],"eDate":"2024-11-17","eName":"Fat Dog & The Tits","genre":"Rock","price":"Free","supports":["Black Dog Cat Band"],"ticketUrl":null,"time":" 3pm"},{"categories":["Music"],"eDate":"2024-11-17","eName":"Thug","genre":"Rock","price":"$5.00","supports":["The Rartel"," The Chans"],"ticketUrl":null,"time":" 7pm"}],"vName":"The Last Chance Rock & Roll Bar"},"type":"Feature"},{"geometry":{"coordinates":[144.9769450659087,-37.8055776],"type":"Point"},"properties":{"events":[{"categories":["Music"],"eDate":"2024-11-17","eName":"Marro Younan","genre":"Indie","price":"$12.75","supports":["Sole Butter"," Krystyna"],"ticketUrl":null,"time":" 7pm"}],"vName":"The Workers Club"},"type":"Feature"}],"type":"FeatureCollection"}