{"features":[{"geometry":{"coordinates":[144.978682,-37.7981225],"type":"Point"},"properties":{"events":[{"categories":["Free","Music"],"eDate":"2024-09-28","eName":"Woody Samson","genre":null,"price":"Free","supports":[],"ticketUrl":null,"time":" 9:30pm"},{"categories":["Music"],"eDate":"2024-09-28","eName":"DJs Lewy C + Nomar Jr B2B","genre":null,"price":"Free","supports":[],"ticketUrl":null,"time":"10pm"}],"vName":"Baxter's Lot"},"type":"Feature"},{"geometry":{"coordinates":[144.9607158,-37.776327],"type":"Point"},"properties":{"events":[{"categories":["Music"],"eDate":"2024-09-28","eName":"Scene Queenz 2","genre":null,"price":"$16.85","supports":[],"ticketUrl":null,"time":" 7pm"}],"vName":"Bergy Bandroom"},"type":"Feature"},{"geometry":{"coordinates":[144.9567859,-37.8111049],"type":"Point"},"properties":{"events":[{"categories":["Music"],"eDate":"2024-09-28","eName":"B# Big Band with Eugene Hamilton & Yvette Johansson","genre":"Jazz","price":"$50.00","supports":[],"ticketUrl":null,"time":" 7:30pm"}],"vName":"Bird's Basement"},"type":"Feature"},{"geometry":{"coordinates":[144.9617018,-37.7704566],"type":"Point"},"properties":{"events":[{"categories":["Music"],"eDate":"2024-09-28","eName":"Brave New World: Big Night Out","genre":"Soul/Funk","price":"$30.70 - 38.86","supports":["Hooper Crescent"," The Fillmores"," Back Pocket"],"ticketUrl":null,"time":" 8pm"}],"vName":"Brunswick Ballroom"},"type":"Feature"},{"geometry":{"coordinates":[144.9875917,-37.7963837],"type":"Point"},"properties":{"events":[{"categories":["Free","Music"],"eDate":"2024-09-28","eName":"Ricky Albeck & the Belair Line Band + St. Morris Sinners","genre":"Rock","price":"Free","supports":[],"ticketUrl":null,"time":" 8pm"}],"vName":"Gem Bar"},"type":"Feature"},{"geometry":{"coordinates":[144.9787445,-37.7967357],"type":"Point"},"properties":{"events":[{"categories":["Music"],"eDate":"2024-09-28","eName":"Optimal x Glamorama: Grand Final Day","genre":"Electronic","price":"$10.00 - 25.00","supports":[],"ticketUrl":null,"time":" 5pm"}],"vName":"Glamorama"},"type":"Feature"},{"geometry":{"coordinates":[145.0008148,-37.8107158],"type":"Point"},"properties":{"events":[{"categories":["Music"],"eDate":"2024-09-28","eName":"Rice on Fire presents Pyjama No Drama","genre":"Pop","price":"$31.90","supports":[],"ticketUrl":null,"time":" 8pm"}],"vName":"Leadbeater Hotel"},"type":"Feature"},{"geometry":{"coordinates":[144.8971518,-37.8054274],"type":"Point"},"properties":{"events":[{"categories":["Music"],"eDate":"2024-09-28","eName":"Morality Trope","genre":"Punk","price":"$10.00 - 15.00","supports":["Ze Wisenheimer"," Cat Crawl"],"ticketUrl":null,"time":" 7:45pm"}],"vName":"Mamma Chen's"},"type":"Feature"},{"geometry":{"coordinates":[144.9712356,-37.812902],"type":"Point"},"properties":{"events":[{"categories":["Other \"Food & Drink\""],"eDate":"2024-09-28","eName":"AFL Grand Final Soiree","genre":null,"price":"$99.00","supports":[],"ticketUrl":null,"time":" 1pm"},{"categories":["Comedy"],"eDate":"2024-09-28","eName":"Basement Comedy Club","genre":null,"price":"$25.00","supports":[],"ticketUrl":null,"time":" 8pm"}],"vName":"Morris House"},"type":"Feature"},{"geometry":{"coordinates":[144.9605705,-37.8132486],"type":"Point"},"properties":{"events":[{"categories":["Music"],"eDate":"2024-09-28","eName":"Not So Big Band: An Evening In La La Land with Amelia Evans","genre":"Jazz","price":"$48.00","supports":[],"ticketUrl":null,"time":" 6pm"},{"categories":["Music"],"eDate":"2024-09-28","eName":"A Celebration of BB King & Etta James: Nardia & Jimi Hocking","genre":"Jazz","price":"$45.00","supports":[],"ticketUrl":null,"time":" 6:30pm"},{"categories":["Music"],"eDate":"2024-09-28","eName":"Joys Njambi Presents: Queens of Soul","genre":"Soul/Funk","price":"$45.00","supports":[],"ticketUrl":null,"time":" 9pm"},{"categories":["Music"],"eDate":"2024-09-28","eName":"Chris Johnstone Sextet: Play Grant Green & Joe Henderson","genre":"Jazz","price":"$45.00","supports":[],"ticketUrl":null,"time":" 9:30pm"}],"vName":"Paris Cat Jazz Club"},"type":"Feature"},{"geometry":{"coordinates":[144.9615882,-37.7711432],"type":"Point"},"properties":{"events":[{"categories":["Free","Music"],"eDate":"2024-09-28","eName":"Retreat Rock'n'Roll Grand Final Extravaganza","genre":"Rock","price":"Free","supports":["more"],"ticketUrl":null,"time":" 5pm"}],"vName":"Retreat Hotel"},"type":"Feature"},{"geometry":{"coordinates":[145.001392343033,-37.75592655],"type":"Point"},"properties":{"events":[{"categories":["Music"],"eDate":"2024-09-28","eName":"The Ians","genre":"Rock","price":"$15.00","supports":["Palpitations"," The Kick Heavy"],"ticketUrl":null,"time":" 6:30pm"}],"vName":"Shotkickers"},"type":"Feature"},{"geometry":{"coordinates":[144.9607404,-37.7743469],"type":"Point"},"properties":{"events":[{"categories":["Music"],"eDate":"2024-09-28","eName":"Vulvodynia","genre":"Metal","price":"$59.90","supports":["Mélancolia"," Pincer+"],"ticketUrl":null,"time":" 7pm"},{"categories":["Music"],"eDate":"2024-09-28","eName":"Post Malone Album Release Party","genre":"Country/Folk","price":"$14.30 - 22.00","supports":[],"ticketUrl":null,"time":"11pm"}],"vName":"Stay Gold"},"type":"Feature"},{"geometry":{"coordinates":[144.9708437,-37.7973184],"type":"Point"},"properties":{"events":[{"categories":["Free","Music"],"eDate":"2024-09-28","eName":"Jazz Arvos","genre":"Jazz","price":"Free","supports":[],"ticketUrl":null,"time":" 5pm"},{"categories":["Comedy"],"eDate":"2024-09-28","eName":"The Big HOO HAA!","genre":null,"price":"$30.39","supports":[],"ticketUrl":null,"time":" 8:30pm"},{"categories":["Music"],"eDate":"2024-09-28","eName":"Brass & Beats September: Orchestral Hip-Hop","genre":null,"price":"$20.00","supports":["Khojemini"],"ticketUrl":null,"time":" 9pm"}],"vName":"The Motley Bauhaus"},"type":"Feature"},{"geometry":{"coordinates":[144.9830837,-37.7988316],"type":"Point"},"properties":{"events":[{"categories":["Music"],"eDate":"2024-09-28","eName":"Marlin's Dreaming","genre":"Indie","price":"$34.90","supports":[],"ticketUrl":null,"time":" 7:30pm"}],"vName":"The Night Cat"},"type":"Feature"},{"geometry":{"coordinates":[144.9651425,-37.8119429],"type":"Point"},"properties":{"events":[{"categories":["Music"],"eDate":"2024-09-28","eName":"Adam Noviello 'RECIPE' Launch Party","genre":"Indie","price":"$20.00","supports":["Mo•Louie"," Robert Baxter"," Lyndon Watts"],"ticketUrl":null,"time":" 7:30pm"},{"categories":["Music"],"eDate":"2024-09-28","eName":"Adam Noviello","genre":"Pop","price":"$23.46","supports":["Robert Baxter"," Mo•Louie"," LYNDON"],"ticketUrl":null,"time":" 7:30pm"},{"categories":["Music"],"eDate":"2024-09-28","eName":"Discotheque","genre":"Soul/Funk","price":"Free","supports":[],"ticketUrl":null,"time":"11pm"}],"vName":"The Toff In Town"},"type":"Feature"},{"geometry":{"coordinates":[144.9846126,-37.7989941],"type":"Point"},"properties":{"events":[{"categories":["Music"],"eDate":"2024-09-28","eName":"Gravitate + Stressed","genre":"Metal","price":"$11.25","supports":["Bright Sun"," Rat Bait"],"ticketUrl":null,"time":" 7pm"}],"vName":"The Tote Hotel"},"type":"Feature"},{"geometry":{"coordinates":[144.9769450659087,-37.8055776],"type":"Point"},"properties":{"events":[{"categories":["Music"],"eDate":"2024-09-28","eName":"Scaphis (Mini Festival)","genre":"Metal","price":"$23.50","supports":["Death Of Art"," Kuntsquad"," Adularia"," ANA"," Shadow of Nyx"," Black Dime Cabaret"],"ticketUrl":null,"time":" 4pm"}],"vName":"The Workers Club"},"type":"Feature"},{"geometry":{"coordinates":[144.9618426,-37.8125531],"type":"Point"},"properties":{"events":[{"categories":["Free","Music"],"eDate":"2024-09-28","eName":"Sadiva","genre":"Electronic","price":"Free","supports":[],"ticketUrl":null,"time":"12pm"}],"vName":"Whitehart Bar"},"type":"Feature"}],"type":"FeatureCollection"}