{"features":[{"geometry":{"coordinates":[144.980757,-37.7854317],"type":"Point"},"properties":{"events":[{"categories":["Music"],"eDate":"2024-11-15","eName":"Jerome Farah","genre":null,"price":"$5.00 - 100.00","supports":[],"ticketUrl":null,"time":" 6pm"}],"vName":"75 Reid St"},"type":"Feature"},{"geometry":{"coordinates":[144.99828116650363,-37.7713296],"type":"Point"},"properties":{"events":[{"categories":["Music"],"eDate":"2024-11-15","eName":"Wendy Rule","genre":"Rock","price":"$25.00 - 30.00","supports":[],"ticketUrl":null,"time":" 7:30pm"}],"vName":"Bar 303"},"type":"Feature"},{"geometry":{"coordinates":[144.978682,-37.7981225],"type":"Point"},"properties":{"events":[{"categories":["Free","Music"],"eDate":"2024-11-15","eName":"Lewis C","genre":null,"price":"Free","supports":[],"ticketUrl":null,"time":" 9pm"},{"categories":["Music"],"eDate":"2024-11-15","eName":"DJ Avneet Basra","genre":"Electronic","price":"Free","supports":[],"ticketUrl":null,"time":"10pm"}],"vName":"Baxter's Lot"},"type":"Feature"},{"geometry":{"coordinates":[144.98911674151407,-37.79964875],"type":"Point"},"properties":{"events":[{"categories":["Music"],"eDate":"2024-11-15","eName":"Horsepower","genre":"Metal","price":"$22.95","supports":["Mindrace"," Skorn"," Seven Hells"," Implode"],"ticketUrl":null,"time":" 8pm"}],"vName":"Bendigo Hotel"},"type":"Feature"},{"geometry":{"coordinates":[144.9567859,-37.8111049],"type":"Point"},"properties":{"events":[{"categories":["Music"],"eDate":"2024-11-15","eName":"Shane Howard","genre":"Acoustic","price":"$50.00","supports":[],"ticketUrl":null,"time":" 6pm"}],"vName":"Bird's Basement"},"type":"Feature"},{"geometry":{"coordinates":[144.9617018,-37.7704566],"type":"Point"},"properties":{"events":[{"categories":["Free","Music"],"eDate":"2024-11-15","eName":"Seren Spain","genre":null,"price":"Free","supports":["Liana Perillo"],"ticketUrl":null,"time":" 7:30pm"},{"categories":["Free","Music"],"eDate":"2024-11-15","eName":"Seren Spain","genre":null,"price":"Free","supports":["Liana Perrilo"],"ticketUrl":null,"time":" 8:30pm"}],"vName":"Brunswick Artists' Bar"},"type":"Feature"},{"geometry":{"coordinates":[144.9617018,-37.7704566],"type":"Point"},"properties":{"events":[{"categories":["Music"],"eDate":"2024-11-15","eName":"Robert Forster","genre":"Rock","price":"$48.04","supports":[],"ticketUrl":null,"time":" 8:30pm"}],"vName":"Brunswick Ballroom"},"type":"Feature"},{"geometry":{"coordinates":[144.9248037207342,-37.7656716],"type":"Point"},"properties":{"events":[{"categories":["Music"],"eDate":"2024-11-15","eName":"Damien Leith: Irish Classics - Sing-Along & Reminisce","genre":"Country/Folk","price":"$45.00","supports":[],"ticketUrl":null,"time":" 7:30pm"}],"vName":"Clocktower Centre"},"type":"Feature"},{"geometry":{"coordinates":[144.99266639479475,-37.82488935],"type":"Point"},"properties":{"events":[{"categories":["Music"],"eDate":"2024-11-15","eName":"The VANNS: Acoustic & Intimate","genre":"Acoustic","price":"$49.90","supports":[],"ticketUrl":null,"time":" 8:30pm"}],"vName":"Corner Hotel"},"type":"Feature"},{"geometry":{"coordinates":[144.96904143685853,-37.81799793179876],"type":"Point"},"properties":{"events":[{"categories":["Music"],"eDate":"2024-11-15","eName":"African Music & Cultural Festival 2024","genre":"Global","price":"Free","supports":["Push Reggae Band"," P Flow"," Niasha"],"ticketUrl":null,"time":"12pm"}],"vName":"Federation Square"},"type":"Feature"},{"geometry":{"coordinates":[144.9875917,-37.7963837],"type":"Point"},"properties":{"events":[{"categories":["Free","Music"],"eDate":"2024-11-15","eName":"Arabella & The Heist + Psychobabel","genre":"Rock","price":"Free","supports":[],"ticketUrl":null,"time":" 8pm"}],"vName":"Gem Bar"},"type":"Feature"},{"geometry":{"coordinates":[144.983442,-37.804851],"type":"Point"},"properties":{"events":[{"categories":["Music"],"eDate":"2024-11-15","eName":"Prophetic Justice Ministry","genre":"Electronic","price":"$15.00 - 20.00","supports":["LST"," Destiny T.T"],"ticketUrl":null,"time":" 8pm"}],"vName":"Grace Darling Hotel"},"type":"Feature"},{"geometry":{"coordinates":[144.973013,-37.8640582],"type":"Point"},"properties":{"events":[{"categories":["Music"],"eDate":"2024-11-15","eName":"Dreams: Fleetwood Mac & Stevie Nicks Show","genre":"Rock","price":"$42.35","supports":[],"ticketUrl":null,"time":" 7:30pm"},{"categories":["Music"],"eDate":"2024-11-15","eName":"Dreams: Fleetwood Mac & Stevie Nicks Show","genre":"Rock","price":"$42.35","supports":[],"ticketUrl":null,"time":" 7:30pm"},{"categories":["Music"],"eDate":"2024-11-15","eName":"Seaweed On Sticks","genre":"Rock","price":"$22.95","supports":[],"ticketUrl":null,"time":" 7:30pm"},{"categories":["Music"],"eDate":"2024-11-15","eName":"Beyonce Renaissance Album Party","genre":"Pop","price":"$11.75 - 22.95","supports":[],"ticketUrl":null,"time":"11:30pm"},{"categories":["Music"],"eDate":"2024-11-15","eName":"Beyonce Renaissance Album Party","genre":"Pop","price":"$11.75 - 22.95","supports":[],"ticketUrl":null,"time":"11:30pm"}],"vName":"Hotel Esplanade (aka The Espy)"},"type":"Feature"},{"geometry":{"coordinates":[144.9596527,-37.7720304],"type":"Point"},"properties":{"events":[{"categories":["Music"],"eDate":"2024-11-15","eName":"A.Savage","genre":"Rock","price":"$52.53","supports":["Eggy"],"ticketUrl":null,"time":" 8pm"}],"vName":"Howler"},"type":"Feature"},{"geometry":{"coordinates":[144.9936498,-37.8000264],"type":"Point"},"properties":{"events":[{"categories":["Music","Other \"Food & Drink\""],"eDate":"2024-11-15","eName":"Catholic Guilt","genre":"Punk","price":"Free","supports":["Furrends"],"ticketUrl":null,"time":" 9pm"}],"vName":"Lulie Tavern"},"type":"Feature"},{"geometry":{"coordinates":[144.8971518,-37.8054274],"type":"Point"},"properties":{"events":[{"categories":["Free","Music"],"eDate":"2024-11-15","eName":"As A Rival","genre":null,"price":"Free","supports":["Maizie"," Stepdad Advice"],"ticketUrl":null,"time":" 7:45pm"}],"vName":"Mamma Chen's"},"type":"Feature"},{"geometry":{"coordinates":[144.9659879,-37.8147557],"type":"Point"},"properties":{"events":[{"categories":["Music"],"eDate":"2024-11-15","eName":"King Parrot","genre":"Metal","price":"$59.90","supports":["Weedeater"," Astrodeath"," Choof"],"ticketUrl":null,"time":" 7pm"}],"vName":"Max Watt's (Melbourne)"},"type":"Feature"},{"geometry":{"coordinates":[144.96741062735794,-37.82454855],"type":"Point"},"properties":{"events":[{"categories":["Music"],"eDate":"2024-11-15","eName":"The Boite: Firetail x Gamelan DanAnda","genre":null,"price":"$37.00","supports":[],"ticketUrl":null,"time":" 7pm"},{"categories":["Music"],"eDate":"2024-11-15","eName":"Australian Art Orchestra 30th Anniversary Concert","genre":"Classical","price":"$45.00","supports":[],"ticketUrl":null,"time":" 7pm"}],"vName":"Melbourne Recital Centre"},"type":"Feature"},{"geometry":{"coordinates":[144.9786817,-37.8671902],"type":"Point"},"properties":{"events":[{"categories":["Music"],"eDate":"2024-11-15","eName":"Ramble Tamble: The Australian Creedence Show","genre":"Rock","price":"$30.00 - 45.00","supports":[],"ticketUrl":null,"time":" 7pm"}],"vName":"Memo Music Hall"},"type":"Feature"},{"geometry":{"coordinates":[144.9712356,-37.812902],"type":"Point"},"properties":{"events":[{"categories":["Comedy"],"eDate":"2024-11-15","eName":"Basement Comedy Club","genre":null,"price":"$24.00","supports":["more"],"ticketUrl":null,"time":" 8pm"}],"vName":"Morris House"},"type":"Feature"},{"geometry":{"coordinates":[144.998414,-37.771471],"type":"Point"},"properties":{"events":[{"categories":["Music"],"eDate":"2024-11-15","eName":"Jess Day","genre":"Indie","price":"$26.05","supports":[],"ticketUrl":null,"time":" 8pm"}],"vName":"Northcote Social Club"},"type":"Feature"},{"geometry":{"coordinates":[144.9977626,-37.7755001],"type":"Point"},"properties":{"events":[{"categories":["Music"],"eDate":"2024-11-15","eName":"Hybrid Theory (Linkin Park Tribute)","genre":"Metal","price":"$59.90","supports":[],"ticketUrl":null,"time":" 7:30pm"}],"vName":"Northcote Theatre"},"type":"Feature"},{"geometry":{"coordinates":[144.97711,-37.79833],"type":"Point"},"properties":{"events":[{"categories":["Music"],"eDate":"2024-11-15","eName":"The Brakes","genre":"Punk","price":"$10.00 - 15.00","supports":["Program"," The Antics"],"ticketUrl":null,"time":" 8pm"},{"categories":["Music"],"eDate":"2024-11-15","eName":"The Brakes","genre":"Rock","price":"$10.00 - 15.00","supports":["Program"," The Antics"],"ticketUrl":null,"time":" 8pm"}],"vName":"Old Bar"},"type":"Feature"},{"geometry":{"coordinates":[144.9605705,-37.8132486],"type":"Point"},"properties":{"events":[{"categories":["Music"],"eDate":"2024-11-15","eName":"The Aretha Franklin Project with Joys Njambi","genre":"Jazz","price":"$45.00","supports":[],"ticketUrl":null,"time":" 6pm"},{"categories":["Music"],"eDate":"2024-11-15","eName":"Dan Costa: Beams","genre":"Jazz","price":"$40.00","supports":[],"ticketUrl":null,"time":" 8pm"},{"categories":["Music"],"eDate":"2024-11-15","eName":"Fabulous Diva: The Music of Dr Nina Simone","genre":"Jazz","price":"$45.00","supports":[],"ticketUrl":null,"time":" 8:30pm"},{"categories":["Music"],"eDate":"2024-11-15","eName":"The Royal Motown Review: Nardia + Paul Slattery","genre":"Soul/Funk","price":"$45.00","supports":[],"ticketUrl":null,"time":" 9:30pm"}],"vName":"Paris Cat Jazz Club"},"type":"Feature"},{"geometry":{"coordinates":[144.9615882,-37.7711432],"type":"Point"},"properties":{"events":[{"categories":["Music"],"eDate":"2024-11-15","eName":"Darling Street","genre":"Rock","price":"$20.00","supports":["Toadstool"," Uglie Boy"],"ticketUrl":null,"time":" 7:30pm"}],"vName":"Retreat Hotel"},"type":"Feature"},{"geometry":{"coordinates":[144.993413,-37.8506652],"type":"Point"},"properties":{"events":[{"categories":["Music"],"eDate":"2024-11-15","eName":"Drest","genre":"Punk","price":"$16.32 - 26.52","supports":["Squid the Kid"," Marceline"," Azzizz"],"ticketUrl":null,"time":" 7:30pm"},{"categories":["Music"],"eDate":"2024-11-15","eName":"NIKS","genre":"Electronic","price":"$21.42 - 31.62","supports":["Jinx"," Venus Flytrap"," Bby Cass"," Asteria"," Eddie Example"," Mike Callander"," DJ Kiti"],"ticketUrl":null,"time":"10pm"}],"vName":"Revolver Upstairs"},"type":"Feature"},{"geometry":{"coordinates":[144.9631913,-37.7617818],"type":"Point"},"properties":{"events":[{"categories":["Music"],"eDate":"2024-11-15","eName":"Izzy Summers","genre":"Indie","price":"$15.00","supports":["Sianon"," Laura Adeline"],"ticketUrl":null,"time":" 8pm"}],"vName":"Ringo Barr"},"type":"Feature"},{"geometry":{"coordinates":[145.001392343033,-37.75592655],"type":"Point"},"properties":{"events":[{"categories":["Music"],"eDate":"2024-11-15","eName":"Spawn","genre":"Rock","price":"$23.45","supports":["Stigg"," TTTDC"," Green Blanket"],"ticketUrl":null,"time":" 7:30pm"}],"vName":"Shotkickers"},"type":"Feature"},{"geometry":{"coordinates":[144.9828155,-37.8567825],"type":"Point"},"properties":{"events":[{"categories":["Music"],"eDate":"2024-11-15","eName":"The Droptails: Coronavirus The Musical","genre":null,"price":"$36.70","supports":[],"ticketUrl":null,"time":" 7:30pm"},{"categories":["Music"],"eDate":"2024-11-15","eName":"The Droptails Album Launch: Coronavirus the Musical","genre":"Indie","price":"$34.00","supports":[],"ticketUrl":null,"time":" 7:30pm"},{"categories":["Music"],"eDate":"2024-11-15","eName":"The Tonalists","genre":null,"price":"$34.00","supports":[],"ticketUrl":null,"time":"10pm"}],"vName":"St Kilda Sports Club"},"type":"Feature"},{"geometry":{"coordinates":[144.9607404,-37.7743469],"type":"Point"},"properties":{"events":[{"categories":["Music"],"eDate":"2024-11-15","eName":"Wizard Water Presents: The Heart Shaped Aces","genre":"Rock","price":"$18.98","supports":[],"ticketUrl":null,"time":" 7pm"},{"categories":["Music"],"eDate":"2024-11-15","eName":"sugarush: Pop Party 2024","genre":"Pop","price":"$17.00 - 25.00","supports":[],"ticketUrl":null,"time":"11pm"}],"vName":"Stay Gold"},"type":"Feature"},{"geometry":{"coordinates":[144.9706095,-37.7783326],"type":"Point"},"properties":{"events":[{"categories":["Free","Music"],"eDate":"2024-11-15","eName":"Hawker Heights","genre":"Blues","price":"Free","supports":[],"ticketUrl":null,"time":" 9pm"}],"vName":"The Beast"},"type":"Feature"},{"geometry":{"coordinates":[144.97515565,-37.805788500000006],"type":"Point"},"properties":{"events":[{"categories":["Music"],"eDate":"2024-11-15","eName":"Signs Of Change","genre":"Indie","price":"$15.00 - 20.00","supports":["Aftergloom"," Flower Field Folley"],"ticketUrl":null,"time":" 7:30pm"}],"vName":"The Catfish"},"type":"Feature"},{"geometry":{"coordinates":[144.9657057,-37.8061581],"type":"Point"},"properties":{"events":[{"categories":["Music"],"eDate":"2024-11-15","eName":"A. Swayze & The Ghosts","genre":"Rock","price":"$22.85","supports":[],"ticketUrl":null,"time":" 8pm"}],"vName":"The Curtin"},"type":"Feature"},{"geometry":{"coordinates":[144.9585654,-37.8059962],"type":"Point"},"properties":{"events":[{"categories":["Music"],"eDate":"2024-11-15","eName":"Disgruntled Civil Servant","genre":"Punk","price":"$16.35","supports":["Dole Cheque"," Muddy Rivets"," Ishta & The Quarter Life Crisis"," Sharehouse"],"ticketUrl":null,"time":" 7:30pm"}],"vName":"The Last Chance Rock & Roll Bar"},"type":"Feature"},{"geometry":{"coordinates":[144.9708437,-37.7973184],"type":"Point"},"properties":{"events":[{"categories":["Theatre"],"eDate":"2024-11-15","eName":"Me and the D.O.G","genre":null,"price":"$24.00","supports":[],"ticketUrl":null,"time":" 6pm"},{"categories":["Music","Theatre"],"eDate":"2024-11-15","eName":"Mother Tongues: Fin-I (The Utopian Connection)","genre":"Pop","price":"$35.00","supports":[],"ticketUrl":null,"time":" 7:30pm"}],"vName":"The Motley Bauhaus"},"type":"Feature"},{"geometry":{"coordinates":[144.9830837,-37.7988316],"type":"Point"},"properties":{"events":[{"categories":["Music"],"eDate":"2024-11-15","eName":"Amraks","genre":"Electronic","price":"$20.00","supports":[],"ticketUrl":null,"time":"11pm"}],"vName":"The Rochester"},"type":"Feature"},{"geometry":{"coordinates":[144.9651425,-37.8119429],"type":"Point"},"properties":{"events":[{"categories":["Music"],"eDate":"2024-11-15","eName":"Krave","genre":"Metal","price":"$28.56","supports":[],"ticketUrl":null,"time":" 7:30pm"}],"vName":"The Toff In Town"},"type":"Feature"},{"geometry":{"coordinates":[144.9846126,-37.7989941],"type":"Point"},"properties":{"events":[{"categories":["Music"],"eDate":"2024-11-15","eName":"A Fundraiser For Kaiborg","genre":"Punk","price":"$23.50","supports":[],"ticketUrl":null,"time":" 8pm"},{"categories":["Music"],"eDate":"2024-11-15","eName":"Sleepazoid","genre":"Punk","price":"$15.00 - 20.00","supports":["Sorry"," Dave"," TILE"],"ticketUrl":null,"time":" 8pm"}],"vName":"The Tote Hotel"},"type":"Feature"},{"geometry":{"coordinates":[144.9769450659087,-37.8055776],"type":"Point"},"properties":{"events":[{"categories":["Music"],"eDate":"2024-11-15","eName":"Natasha Bianca","genre":"Indie","price":"$23.50","supports":["Alisya Rae"," REX"],"ticketUrl":null,"time":" 8:30pm"}],"vName":"The Workers Club"},"type":"Feature"},{"geometry":{"coordinates":[144.9618426,-37.8125531],"type":"Point"},"properties":{"events":[{"categories":["Free","Music"],"eDate":"2024-11-15","eName":"Fridays With Mike Gurrieri","genre":null,"price":"Free","supports":[],"ticketUrl":null,"time":" 5pm"}],"vName":"Whitehart Bar"},"type":"Feature"}],"type":"FeatureCollection"}