{"features":[{"geometry":{"coordinates":[144.9500257,-37.8032773],"type":"Point"},"properties":{"events":[{"categories":["Music","Art"],"eDate":"2024-05-12","eName":"Rainbow Chan 陳雋然 : The Bridal Lament 哭嫁歌","genre":"Experimental","price":"$35.00","supports":[],"ticketUrl":null,"time":" 5pm"}],"vName":"Arts House"},"type":"Feature"},{"geometry":{"coordinates":[144.9936498,-37.8000264],"type":"Point"},"properties":{"events":[{"categories":["Free","Music"],"eDate":"2024-05-12","eName":"The Heart Shaped Aces","genre":"Country/Folk","price":"Free","supports":[],"ticketUrl":null,"time":" 4pm"}],"vName":"Lulie Tavern"},"type":"Feature"},{"geometry":{"coordinates":[144.96741062735794,-37.82454855],"type":"Point"},"properties":{"events":[{"categories":["Music"],"eDate":"2024-05-12","eName":"Brandenburg: Baroque Kaleidoscope","genre":"Classical","price":"$30.00","supports":[],"ticketUrl":null,"time":" 5pm"}],"vName":"Melbourne Recital Centre"},"type":"Feature"},{"geometry":{"coordinates":[145.3553553,-37.9078552],"type":"Point"},"properties":{"events":[{"categories":["Free","Music"],"eDate":"2024-05-12","eName":"Neesy Smith & Leanne Bugat","genre":"Indie","price":"Free","supports":[],"ticketUrl":null,"time":" 1pm"}],"vName":"Micawber Tavern"},"type":"Feature"},{"geometry":{"coordinates":[144.998414,-37.771471],"type":"Point"},"properties":{"events":[{"categories":["Music"],"eDate":"2024-05-12","eName":"Rudely Interrupted","genre":"Rock","price":"$25.00","supports":["Pip & Charlie"],"ticketUrl":null,"time":" 1pm"}],"vName":"Northcote Social Club"},"type":"Feature"},{"geometry":{"coordinates":[144.97711,-37.79833],"type":"Point"},"properties":{"events":[{"categories":["Music"],"eDate":"2024-05-12","eName":"Fundraisers For Fitzroy 2: Fitzroy Learning Network","genre":"Rock","price":"$25.00","supports":[],"ticketUrl":null,"time":" 3pm"}],"vName":"Old Bar"},"type":"Feature"},{"geometry":{"coordinates":[145.0142411,-37.7310367],"type":"Point"},"properties":{"events":[{"categories":["Free","Music"],"eDate":"2024-05-12","eName":"Sunday Sunset Sessions","genre":"Jazz","price":"Free","supports":[],"ticketUrl":null,"time":" 6pm"}],"vName":"Ragtime Tavern"},"type":"Feature"},{"geometry":{"coordinates":[144.9948802,-37.8431403],"type":"Point"},"properties":{"events":[{"categories":["Free","Music","Other \"Food & Drink\""],"eDate":"2024-05-12","eName":"Sunday Sessions","genre":"Acoustic","price":"Free","supports":[],"ticketUrl":null,"time":" 3pm"}],"vName":"Temperance Hotel"},"type":"Feature"},{"geometry":{"coordinates":[144.9657057,-37.8061581],"type":"Point"},"properties":{"events":[{"categories":["Music"],"eDate":"2024-05-12","eName":"White Shark JAWS","genre":null,"price":"$59.00","supports":["Neon Wave"," Moo Maze"],"ticketUrl":null,"time":" 6pm"}],"vName":"The Curtin"},"type":"Feature"},{"geometry":{"coordinates":[144.9585654,-37.8059962],"type":"Point"},"properties":{"events":[{"categories":["Music"],"eDate":"2024-05-12","eName":"Absentia Presents: An Evening at Last Chance","genre":"Punk","price":"$11.25","supports":["Drowning Houdini"," Dylan’s Omens"],"ticketUrl":null,"time":" 3pm"}],"vName":"The Last Chance Rock & Roll Bar"},"type":"Feature"},{"geometry":{"coordinates":[144.99987967655426,-37.76165125],"type":"Point"},"properties":{"events":[{"categories":["Free","Music"],"eDate":"2024-05-12","eName":"Keynes Brothers","genre":"Country/Folk","price":"Free","supports":[],"ticketUrl":null,"time":" 5pm"}],"vName":"The Thornbury Local"},"type":"Feature"},{"geometry":{"coordinates":[144.9983987,-37.7729204],"type":"Point"},"properties":{"events":[{"categories":["Free","Music"],"eDate":"2024-05-12","eName":"The James Lockwood Trio","genre":"Jazz","price":"Free","supports":[],"ticketUrl":null,"time":" 6pm"}],"vName":"Wesley Anne"},"type":"Feature"}],"type":"FeatureCollection"}