{"features":[{"geometry":{"coordinates":[144.9982812,-37.7713296],"type":"Point"},"properties":{"events":[{"categories":["Music"],"eDate":"2025-08-14","eName":"The Tonalists","genre":"Rock","price":"$15.00","supports":[],"ticketUrl":null,"time":" 7pm"}],"vName":"Bar 303"},"type":"Feature"},{"geometry":{"coordinates":[144.9607158,-37.776327],"type":"Point"},"properties":{"events":[{"categories":["Music"],"eDate":"2025-08-14","eName":"Nate Faker","genre":"Rock","price":"$28.05","supports":[],"ticketUrl":null,"time":" 7pm"}],"vName":"Bergy Bandroom"},"type":"Feature"},{"geometry":{"coordinates":[144.9568039,-37.8111442],"type":"Point"},"properties":{"events":[{"categories":["Music"],"eDate":"2025-08-14","eName":"Skyhooks Show","genre":"Rock","price":"$40.00","supports":[],"ticketUrl":null,"time":" 6pm"}],"vName":"Bird's Basement"},"type":"Feature"},{"geometry":{"coordinates":[144.9945274,-37.8001115],"type":"Point"},"properties":{"events":[{"categories":["Free","Music","Other \"Art \"","Other \"Food \""],"eDate":"2025-08-14","eName":"The Vanguards","genre":null,"price":"Free","supports":[],"ticketUrl":null,"time":" 7pm"}],"vName":"Bodriggy Brewing Company"},"type":"Feature"},{"geometry":{"coordinates":[144.9627513,-37.760963],"type":"Point"},"properties":{"events":[{"categories":["Music"],"eDate":"2025-08-14","eName":"Troy Wilson","genre":"Acoustic","price":"Free","supports":[],"ticketUrl":null,"time":" 7pm"}],"vName":"Edinburgh Castle Hotel"},"type":"Feature"},{"geometry":{"coordinates":[144.9777885,-37.8597831],"type":"Point"},"properties":{"events":[{"categories":["Music"],"eDate":"2025-08-14","eName":"Jamie MacDowell","genre":"Country/Folk","price":"Free","supports":[],"ticketUrl":null,"time":" 6:30pm"}],"vName":"Freddie Wimpoles"},"type":"Feature"},{"geometry":{"coordinates":[144.959768,-37.831777],"type":"Point"},"properties":{"events":[{"categories":["Music"],"eDate":"2025-08-14","eName":"JMQ Jazz Ensemble’s Thursday Jazz","genre":"Jazz","price":"$20.00","supports":["Juliarna Clark"," Tim Wilson"],"ticketUrl":null,"time":" 6:30pm"}],"vName":"Golden Gate Hotel"},"type":"Feature"},{"geometry":{"coordinates":[144.973013,-37.8640582],"type":"Point"},"properties":{"events":[{"categories":["Music","Other \"Cabaret\""],"eDate":"2025-08-14","eName":"Unfurnished Theatre: Songs That Shaped Us","genre":"Jazz","price":"$28.05","supports":[],"ticketUrl":null,"time":" 7:30pm"}],"vName":"Hotel Esplanade (aka The Espy)"},"type":"Feature"},{"geometry":{"coordinates":[144.9658499,-37.8147453],"type":"Point"},"properties":{"events":[{"categories":["Music"],"eDate":"2025-08-14","eName":"Li Daben","genre":"Hip Hop","price":"$79.00","supports":[],"ticketUrl":null,"time":" 7:15pm"}],"vName":"Max Watt's (Melbourne)"},"type":"Feature"},{"geometry":{"coordinates":[144.9675876,-37.8240849],"type":"Point"},"properties":{"events":[{"categories":["Music"],"eDate":"2025-08-14","eName":"Eliza Hull (Relaxed Performance)","genre":"Acoustic","price":"$10.00","supports":[],"ticketUrl":null,"time":"10:30am"},{"categories":["Music"],"eDate":"2025-08-14","eName":"Eliza Hull (Relaxed Performance)","genre":"Acoustic","price":"$10.00","supports":[],"ticketUrl":null,"time":"12pm"},{"categories":["Music"],"eDate":"2025-08-14","eName":"Takács Quartet with Angie Milliken","genre":"Classical","price":"$65.00","supports":[],"ticketUrl":null,"time":" 7pm"}],"vName":"Melbourne Recital Centre"},"type":"Feature"},{"geometry":{"coordinates":[144.998414,-37.771471],"type":"Point"},"properties":{"events":[{"categories":["Music"],"eDate":"2025-08-14","eName":"Cheersquad Records & Tapes Residency: The Chris Wilson Cheersquad","genre":null,"price":"$29.10","supports":["more"],"ticketUrl":null,"time":" 7pm"}],"vName":"Northcote Social Club"},"type":"Feature"},{"geometry":{"coordinates":[144.97711,-37.79833],"type":"Point"},"properties":{"events":[{"categories":["Music"],"eDate":"2025-08-14","eName":"Great Falls","genre":"Rock","price":"$11.25","supports":["Emma Shields"," Cold Open"],"ticketUrl":null,"time":" 7:30pm"}],"vName":"Old Bar"},"type":"Feature"},{"geometry":{"coordinates":[144.96084,-37.813514],"type":"Point"},"properties":{"events":[{"categories":["Music"],"eDate":"2025-08-14","eName":"Westcoastin’: The Cool Jazz Icons","genre":"Jazz","price":"$40.00","supports":[],"ticketUrl":null,"time":" 7:30pm"},{"categories":["Music"],"eDate":"2025-08-14","eName":"The Music of Clark Terry & Bob Brookmeyer","genre":"Jazz","price":"$35.00","supports":[],"ticketUrl":null,"time":" 8pm"}],"vName":"Paris Cat Jazz Club"},"type":"Feature"},{"geometry":{"coordinates":[144.9615882,-37.7711432],"type":"Point"},"properties":{"events":[{"categories":["Music"],"eDate":"2025-08-14","eName":"The Bin Stompers","genre":"Punk","price":"$12.25 - 17.95","supports":["Paprika"," Handgrenade Hearts"],"ticketUrl":null,"time":" 7pm"}],"vName":"Retreat Hotel"},"type":"Feature"},{"geometry":{"coordinates":[144.9607404,-37.7743469],"type":"Point"},"properties":{"events":[{"categories":["Music"],"eDate":"2025-08-14","eName":"August Blues at Stay Gold","genre":"Blues","price":"$20.00","supports":[],"ticketUrl":null,"time":" 7pm"}],"vName":"Stay Gold"},"type":"Feature"},{"geometry":{"coordinates":[144.9706211,-37.778276],"type":"Point"},"properties":{"events":[{"categories":["Other \"Trivia \"","Other \"Cabaret\""],"eDate":"2025-08-14","eName":"Drag Bingo","genre":null,"price":"Free","supports":[],"ticketUrl":null,"time":" 8pm"}],"vName":"The Beast"},"type":"Feature"},{"geometry":{"coordinates":[144.996838,-37.7794356],"type":"Point"},"properties":{"events":[{"categories":["Music"],"eDate":"2025-08-14","eName":"Clementine + Jasmine Adria","genre":"Acoustic","price":"$10.00","supports":[],"ticketUrl":null,"time":" 8pm"}],"vName":"The Merri Creek Tavern"},"type":"Feature"},{"geometry":{"coordinates":[144.9708437,-37.7973184],"type":"Point"},"properties":{"events":[{"categories":["Free","Comedy"],"eDate":"2025-08-14","eName":"Script Jam","genre":null,"price":"Free","supports":[],"ticketUrl":null,"time":" 6:30pm"},{"categories":["Free","Music","Comedy"],"eDate":"2025-08-14","eName":"The ‘WHAM, BAM, THANK YOU’ Jam","genre":"Jazz","price":"Free","supports":[],"ticketUrl":null,"time":" 8pm"}],"vName":"The Motley Bauhaus"},"type":"Feature"},{"geometry":{"coordinates":[144.9651425,-37.8119429],"type":"Point"},"properties":{"events":[{"categories":["Music"],"eDate":"2025-08-14","eName":"Javiera Diaz + Shot By Jane","genre":null,"price":"Free","supports":[],"ticketUrl":null,"time":" 7pm"}],"vName":"The Toff In Town"},"type":"Feature"},{"geometry":{"coordinates":[144.9870814,-37.799406],"type":"Point"},"properties":{"events":[{"categories":["Music"],"eDate":"2025-08-14","eName":"Endless Groove Mini-Fest","genre":null,"price":"$25.00","supports":["Gusto Gusto"," Charlie Needs Braces"],"ticketUrl":null,"time":" 7:30pm"}],"vName":"The Tote Hotel"},"type":"Feature"},{"geometry":{"coordinates":[144.9769451,-37.8055776],"type":"Point"},"properties":{"events":[{"categories":["Music"],"eDate":"2025-08-14","eName":"New Blood: Vol. 5","genre":"Rock","price":"$12.75","supports":["Malicy"," Chase Mantel & The Supervoids"," The Midnight Express"],"ticketUrl":null,"time":" 7pm"}],"vName":"The Workers Club"},"type":"Feature"},{"geometry":{"coordinates":[144.9661635,-37.8176298],"type":"Point"},"properties":{"events":[{"categories":["Free","Music"],"eDate":"2025-08-14","eName":"Cazeaux O.S.L.O","genre":"Hip Hop","price":"Free","supports":[],"ticketUrl":null,"time":" 9pm"}],"vName":"Wax Music Lounge"},"type":"Feature"}],"type":"FeatureCollection"}