{"features":[{"geometry":{"coordinates":[144.9982812,-37.7713296],"type":"Point"},"properties":{"events":[{"categories":["Music"],"eDate":"2025-08-15","eName":"Zero City","genre":"Jazz","price":"$15.00","supports":["The Noise"," Harriet Wraith"],"ticketUrl":null,"time":" 8pm"}],"vName":"Bar 303"},"type":"Feature"},{"geometry":{"coordinates":[144.9891167,-37.7996488],"type":"Point"},"properties":{"events":[{"categories":["Music"],"eDate":"2025-08-15","eName":"Transience","genre":"Metal","price":"$22.95","supports":["Seas Of Titan"," Verona Lights"," Counting Silence"],"ticketUrl":null,"time":" 8:30pm"},{"categories":["Music"],"eDate":"2025-08-15","eName":"Rise From Ashes","genre":"Metal","price":"$17.35","supports":["Armoured Earth"," Abreact"," Destroy Fear"],"ticketUrl":null,"time":" 8:45pm"}],"vName":"Bendigo Hotel"},"type":"Feature"},{"geometry":{"coordinates":[144.9607158,-37.776327],"type":"Point"},"properties":{"events":[{"categories":["Music"],"eDate":"2025-08-15","eName":"Pretty Bleak","genre":"Rock","price":"$23.95 - 25.00","supports":[],"ticketUrl":null,"time":" 8pm"}],"vName":"Bergy Bandroom"},"type":"Feature"},{"geometry":{"coordinates":[144.9568039,-37.8111442],"type":"Point"},"properties":{"events":[{"categories":["Music"],"eDate":"2025-08-15","eName":"To Be Loved: A Dedication to Adele","genre":"Soul/Funk","price":"$40.00","supports":[],"ticketUrl":null,"time":" 6pm"}],"vName":"Bird's Basement"},"type":"Feature"},{"geometry":{"coordinates":[144.9617439,-37.7713516],"type":"Point"},"properties":{"events":[{"categories":["Other \"Art \"","Other \"Food \""],"eDate":"2025-08-15","eName":"Opening Night: Sparks in the Dark","genre":null,"price":"Free","supports":[],"ticketUrl":null,"time":" 5:30pm"}],"vName":"Brunswick Mechanics Institute"},"type":"Feature"},{"geometry":{"coordinates":[144.9713425,-37.8128595],"type":"Point"},"properties":{"events":[{"categories":["Music"],"eDate":"2025-08-15","eName":"The Dead Amigos","genre":"Rock","price":"$17.48","supports":["Madigan's Wake"," Vida Fox"],"ticketUrl":null,"time":" 8pm"},{"categories":["Free","Music"],"eDate":"2025-08-15","eName":"TRASH Indie Sleaze Party","genre":"Rock","price":"Free","supports":[],"ticketUrl":null,"time":"11pm"}],"vName":"Cherry Bar"},"type":"Feature"},{"geometry":{"coordinates":[144.9926664,-37.8248893],"type":"Point"},"properties":{"events":[{"categories":["Music"],"eDate":"2025-08-15","eName":"Weened (25 Years of White Pepper)","genre":"Rock","price":"$26.05","supports":[],"ticketUrl":null,"time":" 8:30pm"}],"vName":"Corner Hotel"},"type":"Feature"},{"geometry":{"coordinates":[144.9627513,-37.760963],"type":"Point"},"properties":{"events":[{"categories":["Music"],"eDate":"2025-08-15","eName":"Steamboat Whistlers","genre":null,"price":"Free","supports":[],"ticketUrl":null,"time":" 7pm"}],"vName":"Edinburgh Castle Hotel"},"type":"Feature"},{"geometry":{"coordinates":[144.9777885,-37.8597831],"type":"Point"},"properties":{"events":[{"categories":["Music"],"eDate":"2025-08-15","eName":"Tutor 22","genre":"Country/Folk","price":"Free","supports":[],"ticketUrl":null,"time":" 6:30pm"}],"vName":"Freddie Wimpoles"},"type":"Feature"},{"geometry":{"coordinates":[144.9875792,-37.7963739],"type":"Point"},"properties":{"events":[{"categories":["Music"],"eDate":"2025-08-15","eName":"Kingswood","genre":"Rock","price":"$50.00","supports":[],"ticketUrl":null,"time":" 8pm"}],"vName":"Gem Bar"},"type":"Feature"},{"geometry":{"coordinates":[144.983442,-37.804851],"type":"Point"},"properties":{"events":[{"categories":["Music"],"eDate":"2025-08-15","eName":"G.U.N","genre":"Indie","price":"$15.00 - 20.00","supports":["Živa"," Olza"," Uberwench"],"ticketUrl":null,"time":" 7pm"},{"categories":["Music"],"eDate":"2025-08-15","eName":"Lucy Lamb","genre":"Indie","price":"$15.00 - 20.00","supports":["Cherry Rype"," Flossy"],"ticketUrl":null,"time":" 8pm"}],"vName":"Grace Darling Hotel"},"type":"Feature"},{"geometry":{"coordinates":[145.0008148,-37.8107158],"type":"Point"},"properties":{"events":[{"categories":["Music"],"eDate":"2025-08-15","eName":"Transience","genre":"Metal","price":"$22.95","supports":["Seas Of Titan"," All Is Violent"," Verona Lights"," Counting Silence"],"ticketUrl":null,"time":" 7:30pm"}],"vName":"Leadbeater Hotel"},"type":"Feature"},{"geometry":{"coordinates":[144.9936498,-37.8000264],"type":"Point"},"properties":{"events":[{"categories":["Music"],"eDate":"2025-08-15","eName":"Luke Yeoward","genre":"Indie","price":"Free","supports":["Ben Mastwyk"],"ticketUrl":null,"time":" 9pm"}],"vName":"Lulie Tavern"},"type":"Feature"},{"geometry":{"coordinates":[144.9658499,-37.8147453],"type":"Point"},"properties":{"events":[{"categories":["Music"],"eDate":"2025-08-15","eName":"Never Ending 80s Presents 80s v 90s: The Battle of The Decades","genre":"Pop","price":"$40.30","supports":[],"ticketUrl":null,"time":" 8pm"}],"vName":"Max Watt's (Melbourne)"},"type":"Feature"},{"geometry":{"coordinates":[144.9675876,-37.8240849],"type":"Point"},"properties":{"events":[{"categories":["Music"],"eDate":"2025-08-15","eName":"Music at the Centre – Memory: Celebrating 130 Years","genre":"Classical","price":"$30.00","supports":[],"ticketUrl":null,"time":" 7pm"}],"vName":"Melbourne Recital Centre"},"type":"Feature"},{"geometry":{"coordinates":[144.9790251,-37.8675008],"type":"Point"},"properties":{"events":[{"categories":["Music"],"eDate":"2025-08-15","eName":"MONSTR: The Best Of MTV Unplugged","genre":"Acoustic","price":"$45.00 - 55.00","supports":["Erinn Kelly"],"ticketUrl":null,"time":" 7pm"}],"vName":"Memo Music Hall"},"type":"Feature"},{"geometry":{"coordinates":[144.9546069,-37.8211068],"type":"Point"},"properties":{"events":[{"categories":["Music"],"eDate":"2025-08-15","eName":"Platform Presents: Bugskin – An Immersive Audio-Visual Descent","genre":"Electronic","price":"$28.00 - 33.00","supports":[],"ticketUrl":null,"time":" 7pm"}],"vName":"Mission to Seafarers"},"type":"Feature"},{"geometry":{"coordinates":[144.998414,-37.771471],"type":"Point"},"properties":{"events":[{"categories":["Music"],"eDate":"2025-08-15","eName":"Northside Records Party","genre":null,"price":"$29.10","supports":["more"],"ticketUrl":null,"time":" 8pm"}],"vName":"Northcote Social Club"},"type":"Feature"},{"geometry":{"coordinates":[145.0015248,-37.8258878],"type":"Point"},"properties":{"events":[{"categories":["Free","Music"],"eDate":"2025-08-15","eName":"La Discothèque","genre":null,"price":"Free","supports":[],"ticketUrl":null,"time":" 9pm"}],"vName":"Odeon Richmond"},"type":"Feature"},{"geometry":{"coordinates":[144.97711,-37.79833],"type":"Point"},"properties":{"events":[{"categories":["Music"],"eDate":"2025-08-15","eName":"Ramona Sky","genre":"Rock","price":"$17.35","supports":["Munchy Dolphin"," Camomile"],"ticketUrl":null,"time":" 8pm"}],"vName":"Old Bar"},"type":"Feature"},{"geometry":{"coordinates":[144.96084,-37.813514],"type":"Point"},"properties":{"events":[{"categories":["Music"],"eDate":"2025-08-15","eName":"Annemarie Sharry’s BOSSARACH with Bob Sedergreen","genre":"Jazz","price":"$45.00","supports":[],"ticketUrl":null,"time":" 6pm"},{"categories":["Music"],"eDate":"2025-08-15","eName":"Music of Sting / The Police: Rowan Pattison Band & Natasha Weatherill","genre":"Jazz","price":"$45.00","supports":[],"ticketUrl":null,"time":" 6:30pm"},{"categories":["Music"],"eDate":"2025-08-15","eName":"Chris Johnstone / John Mackey Quintet presents the Music of John Coltrane","genre":"Jazz","price":"$45.00","supports":[],"ticketUrl":null,"time":" 9pm"},{"categories":["Music"],"eDate":"2025-08-15","eName":"Oscar Bruten Septet Plays: The Music of Monk & Mingus","genre":"Jazz","price":"$45.00","supports":[],"ticketUrl":null,"time":" 9:30pm"}],"vName":"Paris Cat Jazz Club"},"type":"Feature"},{"geometry":{"coordinates":[145.119855,-38.1449481],"type":"Point"},"properties":{"events":[{"categories":["Music"],"eDate":"2025-08-15","eName":"RIFF","genre":null,"price":"$15.00","supports":["Monroe"," Danger Den"," Wasteman"],"ticketUrl":null,"time":" 7:30pm"}],"vName":"Pier Hotel"},"type":"Feature"},{"geometry":{"coordinates":[144.9615882,-37.7711432],"type":"Point"},"properties":{"events":[{"categories":["Music"],"eDate":"2025-08-15","eName":"40th Parallel","genre":null,"price":"$17.95","supports":["The Mundaynes"," Lifetime Warranty"],"ticketUrl":null,"time":" 7:30pm"}],"vName":"Retreat Hotel"},"type":"Feature"},{"geometry":{"coordinates":[145.0013923,-37.7559265],"type":"Point"},"properties":{"events":[{"categories":["Music"],"eDate":"2025-08-15","eName":"StoneWilde","genre":null,"price":"$18.35","supports":["Joyce Prescher"," Grim Fawkner"],"ticketUrl":null,"time":" 8pm"}],"vName":"Shotkickers"},"type":"Feature"},{"geometry":{"coordinates":[144.9607404,-37.7743469],"type":"Point"},"properties":{"events":[{"categories":["Music"],"eDate":"2025-08-15","eName":"Kadikoy Mixtape","genre":"Rock","price":"$17.50 - 25.00","supports":[],"ticketUrl":null,"time":" 7pm"},{"categories":["Music"],"eDate":"2025-08-15","eName":"Stay Goth: Cyber Goth","genre":"Electronic","price":"$12.65","supports":[],"ticketUrl":null,"time":"11pm"}],"vName":"Stay Gold"},"type":"Feature"},{"geometry":{"coordinates":[144.9657057,-37.8061581],"type":"Point"},"properties":{"events":[{"categories":["Music"],"eDate":"2025-08-15","eName":"Dragnet","genre":"Rock","price":"$22.85","supports":["Coldwave"," The Blinds"],"ticketUrl":null,"time":" 8pm"}],"vName":"The Curtin"},"type":"Feature"},{"geometry":{"coordinates":[144.996838,-37.7794356],"type":"Point"},"properties":{"events":[{"categories":["Music"],"eDate":"2025-08-15","eName":"McKimmie + Cornflake Sunset","genre":"Indie","price":"$15.00","supports":[],"ticketUrl":null,"time":" 8:30pm"}],"vName":"The Merri Creek Tavern"},"type":"Feature"},{"geometry":{"coordinates":[144.9790327,-37.7960561],"type":"Point"},"properties":{"events":[{"categories":["Free","Music"],"eDate":"2025-08-15","eName":"Joelistics","genre":"Hip Hop","price":"Free","supports":["Billions"," Buttons Beat Collective"],"ticketUrl":null,"time":"10pm"}],"vName":"The Punters Club"},"type":"Feature"},{"geometry":{"coordinates":[144.9998797,-37.7616512],"type":"Point"},"properties":{"events":[{"categories":["Music"],"eDate":"2025-08-15","eName":"The Bone Folders","genre":"Country/Folk","price":"Free","supports":[],"ticketUrl":null,"time":" 8pm"}],"vName":"The Thornbury Local"},"type":"Feature"},{"geometry":{"coordinates":[144.9651425,-37.8119429],"type":"Point"},"properties":{"events":[{"categories":["Music"],"eDate":"2025-08-15","eName":"Sandee Facy","genre":"Country/Folk","price":"Free","supports":["Daniel Reeves"," HAZEL & The Thief"],"ticketUrl":null,"time":" 7pm"},{"categories":["Music"],"eDate":"2025-08-15","eName":"The Art of the Side Room: Mike G Takeover","genre":"Electronic","price":"Free","supports":["Anyo"," Shio"],"ticketUrl":null,"time":" 9pm"},{"categories":["Free","Music"],"eDate":"2025-08-15","eName":"Discognosis","genre":null,"price":"Free","supports":["DJ INGRID"," Logan Gibson"],"ticketUrl":null,"time":"11pm"}],"vName":"The Toff In Town"},"type":"Feature"},{"geometry":{"coordinates":[144.9870814,-37.799406],"type":"Point"},"properties":{"events":[{"categories":["Music"],"eDate":"2025-08-15","eName":"Kiss of Reality","genre":"Rock","price":"$10.00 - 15.00","supports":["The Black Sea Carnys"," Blood in the Campagne"],"ticketUrl":null,"time":" 7:30pm"}],"vName":"The Tote Hotel"},"type":"Feature"},{"geometry":{"coordinates":[144.9769451,-37.8055776],"type":"Point"},"properties":{"events":[{"categories":["Music"],"eDate":"2025-08-15","eName":"These Four Walls","genre":null,"price":"$17.85","supports":["Terrestrials"," Ion Sky"],"ticketUrl":null,"time":" 8pm"}],"vName":"The Workers Club"},"type":"Feature"}],"type":"FeatureCollection"}