{"features":[{"geometry":{"coordinates":[144.9500257,-37.8032773],"type":"Point"},"properties":{"events":[{"categories":["Dance"],"eDate":"2024-02-20","eName":"CUDDLE by Harrison Ritchie-Jones","genre":null,"price":"$35.00","supports":[],"ticketUrl":null,"time":" 7:30pm"}],"vName":"Arts House"},"type":"Feature"},{"geometry":{"coordinates":[144.96947,-37.816565],"type":"Point"},"properties":{"events":[{"categories":["Music"],"eDate":"2024-02-20","eName":"Greentea Peng","genre":null,"price":"$74.90","supports":[],"ticketUrl":null,"time":" 7:30pm"}],"vName":"Forum Melbourne"},"type":"Feature"},{"geometry":{"coordinates":[144.95436919999997,-37.8016691],"type":"Point"},"properties":{"events":[{"categories":["Theatre"],"eDate":"2024-02-20","eName":"The Duchess of Malfi","genre":null,"price":"$45.00","supports":[],"ticketUrl":null,"time":" 7:30pm"}],"vName":"Melbourne Meat Market"},"type":"Feature"},{"geometry":{"coordinates":[144.8829759490136,-37.8442106],"type":"Point"},"properties":{"events":[{"categories":["Theatre"],"eDate":"2024-02-20","eName":"The Crying Room: Exhumed","genre":null,"price":"$20.00","supports":[],"ticketUrl":null,"time":" 7:30pm"}],"vName":"The Substation"},"type":"Feature"},{"geometry":{"coordinates":[144.9651425,-37.8119429],"type":"Point"},"properties":{"events":[{"categories":["Free","Music"],"eDate":"2024-02-20","eName":"Now.Here.This. Live Jazz","genre":"Jazz","price":"Free","supports":[],"ticketUrl":null,"time":" 5pm"}],"vName":"The Toff In Town"},"type":"Feature"}],"type":"FeatureCollection"}