{"features":[{"geometry":{"coordinates":[144.99828116650363,-37.7713296],"type":"Point"},"properties":{"events":[{"categories":["Free","Music"],"eDate":"2025-03-15","eName":"Rudi Soundsystem","genre":"Global","price":"Free","supports":[],"ticketUrl":null,"time":" 8pm"}],"vName":"Bar 303"},"type":"Feature"},{"geometry":{"coordinates":[144.978425,-37.79773],"type":"Point"},"properties":{"events":[{"categories":["Music"],"eDate":"2025-03-15","eName":"Kwazar","genre":"Hip Hop","price":"$20.00","supports":["Old shane"," Mixx Dry"," Stock"],"ticketUrl":null,"time":" 8:30pm"}],"vName":"Bar Open"},"type":"Feature"},{"geometry":{"coordinates":[144.978682,-37.7981225],"type":"Point"},"properties":{"events":[{"categories":["Free","Music"],"eDate":"2025-03-15","eName":"Lewis Toms","genre":null,"price":"Free","supports":[],"ticketUrl":null,"time":" 9pm"},{"categories":["Music"],"eDate":"2025-03-15","eName":"DJ Damien Mack","genre":"Electronic","price":"Free","supports":[],"ticketUrl":null,"time":"10pm"}],"vName":"Baxter's Lot"},"type":"Feature"},{"geometry":{"coordinates":[144.9607158,-37.776327],"type":"Point"},"properties":{"events":[{"categories":["Music"],"eDate":"2025-03-15","eName":"Among The Restless","genre":"Rock","price":"$16.85 - 22.95","supports":["ENT UNT"," Left At The Avenue"],"ticketUrl":null,"time":" 7:30pm"}],"vName":"Bergy Bandroom"},"type":"Feature"},{"geometry":{"coordinates":[144.9567859,-37.8111049],"type":"Point"},"properties":{"events":[{"categories":["Music"],"eDate":"2025-03-15","eName":"Nicky Bomba's Bustamento","genre":"Jazz","price":"$38.00","supports":[],"ticketUrl":null,"time":" 7:30pm"}],"vName":"Bird's Basement"},"type":"Feature"},{"geometry":{"coordinates":[145.0006024,-37.8837941],"type":"Point"},"properties":{"events":[{"categories":["Music"],"eDate":"2025-03-15","eName":"Bob Sedergreen & Friends","genre":"Jazz","price":"$30.00","supports":[],"ticketUrl":null,"time":" 8pm"},{"categories":["Music"],"eDate":"2025-03-15","eName":"Bob Sedergreen with The Ted Vining Trio","genre":"Jazz","price":"$25.00 - 30.00","supports":[],"ticketUrl":null,"time":" 8pm"}],"vName":"Classic Southside"},"type":"Feature"},{"geometry":{"coordinates":[144.9668096,-37.8133834],"type":"Point"},"properties":{"events":[{"categories":["Comedy"],"eDate":"2025-03-15","eName":"Jon Bennett: AMERICAN'T","genre":null,"price":"$39.00","supports":[],"ticketUrl":null,"time":" 6pm"}],"vName":"Comedy Republic"},"type":"Feature"},{"geometry":{"coordinates":[144.99266639479475,-37.82488935],"type":"Point"},"properties":{"events":[{"categories":["Music"],"eDate":"2025-03-15","eName":"Great Gable","genre":"Rock","price":"$35.30","supports":[],"ticketUrl":null,"time":" 8:30pm"}],"vName":"Corner Hotel"},"type":"Feature"},{"geometry":{"coordinates":[144.98535244416098,-37.79426315],"type":"Point"},"properties":{"events":[{"categories":["Music"],"eDate":"2025-03-15","eName":"Ritum Deridiculo Opus: Ritual of the Grotesque","genre":"Metal","price":"$23.50","supports":[],"ticketUrl":null,"time":" 7pm"},{"categories":["Music"],"eDate":"2025-03-15","eName":"The Sunday Estate","genre":"Indie","price":"$20.00","supports":[],"ticketUrl":null,"time":" 8pm"}],"vName":"Gasometer Hotel"},"type":"Feature"},{"geometry":{"coordinates":[144.9875917,-37.7963837],"type":"Point"},"properties":{"events":[{"categories":["Free","Music"],"eDate":"2025-03-15","eName":"Season 2 + Woollen Kits","genre":"Rock","price":"Free","supports":[],"ticketUrl":null,"time":" 4pm"},{"categories":["Music"],"eDate":"2025-03-15","eName":"Willie J's 6V6s","genre":"Country/Folk","price":"$13.00","supports":[],"ticketUrl":null,"time":" 8pm"}],"vName":"Gem Bar"},"type":"Feature"},{"geometry":{"coordinates":[144.9778169,-37.8600967],"type":"Point"},"properties":{"events":[{"categories":["Music"],"eDate":"2025-03-15","eName":"Mikelangelo & The Long Lost Friends","genre":"Country/Folk","price":"$45.00","supports":["The Raglins"],"ticketUrl":null,"time":" 7pm"}],"vName":"George Lane"},"type":"Feature"},{"geometry":{"coordinates":[144.9679835243618,-37.8201575],"type":"Point"},"properties":{"events":[{"categories":["Music"],"eDate":"2025-03-15","eName":"Nils Frahm","genre":"Classical","price":"$59.00","supports":[],"ticketUrl":null,"time":" 8:30pm"}],"vName":"Hamer Hall (Arts Centre Melbourne)"},"type":"Feature"},{"geometry":{"coordinates":[144.9596527,-37.7720304],"type":"Point"},"properties":{"events":[{"categories":["Music"],"eDate":"2025-03-15","eName":"The Scratch","genre":"Rock","price":"$44.90","supports":[],"ticketUrl":null,"time":" 8pm"}],"vName":"Howler"},"type":"Feature"},{"geometry":{"coordinates":[144.90043927513608,-37.8115247],"type":"Point"},"properties":{"events":[{"categories":["Music"],"eDate":"2025-03-15","eName":"Dave Graney & Clare Moore + Dave Graney & The Mistly","genre":null,"price":"$35.00","supports":[],"ticketUrl":null,"time":" 8pm"}],"vName":"Kindred Bandroom"},"type":"Feature"},{"geometry":{"coordinates":[145.0355738,-37.8205529],"type":"Point"},"properties":{"events":[{"categories":["Music"],"eDate":"2025-03-15","eName":"The Jackie Bornstein Quartet","genre":"Jazz","price":"$25.00 - 30.00","supports":[],"ticketUrl":null,"time":" 8pm"}],"vName":"Lido Jazz Room"},"type":"Feature"},{"geometry":{"coordinates":[144.8971518,-37.8054274],"type":"Point"},"properties":{"events":[{"categories":["Free","Music","Other \"Spoken Word\"","Other \"Poetry & Forums\""],"eDate":"2025-03-15","eName":"Understanding Palestine In The West! With Yousef Alreemawi","genre":"Global","price":"Free","supports":[],"ticketUrl":null,"time":" 2pm"},{"categories":["Free","Music"],"eDate":"2025-03-15","eName":"Unscored","genre":null,"price":"Free","supports":["Tina Growls"," Sweatshop"," Insectoid Witch"],"ticketUrl":null,"time":" 7:30pm"}],"vName":"Mamma Chen's"},"type":"Feature"},{"geometry":{"coordinates":[144.9659879,-37.8147557],"type":"Point"},"properties":{"events":[{"categories":["Music"],"eDate":"2025-03-15","eName":"Tupac Shakur: A Live Dedication Tour","genre":"Hip Hop","price":"$44.00 - 75.00","supports":[],"ticketUrl":null,"time":" 8pm"}],"vName":"Max Watt's (Melbourne)"},"type":"Feature"},{"geometry":{"coordinates":[144.96741062735794,-37.82454855],"type":"Point"},"properties":{"events":[{"categories":["Music"],"eDate":"2025-03-15","eName":"Jack Liebeck & Kristian Chong","genre":"Classical","price":"$53.00","supports":[],"ticketUrl":null,"time":" 6pm"},{"categories":["Comedy"],"eDate":"2025-03-15","eName":"Los de la Culpa","genre":null,"price":"$95.00 - 135.00","supports":[],"ticketUrl":null,"time":" 7pm"}],"vName":"Melbourne Recital Centre"},"type":"Feature"},{"geometry":{"coordinates":[144.9786817,-37.8671902],"type":"Point"},"properties":{"events":[{"categories":["Music"],"eDate":"2025-03-15","eName":"MEMO’s 10th Birthday with JAZZPARTY","genre":"Jazz","price":"$49.00 - 69.00","supports":[],"ticketUrl":null,"time":" 7pm"}],"vName":"Memo Music Hall"},"type":"Feature"},{"geometry":{"coordinates":[145.3553553,-37.9078552],"type":"Point"},"properties":{"events":[{"categories":["Free","Music","Other \"Food & Drink\""],"eDate":"2025-03-15","eName":"St Patrick’s Day: Celebrate at Micawber Tavern","genre":"Global","price":"Free","supports":[],"ticketUrl":null,"time":"12pm"}],"vName":"Micawber Tavern"},"type":"Feature"},{"geometry":{"coordinates":[144.9712356,-37.812902],"type":"Point"},"properties":{"events":[{"categories":["Comedy"],"eDate":"2025-03-15","eName":"Basement Comedy Club","genre":null,"price":"$25.00","supports":[],"ticketUrl":null,"time":" 8pm"}],"vName":"Morris House"},"type":"Feature"},{"geometry":{"coordinates":[144.97711,-37.79833],"type":"Point"},"properties":{"events":[{"categories":["Free","Music"],"eDate":"2025-03-15","eName":"Fight The Sun + 7 Pound Halo","genre":"Rock","price":"Free","supports":[],"ticketUrl":null,"time":" 3pm"}],"vName":"Old Bar"},"type":"Feature"},{"geometry":{"coordinates":[144.9605705,-37.8132486],"type":"Point"},"properties":{"events":[{"categories":["Music"],"eDate":"2025-03-15","eName":"All I Ask: Elly Poletti Sings Adele","genre":"Jazz","price":"$48.00","supports":[],"ticketUrl":null,"time":" 6pm"},{"categories":["Music"],"eDate":"2025-03-15","eName":"Hot Club Swing","genre":"Jazz","price":"$45.00","supports":[],"ticketUrl":null,"time":" 6:30pm"},{"categories":["Music"],"eDate":"2025-03-15","eName":"Fabulous Diva: The Music of Dr Nina Simone","genre":"Jazz","price":"$45.00","supports":[],"ticketUrl":null,"time":" 9pm"},{"categories":["Music"],"eDate":"2025-03-15","eName":"Jazz Label Giants","genre":"Jazz","price":"$45.00","supports":[],"ticketUrl":null,"time":" 9:30pm"}],"vName":"Paris Cat Jazz Club"},"type":"Feature"},{"geometry":{"coordinates":[144.90239079583333,-37.79990865],"type":"Point"},"properties":{"events":[{"categories":["Free","Music"],"eDate":"2025-03-15","eName":"Saturday Night Party","genre":"Electronic","price":"Free","supports":[],"ticketUrl":null,"time":"10pm"}],"vName":"Pride Of Our Footscray Community Bar"},"type":"Feature"},{"geometry":{"coordinates":[144.993413,-37.8506652],"type":"Point"},"properties":{"events":[{"categories":["Music"],"eDate":"2025-03-15","eName":"Reminisce House 2025","genre":"Electronic","price":"$119.95 - 149.95","supports":[],"ticketUrl":null,"time":" 3pm"}],"vName":"Revolver Upstairs"},"type":"Feature"},{"geometry":{"coordinates":[144.9607404,-37.7743469],"type":"Point"},"properties":{"events":[{"categories":["Music"],"eDate":"2025-03-15","eName":"Balance & Composure","genre":"Rock","price":"$74.90","supports":["Glitterer"],"ticketUrl":null,"time":" 7pm"},{"categories":["Music"],"eDate":"2025-03-15","eName":"One Direction vs. 5 Seconds of Summer","genre":"Pop","price":"$13.80 - 22.00","supports":["Big Cat"," The Whyb Project"],"ticketUrl":null,"time":"11pm"}],"vName":"Stay Gold"},"type":"Feature"},{"geometry":{"coordinates":[144.9657057,-37.8061581],"type":"Point"},"properties":{"events":[{"categories":["Music"],"eDate":"2025-03-15","eName":"Good Sniff","genre":"Rock","price":"$12.25 - 17.75","supports":["Cheapskate"," Stimpies"],"ticketUrl":null,"time":" 8pm"}],"vName":"The Curtin"},"type":"Feature"},{"geometry":{"coordinates":[144.958676,-37.7669571],"type":"Point"},"properties":{"events":[{"categories":["Music"],"eDate":"2025-03-15","eName":"Rebecca Mendoza Quartet","genre":"Jazz","price":"$35.00 - 40.00","supports":[],"ticketUrl":null,"time":" 8pm"}],"vName":"The Jazzlab"},"type":"Feature"},{"geometry":{"coordinates":[144.9585654,-37.8059962],"type":"Point"},"properties":{"events":[{"categories":["Music"],"eDate":"2025-03-15","eName":"Neuroot","genre":"Punk","price":"$23.50","supports":["Hacker"," Persecutor"," Whose Reality?"],"ticketUrl":null,"time":" 7pm"}],"vName":"The Last Chance Rock & Roll Bar"},"type":"Feature"},{"geometry":{"coordinates":[144.9708437,-37.7973184],"type":"Point"},"properties":{"events":[{"categories":["Free","Music"],"eDate":"2025-03-15","eName":"Jazz Arvos","genre":"Jazz","price":"Free","supports":[],"ticketUrl":null,"time":" 5pm"},{"categories":["Music"],"eDate":"2025-03-15","eName":"Haus of Funk","genre":"Soul/Funk","price":"$20.26","supports":[],"ticketUrl":null,"time":" 8pm"},{"categories":["Comedy"],"eDate":"2025-03-15","eName":"The Big HOO HAA!","genre":null,"price":"$30.39","supports":[],"ticketUrl":null,"time":" 8:30pm"}],"vName":"The Motley Bauhaus"},"type":"Feature"},{"geometry":{"coordinates":[144.9830837,-37.7988316],"type":"Point"},"properties":{"events":[{"categories":["Music"],"eDate":"2025-03-15","eName":"Robben Ford Band","genre":"Blues","price":"$75.44","supports":[],"ticketUrl":null,"time":" 7:30pm"},{"categories":["Music"],"eDate":"2025-03-15","eName":"Felipe Gordon + Proto Exotica","genre":"Electronic","price":"$18.35 - 29.57","supports":[],"ticketUrl":null,"time":"11pm"}],"vName":"The Night Cat"},"type":"Feature"},{"geometry":{"coordinates":[144.9622,-37.7679857],"type":"Point"},"properties":{"events":[{"categories":["Music"],"eDate":"2025-03-15","eName":"BONEZ Festival","genre":"Rock","price":"$15.00 - 40.00","supports":[],"ticketUrl":null,"time":" 3pm"}],"vName":"The Penny Black"},"type":"Feature"},{"geometry":{"coordinates":[144.9651425,-37.8119429],"type":"Point"},"properties":{"events":[{"categories":["Music"],"eDate":"2025-03-15","eName":"Be Raucous","genre":"Jazz","price":"$23.46 - 33.66","supports":[],"ticketUrl":null,"time":" 7pm"},{"categories":["Free","Music"],"eDate":"2025-03-15","eName":"Decadance","genre":"Electronic","price":"Free","supports":[],"ticketUrl":null,"time":"11pm"}],"vName":"The Toff In Town"},"type":"Feature"},{"geometry":{"coordinates":[144.9846126,-37.7989941],"type":"Point"},"properties":{"events":[{"categories":["Music"],"eDate":"2025-03-15","eName":"Happy Tapes presents: GLOBOPHOBIA","genre":null,"price":"$16.35","supports":["Vanessa Worm"," Glass"," Prophetic Justice Ministry"],"ticketUrl":null,"time":" 8pm"}],"vName":"The Tote Hotel"},"type":"Feature"},{"geometry":{"coordinates":[144.9769450659087,-37.8055776],"type":"Point"},"properties":{"events":[{"categories":["Music"],"eDate":"2025-03-15","eName":"Lapidatus","genre":"Rock","price":"$15.00","supports":["The Regnans"," The Liffeys"],"ticketUrl":null,"time":" 1pm"},{"categories":["Music"],"eDate":"2025-03-15","eName":"Jaded State","genre":"Rock","price":"$12.75","supports":["Star Jock"," Cass Aware"],"ticketUrl":null,"time":" 8pm"}],"vName":"The Workers Club"},"type":"Feature"}],"type":"FeatureCollection"}