{"features":[{"geometry":{"coordinates":[144.9763781,-37.7983136],"type":"Point"},"properties":{"events":[{"categories":["Music"],"eDate":"2024-01-13","eName":"Wasteman: Summer Sessions","genre":"Rock","price":"$20.00","supports":["Keaper"," Lili-Violet"],"ticketUrl":null,"time":" 8pm"}],"vName":"Bad Decisions Bar"},"type":"Feature"},{"geometry":{"coordinates":[144.978425,-37.79773],"type":"Point"},"properties":{"events":[{"categories":["Music"],"eDate":"2024-01-13","eName":"Mel Francis & The Salty Rims","genre":"Jazz","price":"$17.35","supports":["Sarah Pink"," Ed Moon"],"ticketUrl":null,"time":" 8:30pm"}],"vName":"Bar Open"},"type":"Feature"},{"geometry":{"coordinates":[144.99266639479475,-37.82488935],"type":"Point"},"properties":{"events":[{"categories":["Music"],"eDate":"2024-01-13","eName":"Candlebox","genre":"Rock","price":"$87.40","supports":["Cicadastone"," The Revolation"],"ticketUrl":null,"time":" 8:30pm"}],"vName":"Corner Hotel"},"type":"Feature"},{"geometry":{"coordinates":[144.9875917,-37.7963837],"type":"Point"},"properties":{"events":[{"categories":["Free","Music"],"eDate":"2024-01-13","eName":"Summer Camp Festival","genre":"Punk","price":"Free","supports":["more"],"ticketUrl":null,"time":" 3pm"}],"vName":"Gem Bar"},"type":"Feature"},{"geometry":{"coordinates":[144.8971518,-37.8054274],"type":"Point"},"properties":{"events":[{"categories":["Free","Music"],"eDate":"2024-01-13","eName":"MAC The Band","genre":"R&B","price":"Free","supports":["Demie Bagnato"," Oscar Grant"],"ticketUrl":null,"time":" 7:30pm"}],"vName":"Mamma Chen's"},"type":"Feature"},{"geometry":{"coordinates":[144.998414,-37.771471],"type":"Point"},"properties":{"events":[{"categories":["Music"],"eDate":"2024-01-13","eName":"One Sixth + Discourse","genre":"Hip Hop","price":"$38.00","supports":["more"],"ticketUrl":null,"time":" 8:30pm"}],"vName":"Northcote Social Club"},"type":"Feature"},{"geometry":{"coordinates":[144.9631913,-37.7617818],"type":"Point"},"properties":{"events":[{"categories":["Music"],"eDate":"2024-01-13","eName":"Apricity & The Addictions","genre":"R&B","price":"$15.00","supports":[],"ticketUrl":null,"time":" 8pm"}],"vName":"Ringo Barr"},"type":"Feature"},{"geometry":{"coordinates":[144.9706095,-37.7783326],"type":"Point"},"properties":{"events":[{"categories":["Free","Music"],"eDate":"2024-01-13","eName":"Maquina Peligrosa","genre":"Rock","price":"Free","supports":["Plastic Section"," DJ The Knave"],"ticketUrl":null,"time":" 9pm"}],"vName":"The Beast"},"type":"Feature"},{"geometry":{"coordinates":[144.9657057,-37.8061581],"type":"Point"},"properties":{"events":[{"categories":["Music"],"eDate":"2024-01-13","eName":"Andy Golledge","genre":"Country/Folk","price":"$22.85","supports":[],"ticketUrl":null,"time":" 8pm"},{"categories":["Music"],"eDate":"2024-01-13","eName":"Buffalo Paradise","genre":"Rock","price":"$17.48","supports":[],"ticketUrl":null,"time":" 8pm"}],"vName":"The Curtin"},"type":"Feature"},{"geometry":{"coordinates":[144.9830837,-37.7988316],"type":"Point"},"properties":{"events":[{"categories":["Music"],"eDate":"2024-01-13","eName":"Sleeper Cell: x3butterfly","genre":"Electronic","price":"$34.90","supports":["Brown Suga Princess"," dampwetbody"," DJ Mum"," Kufa"," Rita Bass"," Sybaritic"],"ticketUrl":null,"time":" 9pm"}],"vName":"The Night Cat"},"type":"Feature"},{"geometry":{"coordinates":[144.9846126,-37.7989941],"type":"Point"},"properties":{"events":[{"categories":["Music"],"eDate":"2024-01-13","eName":"Contaminated","genre":"Metal","price":"$23.50","supports":["Cerebral Erosion"," Body Melt"," Blarghstrad"," Sufferance"],"ticketUrl":null,"time":" 8pm"}],"vName":"The Tote Hotel"},"type":"Feature"},{"geometry":{"coordinates":[144.9618426,-37.8125531],"type":"Point"},"properties":{"events":[{"categories":["Free","Music","Other \"Food & Drink\""],"eDate":"2024-01-13","eName":"Spaghetti Funk","genre":"Soul/Funk","price":"Free","supports":["DJ Tracksuit"],"ticketUrl":null,"time":" 5pm"}],"vName":"Whitehart Bar"},"type":"Feature"},{"geometry":{"coordinates":[144.9827552,-37.8041303],"type":"Point"},"properties":{"events":[{"categories":["Music"],"eDate":"2024-01-13","eName":"Chaperone","genre":"Punk","price":"$15.00","supports":[],"ticketUrl":null,"time":" 8pm"},{"categories":["Music"],"eDate":"2024-01-13","eName":"Saturday Night Party At Yah's","genre":"Pop","price":"$15.00","supports":[],"ticketUrl":null,"time":" 9pm"}],"vName":"Yah Yah's"},"type":"Feature"}],"type":"FeatureCollection"}