{"features":[{"geometry":{"coordinates":[145.5633428,-38.5479635],"type":"Point"},"properties":{"events":[{"categories":["Music"],"eDate":"2025-09-14","eName":"Fergs & The Wilderness Band","genre":"Blues","price":"$15.00","supports":["Greg Walker"," Rick Sands"],"ticketUrl":null,"time":" 2pm"}],"vName":"Archies Creek Hotel"},"type":"Feature"},{"geometry":{"coordinates":[144.9679835,-37.8201575],"type":"Point"},"properties":{"events":[{"categories":["Theatre"],"eDate":"2025-09-14","eName":"The Lark (Matinee Session)","genre":null,"price":"$72.00 - 94.00","supports":[],"ticketUrl":null,"time":" 1pm"},{"categories":["Theatre"],"eDate":"2025-09-14","eName":"The Lark","genre":null,"price":"$72.00 - 94.00","supports":[],"ticketUrl":null,"time":" 5pm"}],"vName":"Arts Centre Melbourne"},"type":"Feature"},{"geometry":{"coordinates":[144.978682,-37.7981225],"type":"Point"},"properties":{"events":[{"categories":["Free","Music"],"eDate":"2025-09-14","eName":"Lewis Ciavarella","genre":null,"price":"Free","supports":[],"ticketUrl":null,"time":" 9pm"}],"vName":"Baxter's Lot"},"type":"Feature"},{"geometry":{"coordinates":[144.9945274,-37.8001115],"type":"Point"},"properties":{"events":[{"categories":["Free","Music","Other \"Dance \"","Other \"Food \""],"eDate":"2025-09-14","eName":"Mexican Independence Day Party","genre":null,"price":"Free","supports":[],"ticketUrl":null,"time":" 2pm"}],"vName":"Bodriggy Brewing Company"},"type":"Feature"},{"geometry":{"coordinates":[144.9501312,-37.8042459],"type":"Point"},"properties":{"events":[{"categories":["Comedy"],"eDate":"2025-09-14","eName":"Sunday Night Comedy","genre":null,"price":"$10.00","supports":[],"ticketUrl":null,"time":" 7:30pm"}],"vName":"Club Voltaire"},"type":"Feature"},{"geometry":{"coordinates":[144.9926664,-37.8248893],"type":"Point"},"properties":{"events":[{"categories":["Music"],"eDate":"2025-09-14","eName":"Folk Bitch Trio","genre":"Country/Folk","price":"Free","supports":["Katy Kirby"," Milly Strange"],"ticketUrl":null,"time":" 7pm"}],"vName":"Corner Hotel"},"type":"Feature"},{"geometry":{"coordinates":[144.9777885,-37.8597831],"type":"Point"},"properties":{"events":[{"categories":["Music"],"eDate":"2025-09-14","eName":"Row Jerry Crow","genre":"Acoustic","price":"Free","supports":[],"ticketUrl":null,"time":" 6pm"}],"vName":"Freddie Wimpoles"},"type":"Feature"},{"geometry":{"coordinates":[144.9679835,-37.8201575],"type":"Point"},"properties":{"events":[{"categories":["Music"],"eDate":"2025-09-14","eName":"Advent Brass: 100 Year Celebration Charity Concert","genre":"Jazz","price":"$39.00","supports":[],"ticketUrl":null,"time":" 5pm"}],"vName":"Hamer Hall (Arts Centre Melbourne)"},"type":"Feature"},{"geometry":{"coordinates":[144.9936498,-37.8000264],"type":"Point"},"properties":{"events":[{"categories":["Free","Music"],"eDate":"2025-09-14","eName":"Shaky Stills","genre":"Country/Folk","price":"Free","supports":[],"ticketUrl":null,"time":" 4pm"}],"vName":"Lulie Tavern"},"type":"Feature"},{"geometry":{"coordinates":[144.9976902,-37.7745111],"type":"Point"},"properties":{"events":[{"categories":["Music"],"eDate":"2025-09-14","eName":"Bunjil & Paliyang","genre":"Acoustic","price":"$30.00","supports":[],"ticketUrl":null,"time":" 5pm"}],"vName":"Northcote Town Hall"},"type":"Feature"},{"geometry":{"coordinates":[144.9751557,-37.8057885],"type":"Point"},"properties":{"events":[{"categories":["Free","Music"],"eDate":"2025-09-14","eName":"Craig Woodward & Friends","genre":"Country/Folk","price":"Free","supports":["Pete & Tom Somerville"],"ticketUrl":null,"time":" 4pm"}],"vName":"The Catfish"},"type":"Feature"},{"geometry":{"coordinates":[144.9770425,-37.8588717],"type":"Point"},"properties":{"events":[{"categories":["Music"],"eDate":"2025-09-14","eName":"Magic Irish Celtic","genre":"Country/Folk","price":"Free","supports":[],"ticketUrl":null,"time":" 5pm"},{"categories":["Music"],"eDate":"2025-09-14","eName":"Joshua Batton","genre":"Acoustic","price":"Free","supports":[],"ticketUrl":null,"time":" 9pm"}],"vName":"The Fifth Province"},"type":"Feature"},{"geometry":{"coordinates":[144.9998797,-37.7616512],"type":"Point"},"properties":{"events":[{"categories":["Music"],"eDate":"2025-09-14","eName":"Jon S Williams & David Craven","genre":"Rock","price":"Free","supports":[],"ticketUrl":null,"time":" 5pm"}],"vName":"The Thornbury Local"},"type":"Feature"},{"geometry":{"coordinates":[144.9730268,-37.8148148],"type":"Point"},"properties":{"events":[{"categories":["Theatre"],"eDate":"2025-09-14","eName":"Othello","genre":null,"price":"$35.00 - 49.00","supports":[],"ticketUrl":null,"time":" 5pm"}],"vName":"fortyfivedownstairs"},"type":"Feature"}],"type":"FeatureCollection"}