{"features":[{"geometry":{"coordinates":[144.9763781,-37.7983136],"type":"Point"},"properties":{"events":[{"categories":["Music"],"eDate":"2024-03-02","eName":"TECHNO PLAZA 2","genre":"Electronic","price":"$16.53","supports":["Toy Bolton"," Hyasynth"," Lostley"," Olympia Nahtalia"],"ticketUrl":null,"time":" 7:30pm"}],"vName":"Bad Decisions Bar"},"type":"Feature"},{"geometry":{"coordinates":[144.9607158,-37.776327],"type":"Point"},"properties":{"events":[{"categories":["Music"],"eDate":"2024-03-02","eName":"Dopplerhaus","genre":null,"price":"$15.00","supports":["Fairtrade Narcotics"," The Carp Factory"],"ticketUrl":null,"time":" 8pm"},{"categories":["Music"],"eDate":"2024-03-02","eName":"Dopplerhaus","genre":"Soul/Funk","price":"$16.85","supports":["Fairtrade Narcotics"," The Carp Factory"],"ticketUrl":null,"time":" 8pm"}],"vName":"Bergy Bandroom"},"type":"Feature"},{"geometry":{"coordinates":[144.9617018,-37.7704566],"type":"Point"},"properties":{"events":[{"categories":["Music"],"eDate":"2024-03-02","eName":"Soweto Gospel Choir: HOPE","genre":"Global","price":"$79.90","supports":[],"ticketUrl":null,"time":" 7:30pm"}],"vName":"Brunswick Ballroom"},"type":"Feature"},{"geometry":{"coordinates":[144.9947908,-37.8491931],"type":"Point"},"properties":{"events":[{"categories":["Music"],"eDate":"2024-03-02","eName":"Katy Steele: Chapel Sessions","genre":"Indie","price":"$40.00","supports":[],"ticketUrl":null,"time":" 8pm"}],"vName":"Chapel Off Chapel"},"type":"Feature"},{"geometry":{"coordinates":[144.99266639479475,-37.82488935],"type":"Point"},"properties":{"events":[{"categories":["Music"],"eDate":"2024-03-02","eName":"When Chai Met Toast","genre":"Indie","price":"$59.00","supports":[],"ticketUrl":null,"time":" 8:30pm"}],"vName":"Corner Hotel"},"type":"Feature"},{"geometry":{"coordinates":[144.973013,-37.8640582],"type":"Point"},"properties":{"events":[{"categories":["Music"],"eDate":"2024-03-02","eName":"Client Liaison","genre":"Pop","price":"$44.40","supports":[],"ticketUrl":null,"time":" 8pm"}],"vName":"Hotel Esplanade (aka The Espy)"},"type":"Feature"},{"geometry":{"coordinates":[145.0293642,-37.8073947],"type":"Point"},"properties":{"events":[{"categories":["Music"],"eDate":"2024-03-02","eName":"Tanya George","genre":null,"price":"$22.00 - 28.00","supports":[],"ticketUrl":null,"time":" 8pm"}],"vName":"Kew Court House"},"type":"Feature"},{"geometry":{"coordinates":[144.9764962,-37.7983139],"type":"Point"},"properties":{"events":[{"categories":["Music"],"eDate":"2024-03-02","eName":"FLOW - UNDFND","genre":"Hip Hop","price":"$15.00","supports":["Lawllo"," Aria"," Freeman"," Black Potion"],"ticketUrl":null,"time":" 8pm"},{"categories":["Music"],"eDate":"2024-03-02","eName":"LAUNDRY - Saturdays","genre":null,"price":"$16.53","supports":[],"ticketUrl":null,"time":" 9pm"},{"categories":["Music"],"eDate":"2024-03-02","eName":"Vultures 1 Listening Party","genre":"Hip Hop","price":"$11.36","supports":[],"ticketUrl":null,"time":"10pm"}],"vName":"Laundry Bar"},"type":"Feature"},{"geometry":{"coordinates":[144.8971518,-37.8054274],"type":"Point"},"properties":{"events":[{"categories":["Free","Music"],"eDate":"2024-03-02","eName":"Noah & The Coldmen","genre":null,"price":"Free","supports":["Jayris"," Stella Delmenico"],"ticketUrl":null,"time":" 7pm"}],"vName":"Mamma Chen's"},"type":"Feature"},{"geometry":{"coordinates":[144.96741062735794,-37.82454855],"type":"Point"},"properties":{"events":[{"categories":["Music"],"eDate":"2024-03-02","eName":"Yirinda","genre":"Indie","price":"$37.00","supports":[],"ticketUrl":null,"time":" 7pm"}],"vName":"Melbourne Recital Centre"},"type":"Feature"},{"geometry":{"coordinates":[144.998414,-37.771471],"type":"Point"},"properties":{"events":[{"categories":["Music"],"eDate":"2024-03-02","eName":"Tom Snowdon","genre":"Indie","price":"$24.90","supports":[],"ticketUrl":null,"time":" 8:30pm"}],"vName":"Northcote Social Club"},"type":"Feature"},{"geometry":{"coordinates":[144.9977626,-37.7755001],"type":"Point"},"properties":{"events":[{"categories":["Music"],"eDate":"2024-03-02","eName":"Super Concert: Sergio Vargas & Osvaldo Roman","genre":"Global","price":"$112.30 - 132.70","supports":[],"ticketUrl":null,"time":" 6pm"}],"vName":"Northcote Theatre"},"type":"Feature"},{"geometry":{"coordinates":[145.1244456,-38.1471263],"type":"Point"},"properties":{"events":[{"categories":["Music"],"eDate":"2024-03-02","eName":"Coterie","genre":"Rock","price":"$51.00","supports":[],"ticketUrl":null,"time":" 8:30pm"}],"vName":"Pier Bandroom"},"type":"Feature"},{"geometry":{"coordinates":[144.9615882,-37.7711432],"type":"Point"},"properties":{"events":[{"categories":["Music"],"eDate":"2024-03-02","eName":"Font: \"Coburg-19\" LP Launch","genre":"Rock","price":"$17.95","supports":["The Rockin' Pelmets"," Gavin!"],"ticketUrl":null,"time":" 7pm"}],"vName":"Retreat Hotel"},"type":"Feature"},{"geometry":{"coordinates":[144.9878631,-37.9220954],"type":"Point"},"properties":{"events":[{"categories":["Music"],"eDate":"2024-03-02","eName":"Lipstick On Your Collar: Hits of the 50's & 60's - Tamara Kuldin & The Heartbreakers","genre":"Jazz","price":"$50.00","supports":[],"ticketUrl":null,"time":" 8:30pm"}],"vName":"Royal Brighton Yacht Club"},"type":"Feature"},{"geometry":{"coordinates":[144.965405,-37.8117457],"type":"Point"},"properties":{"events":[{"categories":["Free","Music"],"eDate":"2024-03-02","eName":"Barely Legal: Day 3 of Section 8's 18th Birthday","genre":"Electronic","price":"Free","supports":[],"ticketUrl":null,"time":" 6pm"}],"vName":"Section 8"},"type":"Feature"},{"geometry":{"coordinates":[144.99959550357977,-37.762376950000004],"type":"Point"},"properties":{"events":[{"categories":["Music"],"eDate":"2024-03-02","eName":"Pop Will Eat Itself","genre":"Rock","price":"$79.90","supports":["Jesus Jones"],"ticketUrl":null,"time":" 8pm"}],"vName":"The Croxton"},"type":"Feature"},{"geometry":{"coordinates":[144.9968036,-37.7794807],"type":"Point"},"properties":{"events":[{"categories":["Free","Music"],"eDate":"2024-03-02","eName":"Private Stash","genre":null,"price":"Free","supports":["The Flickering Stars"],"ticketUrl":null,"time":" 8pm"}],"vName":"The Merri Creek Tavern"},"type":"Feature"},{"geometry":{"coordinates":[144.9651425,-37.8119429],"type":"Point"},"properties":{"events":[{"categories":["Music"],"eDate":"2024-03-02","eName":"Ozone In The City","genre":"Rock","price":"$12.24 - 17.34","supports":["Big Moist & The Smoking Durries"," Dear Matilda"],"ticketUrl":null,"time":" 7:30pm"}],"vName":"The Toff In Town"},"type":"Feature"},{"geometry":{"coordinates":[144.9846126,-37.7989941],"type":"Point"},"properties":{"events":[{"categories":["Music"],"eDate":"2024-03-02","eName":"The Porkers","genre":"Punk","price":"$34.20","supports":["Krackers & Koolaid"," Get Jaxxed"," Lucid Aux"],"ticketUrl":null,"time":" 8pm"}],"vName":"The Tote Hotel"},"type":"Feature"},{"geometry":{"coordinates":[144.9769450659087,-37.8055776],"type":"Point"},"properties":{"events":[{"categories":["Music"],"eDate":"2024-03-02","eName":"Vending Machine Repairmen","genre":null,"price":"$15.00","supports":["Ambulance"," Zero City"],"ticketUrl":null,"time":" 1pm"}],"vName":"The Workers Club"},"type":"Feature"},{"geometry":{"coordinates":[144.9706095,-37.7783326],"type":"Point"},"properties":{"events":[{"categories":["Music"],"eDate":"2024-03-02","eName":"A Gazillion Angry Mexicans","genre":"Punk","price":"$15.00","supports":["Planet Of The 8s"," The Balls"],"ticketUrl":null,"time":" 7:30pm"}],"vName":"Whole Lotta Love"},"type":"Feature"},{"geometry":{"coordinates":[144.8946587,-37.8151254],"type":"Point"},"properties":{"events":[{"categories":["Music"],"eDate":"2024-03-02","eName":"Scarecrow: The Mellencamp Show","genre":"Rock","price":"$35.00","supports":[],"ticketUrl":null,"time":" 8pm"}],"vName":"Yarraville Club"},"type":"Feature"}],"type":"FeatureCollection"}