{"features":[{"geometry":{"coordinates":[144.978682,-37.7981225],"type":"Point"},"properties":{"events":[{"categories":["Free","Music"],"eDate":"2024-08-13","eName":"Xander + Tom Ellis","genre":null,"price":"Free","supports":[],"ticketUrl":null,"time":" 9:30pm"}],"vName":"Baxter's Lot"},"type":"Feature"},{"geometry":{"coordinates":[144.9679835243618,-37.8201575],"type":"Point"},"properties":{"events":[{"categories":["Music"],"eDate":"2024-08-13","eName":"Genazzano: 135 Years of Music","genre":"Classical","price":"$25.00","supports":[],"ticketUrl":null,"time":" 7pm"}],"vName":"Hamer Hall (Arts Centre Melbourne)"},"type":"Feature"},{"geometry":{"coordinates":[144.96741062735794,-37.82454855],"type":"Point"},"properties":{"events":[{"categories":["Music"],"eDate":"2024-08-13","eName":"Partridge String Quartet: Relaxed Performance (Early Session)","genre":"Classical","price":"$10.00","supports":[],"ticketUrl":null,"time":"10:30am"},{"categories":["Music"],"eDate":"2024-08-13","eName":"Partridge String Quartet: Relaxed Performance","genre":"Classical","price":"$10.00","supports":[],"ticketUrl":null,"time":"12pm"},{"categories":["Music"],"eDate":"2024-08-13","eName":"Augustin Hadelich","genre":"Acoustic","price":"$77.00","supports":[],"ticketUrl":null,"time":" 7:30pm"}],"vName":"Melbourne Recital Centre"},"type":"Feature"},{"geometry":{"coordinates":[144.97711,-37.79833],"type":"Point"},"properties":{"events":[{"categories":["Music"],"eDate":"2024-08-13","eName":"Visualaudio Fest 2024: Opening Night","genre":null,"price":"$10.00","supports":["Kramas"," Brand"],"ticketUrl":null,"time":" 7pm"}],"vName":"Old Bar"},"type":"Feature"},{"geometry":{"coordinates":[144.9706095,-37.7783326],"type":"Point"},"properties":{"events":[{"categories":["Free","Trivia"],"eDate":"2024-08-13","eName":"Trivia Tuesdays","genre":null,"price":"Free","supports":[],"ticketUrl":null,"time":" 8pm"}],"vName":"The Beast"},"type":"Feature"},{"geometry":{"coordinates":[144.9708437,-37.7973184],"type":"Point"},"properties":{"events":[{"categories":["Free","Comedy"],"eDate":"2024-08-13","eName":"Corner Shop Comedy: Indie Improv Night","genre":null,"price":"Free","supports":[],"ticketUrl":null,"time":" 6pm"},{"categories":["Art"],"eDate":"2024-08-13","eName":"Paper Play: A Collage Art Workshop","genre":null,"price":"$20.00 - 25.00","supports":[],"ticketUrl":null,"time":" 6pm"}],"vName":"The Motley Bauhaus"},"type":"Feature"},{"geometry":{"coordinates":[144.9983987,-37.7729204],"type":"Point"},"properties":{"events":[{"categories":["Music","Comedy","Other \"Spoken Word\"","Other \"Poetry & Forums\"","Other \"Cabaret\""],"eDate":"2024-08-13","eName":"In Bed with Amy & Friends: August","genre":"Pop","price":"$30.60","supports":[],"ticketUrl":null,"time":" 7:15pm"}],"vName":"Wesley Anne"},"type":"Feature"}],"type":"FeatureCollection"}