{"features":[{"geometry":{"coordinates":[144.978425,-37.79773],"type":"Point"},"properties":{"events":[{"categories":["Free","Music"],"eDate":"2024-01-12","eName":"Three Base Hit","genre":"Jazz","price":"Free","supports":[],"ticketUrl":null,"time":" 6pm"},{"categories":["Music"],"eDate":"2024-01-12","eName":"Splitlanes","genre":null,"price":"$17.35","supports":["Chaos Theory Orchestra"," Nausicaa"],"ticketUrl":null,"time":" 8:30pm"}],"vName":"Bar Open"},"type":"Feature"},{"geometry":{"coordinates":[144.9945274,-37.8001115],"type":"Point"},"properties":{"events":[{"categories":["Free","Music","Other \"Food & Drink\""],"eDate":"2024-01-12","eName":"Hausm8s + Antiphon + Esther (Live)","genre":null,"price":"Free","supports":["Lessthanrem"],"ticketUrl":null,"time":" 5pm"}],"vName":"Bodriggy Brewing Company"},"type":"Feature"},{"geometry":{"coordinates":[144.9617018,-37.7704566],"type":"Point"},"properties":{"events":[{"categories":["Free","Music"],"eDate":"2024-01-12","eName":"Power Ballads","genre":"Pop","price":"Free","supports":[],"ticketUrl":null,"time":" 7pm"}],"vName":"Brunswick Artists' Bar"},"type":"Feature"},{"geometry":{"coordinates":[144.9617018,-37.7704566],"type":"Point"},"properties":{"events":[{"categories":["Music","Theatre","Dance"],"eDate":"2024-01-12","eName":"Night Of Power: Power Ballad Club Night","genre":null,"price":"$20.00","supports":[],"ticketUrl":null,"time":" 8pm"}],"vName":"Brunswick Ballroom"},"type":"Feature"},{"geometry":{"coordinates":[144.9713425,-37.8128595],"type":"Point"},"properties":{"events":[{"categories":["Music"],"eDate":"2024-01-12","eName":"RAMBAL","genre":"Rock","price":"$17.48","supports":[],"ticketUrl":null,"time":" 8pm"}],"vName":"Cherry Bar"},"type":"Feature"},{"geometry":{"coordinates":[144.98535244416098,-37.79426315],"type":"Point"},"properties":{"events":[{"categories":["Free","Music","Other \"Food & Drink\""],"eDate":"2024-01-12","eName":"Birdsnake + Intermood","genre":null,"price":"$23.50","supports":["Skinny Wizard"," Strange Interactions"," RAKHI"," Whalen Smithers"," Spin Diesel"],"ticketUrl":null,"time":" 7pm"}],"vName":"Gasometer Hotel"},"type":"Feature"},{"geometry":{"coordinates":[144.9875917,-37.7963837],"type":"Point"},"properties":{"events":[{"categories":["Music"],"eDate":"2024-01-12","eName":"Raging Hormones + Spacerhead","genre":"Punk","price":"Free","supports":[],"ticketUrl":null,"time":" 8pm"}],"vName":"Gem Bar"},"type":"Feature"},{"geometry":{"coordinates":[144.9970761,-37.8766692],"type":"Point"},"properties":{"events":[{"categories":["Music"],"eDate":"2024-01-12","eName":"The Tonalists","genre":null,"price":"$10.00","supports":[],"ticketUrl":null,"time":" 8pm"}],"vName":"Lyrebird Lounge"},"type":"Feature"},{"geometry":{"coordinates":[144.9786817,-37.8671902],"type":"Point"},"properties":{"events":[{"categories":["Music"],"eDate":"2024-01-12","eName":"The Great Gig In The Sky","genre":null,"price":"$33.00 - 53.00","supports":[],"ticketUrl":null,"time":" 7pm"}],"vName":"Memo Music Hall"},"type":"Feature"},{"geometry":{"coordinates":[145.3553553,-37.9078552],"type":"Point"},"properties":{"events":[{"categories":["Free","Music","Other \"Food & Drink\""],"eDate":"2024-01-12","eName":"Jon Collins","genre":"Acoustic","price":"Free","supports":[],"ticketUrl":null,"time":" 7pm"}],"vName":"Micawber Tavern"},"type":"Feature"},{"geometry":{"coordinates":[144.9631913,-37.7617818],"type":"Point"},"properties":{"events":[{"categories":["Free","Music"],"eDate":"2024-01-12","eName":"Kelsey Jean & The Bad Health + Cari Scharl","genre":null,"price":"Free","supports":[],"ticketUrl":null,"time":" 8pm"}],"vName":"Ringo Barr"},"type":"Feature"},{"geometry":{"coordinates":[144.9706095,-37.7783326],"type":"Point"},"properties":{"events":[{"categories":["Free","Music"],"eDate":"2024-01-12","eName":"The CB3 + Xani","genre":"Soul/Funk","price":"Free","supports":[],"ticketUrl":null,"time":" 9pm"}],"vName":"The Beast"},"type":"Feature"},{"geometry":{"coordinates":[144.9555612,-37.8066759],"type":"Point"},"properties":{"events":[{"categories":["Free","Music"],"eDate":"2024-01-12","eName":"Daniel Watkins & Justin Vilchez","genre":null,"price":"Free","supports":["Jim Taylor"],"ticketUrl":null,"time":" 8:30pm"}],"vName":"The Drunken Poet"},"type":"Feature"},{"geometry":{"coordinates":[144.9830837,-37.7988316],"type":"Point"},"properties":{"events":[{"categories":["Music"],"eDate":"2024-01-12","eName":"Summer Sessions: DJ Luv You, Colette & Mothafunk","genre":null,"price":"$10.00","supports":[],"ticketUrl":null,"time":"10pm"}],"vName":"The Night Cat"},"type":"Feature"},{"geometry":{"coordinates":[144.9846126,-37.7989941],"type":"Point"},"properties":{"events":[{"categories":["Music"],"eDate":"2024-01-12","eName":"Better Than Sex","genre":"Punk","price":"$11.25","supports":["Fluxcore 94"," Terra Rouge"," Persecution Blues"],"ticketUrl":null,"time":" 8pm"},{"categories":["Music"],"eDate":"2024-01-12","eName":"Steel Wheels + SUO","genre":"Indie","price":"$20.00","supports":["Hanny J"],"ticketUrl":null,"time":" 8:30pm"}],"vName":"The Tote Hotel"},"type":"Feature"},{"geometry":{"coordinates":[144.9618426,-37.8125531],"type":"Point"},"properties":{"events":[{"categories":["Free","Music","Other \"Food & Drink\""],"eDate":"2024-01-12","eName":"In Motion","genre":null,"price":"Free","supports":[],"ticketUrl":null,"time":" 6pm"}],"vName":"Whitehart Bar"},"type":"Feature"},{"geometry":{"coordinates":[144.9827552,-37.8041303],"type":"Point"},"properties":{"events":[{"categories":["Music"],"eDate":"2024-01-12","eName":"Drunk Mums","genre":"Punk","price":"$20.00","supports":[],"ticketUrl":null,"time":" 8pm"}],"vName":"Yah Yah's"},"type":"Feature"}],"type":"FeatureCollection"}