{"features":[{"geometry":{"coordinates":[144.978682,-37.7981225],"type":"Point"},"properties":{"events":[{"categories":["Free","Music"],"eDate":"2024-08-23","eName":"Lewis Toms","genre":null,"price":"Free","supports":[],"ticketUrl":null,"time":" 9:30pm"},{"categories":["Music"],"eDate":"2024-08-23","eName":"Montana","genre":"Indie","price":"Free","supports":[],"ticketUrl":null,"time":"10pm"}],"vName":"Baxter's Lot"},"type":"Feature"},{"geometry":{"coordinates":[144.9713425,-37.8128595],"type":"Point"},"properties":{"events":[{"categories":["Music"],"eDate":"2024-08-23","eName":"SPY v SPY","genre":"Rock","price":"$38.91","supports":[],"ticketUrl":null,"time":" 8pm"}],"vName":"Cherry Bar"},"type":"Feature"},{"geometry":{"coordinates":[144.99266639479475,-37.82488935],"type":"Point"},"properties":{"events":[{"categories":["Music"],"eDate":"2024-08-23","eName":"The Southern River Band","genre":"Rock","price":"$46.00","supports":[],"ticketUrl":null,"time":" 8pm"}],"vName":"Corner Hotel"},"type":"Feature"},{"geometry":{"coordinates":[144.9875917,-37.7963837],"type":"Point"},"properties":{"events":[{"categories":["Free","Music"],"eDate":"2024-08-23","eName":"The Brakes: August Residency","genre":"Rock","price":"Free","supports":["J.Taylor & The Ding Dongs"],"ticketUrl":null,"time":" 6pm"},{"categories":["Free","Music"],"eDate":"2024-08-23","eName":"The Brakes + J.Taylor Bell & The Ding Dongs","genre":"Rock","price":"Free","supports":[],"ticketUrl":null,"time":" 8pm"}],"vName":"Gem Bar"},"type":"Feature"},{"geometry":{"coordinates":[144.9787445,-37.7967357],"type":"Point"},"properties":{"events":[{"categories":["Music"],"eDate":"2024-08-23","eName":"Interval Fridays","genre":"Electronic","price":"$15.00 - 25.00","supports":[],"ticketUrl":null,"time":"10pm"}],"vName":"Glamorama"},"type":"Feature"},{"geometry":{"coordinates":[144.983442,-37.804851],"type":"Point"},"properties":{"events":[{"categories":["Music"],"eDate":"2024-08-23","eName":"Mia Marcelle","genre":"Indie","price":"$15.00","supports":["The Mirrors"," Kisses"],"ticketUrl":null,"time":" 8pm"}],"vName":"Grace Darling Hotel"},"type":"Feature"},{"geometry":{"coordinates":[144.973013,-37.8640582],"type":"Point"},"properties":{"events":[{"categories":["Music"],"eDate":"2024-08-23","eName":"Dolly Disco","genre":"Soul/Funk","price":"$11.75 - 22.95","supports":[],"ticketUrl":null,"time":"11:30pm"}],"vName":"Hotel Esplanade (aka The Espy)"},"type":"Feature"},{"geometry":{"coordinates":[144.9596527,-37.7720304],"type":"Point"},"properties":{"events":[{"categories":["Music"],"eDate":"2024-08-23","eName":"Full Flower Moon Band","genre":"Rock","price":"$33.66","supports":[],"ticketUrl":null,"time":" 8pm"}],"vName":"Howler"},"type":"Feature"},{"geometry":{"coordinates":[144.8971518,-37.8054274],"type":"Point"},"properties":{"events":[{"categories":["Free","Music"],"eDate":"2024-08-23","eName":"Velo De Flor","genre":null,"price":"Free","supports":["Darcy Gilkerson Quintet"," Ozxash"],"ticketUrl":null,"time":" 7pm"}],"vName":"Mamma Chen's"},"type":"Feature"},{"geometry":{"coordinates":[144.9786817,-37.8671902],"type":"Point"},"properties":{"events":[{"categories":["Music","Theatre","Other \"Food & Drink\""],"eDate":"2024-08-23","eName":"Jeff Buckley's Grace: 30th Anniversary","genre":null,"price":"$45.00 - 60.00","supports":[],"ticketUrl":null,"time":" 7pm"}],"vName":"Memo Music Hall"},"type":"Feature"},{"geometry":{"coordinates":[145.3553553,-37.9078552],"type":"Point"},"properties":{"events":[{"categories":["Free","Music"],"eDate":"2024-08-23","eName":"Playlist Acoustic Duo","genre":null,"price":"Free","supports":[],"ticketUrl":null,"time":" 7pm"}],"vName":"Micawber Tavern"},"type":"Feature"},{"geometry":{"coordinates":[144.9712356,-37.812902],"type":"Point"},"properties":{"events":[{"categories":["Comedy"],"eDate":"2024-08-23","eName":"Basement Comedy Club","genre":null,"price":"$24.00","supports":["more"],"ticketUrl":null,"time":" 8pm"}],"vName":"Morris House"},"type":"Feature"},{"geometry":{"coordinates":[144.96892412239615,-37.82266345],"type":"Point"},"properties":{"events":[{"categories":["Music"],"eDate":"2024-08-23","eName":"NGV Friday Nights: Tempo Rubato curates Katie Yap & Donald Nicolson","genre":"Classical","price":"$45.00","supports":[],"ticketUrl":null,"time":" 6pm"}],"vName":"NGV - National Gallery of Victoria"},"type":"Feature"},{"geometry":{"coordinates":[144.998414,-37.771471],"type":"Point"},"properties":{"events":[{"categories":["Music"],"eDate":"2024-08-23","eName":"Ella Thompson","genre":"Soul/Funk","price":"$36.50","supports":[],"ticketUrl":null,"time":" 9pm"}],"vName":"Northcote Social Club"},"type":"Feature"},{"geometry":{"coordinates":[144.9977626,-37.7755001],"type":"Point"},"properties":{"events":[{"categories":["Other \"Cabaret\""],"eDate":"2024-08-23","eName":"Burlesque with Evana De Lune","genre":null,"price":"$76.37","supports":[],"ticketUrl":null,"time":" 7pm"}],"vName":"Northcote Theatre"},"type":"Feature"},{"geometry":{"coordinates":[144.97711,-37.79833],"type":"Point"},"properties":{"events":[{"categories":["Music"],"eDate":"2024-08-23","eName":"Twins Sport","genre":"Rock","price":"$15.00","supports":["Flyying Colours"," Slomo"," Eileen Grace"],"ticketUrl":null,"time":" 8pm"}],"vName":"Old Bar"},"type":"Feature"},{"geometry":{"coordinates":[144.9605705,-37.8132486],"type":"Point"},"properties":{"events":[{"categories":["Music"],"eDate":"2024-08-23","eName":"Love Deluxe: Sade Tribute","genre":"Jazz","price":"$45.00","supports":[],"ticketUrl":null,"time":" 6pm"},{"categories":["Music"],"eDate":"2024-08-23","eName":"The Music of Mobley","genre":"Soul/Funk","price":"$45.00","supports":[],"ticketUrl":null,"time":" 6:30pm"},{"categories":["Music"],"eDate":"2024-08-23","eName":"Nardia Presents: The Songbook Of Eva Cassidy","genre":"Jazz","price":"$45.00","supports":[],"ticketUrl":null,"time":" 9pm"},{"categories":["Music"],"eDate":"2024-08-23","eName":"The Mile High Club with Pat Thiele","genre":"Jazz","price":"$40.00","supports":[],"ticketUrl":null,"time":" 9:30pm"}],"vName":"Paris Cat Jazz Club"},"type":"Feature"},{"geometry":{"coordinates":[144.9408908,-37.8402429],"type":"Point"},"properties":{"events":[{"categories":["Music"],"eDate":"2024-08-23","eName":"Swingin' Jazz n Cool Blues with The Jackson Combo","genre":null,"price":"Free","supports":[],"ticketUrl":null,"time":" 6pm"},{"categories":["Free","Music"],"eDate":"2024-08-23","eName":"The Jackson Combo Blues Quartet","genre":null,"price":"Free","supports":[],"ticketUrl":null,"time":" 9pm"}],"vName":"Prince Alfred Hotel"},"type":"Feature"},{"geometry":{"coordinates":[144.9615882,-37.7711432],"type":"Point"},"properties":{"events":[{"categories":["Music"],"eDate":"2024-08-23","eName":"Planet Bitchy Party","genre":"Pop","price":"$20.00","supports":["Vigilantonie"," The Salmon Sisters"],"ticketUrl":null,"time":" 7:30pm"},{"categories":["Music"],"eDate":"2024-08-23","eName":"Planet Bitchy Party","genre":null,"price":"$15.00","supports":["Vigilantonie"," The Salmon Sisters"," Lukasaurus Rex"],"ticketUrl":null,"time":" 7:30pm"}],"vName":"Retreat Hotel"},"type":"Feature"},{"geometry":{"coordinates":[144.9631913,-37.7617818],"type":"Point"},"properties":{"events":[{"categories":["Free","Music"],"eDate":"2024-08-23","eName":"Bleeding Peach","genre":null,"price":"Free","supports":["The Frud"," Momoko Rose"," Rickfean"],"ticketUrl":null,"time":" 8pm"}],"vName":"Ringo Barr"},"type":"Feature"},{"geometry":{"coordinates":[144.9607404,-37.7743469],"type":"Point"},"properties":{"events":[{"categories":["Music"],"eDate":"2024-08-23","eName":"Stay Gold All Stars: Lamb of God","genre":"Metal","price":"$18.40 - 24.50","supports":["Identity Error"," Blight"],"ticketUrl":null,"time":" 7pm"},{"categories":["Music"],"eDate":"2024-08-23","eName":"Abyssal presents Late Night Liquid","genre":"Electronic","price":"$5.00","supports":[],"ticketUrl":null,"time":"11pm"},{"categories":["Music"],"eDate":"2024-08-23","eName":"Late Night Liquid","genre":"Electronic","price":"$5.00","supports":[],"ticketUrl":null,"time":"11pm"}],"vName":"Stay Gold"},"type":"Feature"},{"geometry":{"coordinates":[144.9585654,-37.8059962],"type":"Point"},"properties":{"events":[{"categories":["Music"],"eDate":"2024-08-23","eName":"Eight Count","genre":"Metal","price":"$16.35","supports":["Demise"," Seven Hells"," False Dichotomy"],"ticketUrl":null,"time":" 8pm"}],"vName":"The Last Chance Rock & Roll Bar"},"type":"Feature"},{"geometry":{"coordinates":[144.9708437,-37.7973184],"type":"Point"},"properties":{"events":[{"categories":["Music"],"eDate":"2024-08-23","eName":"Motley Artist Showcase","genre":"Indie","price":"$15.20","supports":[],"ticketUrl":null,"time":" 7pm"},{"categories":["Comedy"],"eDate":"2024-08-23","eName":"Andy Balloch & Justin Porter: Linda (WIP)","genre":null,"price":"$5.07","supports":[],"ticketUrl":null,"time":" 7pm"}],"vName":"The Motley Bauhaus"},"type":"Feature"},{"geometry":{"coordinates":[144.2195296,-37.0651041],"type":"Point"},"properties":{"events":[{"categories":["Music"],"eDate":"2024-08-23","eName":"The Stems: 40th Anniversary Tour","genre":"Rock","price":"$50.00","supports":["The Prize"],"ticketUrl":null,"time":" 7pm"}],"vName":"Theatre Royal Castlemaine"},"type":"Feature"},{"geometry":{"coordinates":[144.9618426,-37.8125531],"type":"Point"},"properties":{"events":[{"categories":["Free","Music"],"eDate":"2024-08-23","eName":"The Hot House","genre":null,"price":"Free","supports":["T.Bracey"],"ticketUrl":null,"time":" 4pm"}],"vName":"Whitehart Bar"},"type":"Feature"}],"type":"FeatureCollection"}