{"features":[{"geometry":{"coordinates":[144.978682,-37.7981225],"type":"Point"},"properties":{"events":[{"categories":["Free","Music"],"eDate":"2024-11-24","eName":"HH & Sax Gawn","genre":null,"price":"Free","supports":[],"ticketUrl":null,"time":" 9pm"}],"vName":"Baxter's Lot"},"type":"Feature"},{"geometry":{"coordinates":[144.9945274,-37.8001115],"type":"Point"},"properties":{"events":[{"categories":["Free","Music","Dance","Other \"Food & Drink\""],"eDate":"2024-11-24","eName":"Buck Dancer's Last Choice + Bootscootin'","genre":null,"price":"Free","supports":[],"ticketUrl":null,"time":" 1:30pm"}],"vName":"Bodriggy Brewing Company"},"type":"Feature"},{"geometry":{"coordinates":[144.9628440552175,-37.76100605],"type":"Point"},"properties":{"events":[{"categories":["Free","Music"],"eDate":"2024-11-24","eName":"Steamboat Whistlers","genre":null,"price":"Free","supports":[],"ticketUrl":null,"time":" 4pm"}],"vName":"Edinburgh Castle Hotel"},"type":"Feature"},{"geometry":{"coordinates":[144.8971518,-37.8054274],"type":"Point"},"properties":{"events":[{"categories":["Free","Music"],"eDate":"2024-11-24","eName":"Solo Sessions: An Afternoon of Acoustic Music","genre":null,"price":"$10.00 - 15.00","supports":["Alice Hurwood"," Thomasin"],"ticketUrl":null,"time":" 2pm"},{"categories":["Free","Music"],"eDate":"2024-11-24","eName":"Melbourne Chiptune Academy: November Meetup & Open Mic Session","genre":null,"price":"Free","supports":[],"ticketUrl":null,"time":" 6pm"}],"vName":"Mamma Chen's"},"type":"Feature"},{"geometry":{"coordinates":[144.96741062735794,-37.82454855],"type":"Point"},"properties":{"events":[{"categories":["Music"],"eDate":"2024-11-24","eName":"Melbourne Chamber Orchestra: Handel's Messiah","genre":"Classical","price":"$70.00","supports":[],"ticketUrl":null,"time":" 2:30pm"},{"categories":["Music"],"eDate":"2024-11-24","eName":"Duo Eclettico & Helen Morse: A Trillion Tiny Awakenings","genre":null,"price":"$37.00","supports":[],"ticketUrl":null,"time":" 7pm"}],"vName":"Melbourne Recital Centre"},"type":"Feature"},{"geometry":{"coordinates":[144.97711,-37.79833],"type":"Point"},"properties":{"events":[{"categories":["Music"],"eDate":"2024-11-24","eName":"Snailgun + Video Nasty","genre":null,"price":"$15.00","supports":["Purrers"," Flocks"," The Cars That Ate Paris"],"ticketUrl":null,"time":" 7pm"}],"vName":"Old Bar"},"type":"Feature"},{"geometry":{"coordinates":[144.9657057,-37.8061581],"type":"Point"},"properties":{"events":[{"categories":["Music"],"eDate":"2024-11-24","eName":"Always Live: Meganesia","genre":"Hip Hop","price":"$17.75","supports":["Tasman Keith"," Kee'ahn"," Sprigga Mek"," Sorong Samarai"," Desiz"," Airileke"," more"],"ticketUrl":null,"time":" 6pm"}],"vName":"The Curtin"},"type":"Feature"},{"geometry":{"coordinates":[144.9585654,-37.8059962],"type":"Point"},"properties":{"events":[{"categories":["Music"],"eDate":"2024-11-24","eName":"Sunday Slaughter","genre":"Metal","price":"$11.25","supports":[],"ticketUrl":null,"time":" 7pm"}],"vName":"The Last Chance Rock & Roll Bar"},"type":"Feature"},{"geometry":{"coordinates":[144.9708437,-37.7973184],"type":"Point"},"properties":{"events":[{"categories":["Music","Theatre"],"eDate":"2024-11-24","eName":"Hidden Tunes 弦外之影 Musical","genre":null,"price":"$25.00 - 40.00","supports":[],"ticketUrl":null,"time":" 7:30pm"}],"vName":"The Motley Bauhaus"},"type":"Feature"},{"geometry":{"coordinates":[144.9769450659087,-37.8055776],"type":"Point"},"properties":{"events":[{"categories":["Free","Music","Other \"Spoken Word\"","Other \"Poetry & Forums\""],"eDate":"2024-11-24","eName":"Beers & Tears (Live Podcast)","genre":"Indie","price":"Free","supports":[],"ticketUrl":null,"time":" 1pm"},{"categories":["Music"],"eDate":"2024-11-24","eName":"Alex Bowen","genre":"Country/Folk","price":"$30.00","supports":["more"],"ticketUrl":null,"time":" 7pm"}],"vName":"The Workers Club"},"type":"Feature"}],"type":"FeatureCollection"}