{"features":[{"geometry":{"coordinates":[144.99828116650363,-37.7713296],"type":"Point"},"properties":{"events":[{"categories":["Music"],"eDate":"2024-05-25","eName":"Homebass","genre":"Electronic","price":"$10.00","supports":[],"ticketUrl":null,"time":" 8pm"}],"vName":"Bar 303"},"type":"Feature"},{"geometry":{"coordinates":[144.9607158,-37.776327],"type":"Point"},"properties":{"events":[{"categories":["Music"],"eDate":"2024-05-25","eName":"The Musgrove Mews Farewell Show","genre":"Rock","price":"$18.90","supports":["Mutual Friends of Former Lovers"," No?"],"ticketUrl":null,"time":" 2pm"},{"categories":["Music"],"eDate":"2024-05-25","eName":"Destrends","genre":"Rock","price":"$22.95","supports":["Baby Mullet"," Young Offenders"," Operation Karma"],"ticketUrl":null,"time":" 8pm"}],"vName":"Bergy Bandroom"},"type":"Feature"},{"geometry":{"coordinates":[144.9617018,-37.7704566],"type":"Point"},"properties":{"events":[{"categories":["Music"],"eDate":"2024-05-25","eName":"Succulent Funk Presents Discotheque","genre":"Soul/Funk","price":"$18.97","supports":[],"ticketUrl":null,"time":" 9pm"}],"vName":"Brunswick Artists' Bar"},"type":"Feature"},{"geometry":{"coordinates":[144.9617018,-37.7704566],"type":"Point"},"properties":{"events":[{"categories":["Music"],"eDate":"2024-05-25","eName":"Thee Marshmallow Overcoat","genre":"Rock","price":"$38.86","supports":[],"ticketUrl":null,"time":" 3:30pm"},{"categories":["Music"],"eDate":"2024-05-25","eName":"Melbourne Soul Weekender","genre":"Soul/Funk","price":"$28.15","supports":[],"ticketUrl":null,"time":" 8pm"}],"vName":"Brunswick Ballroom"},"type":"Feature"},{"geometry":{"coordinates":[144.9713425,-37.8128595],"type":"Point"},"properties":{"events":[{"categories":["Music"],"eDate":"2024-05-25","eName":"HOSS","genre":"Punk","price":"$22.59","supports":["DJ Centipede & The Earthworms"],"ticketUrl":null,"time":" 8pm"}],"vName":"Cherry Bar"},"type":"Feature"},{"geometry":{"coordinates":[144.99266639479475,-37.82488935],"type":"Point"},"properties":{"events":[{"categories":["Music"],"eDate":"2024-05-25","eName":"Samantha Fish & Jesse Dayton","genre":"Blues","price":"$67.00","supports":["Opelousas"],"ticketUrl":null,"time":" 8:30pm"}],"vName":"Corner Hotel"},"type":"Feature"},{"geometry":{"coordinates":[145.0293642,-37.8073947],"type":"Point"},"properties":{"events":[{"categories":["Music"],"eDate":"2024-05-25","eName":"Jackie Bornstein's Screen Song","genre":"Jazz","price":"$24.00 - 30.00","supports":[],"ticketUrl":null,"time":" 8pm"}],"vName":"Kew Court House"},"type":"Feature"},{"geometry":{"coordinates":[144.9764962,-37.7983139],"type":"Point"},"properties":{"events":[{"categories":["Music"],"eDate":"2024-05-25","eName":"Bleeding Peach","genre":null,"price":"$18.03","supports":["Rickfean"," Stazi"," Momoko Rose"],"ticketUrl":null,"time":" 7:30pm"},{"categories":["Music"],"eDate":"2024-05-25","eName":"Lune","genre":null,"price":"$19.99","supports":["Written By Wolves"," Patient Sixty Seven"],"ticketUrl":null,"time":" 8pm"}],"vName":"Laundry Bar"},"type":"Feature"},{"geometry":{"coordinates":[144.9970761,-37.8766692],"type":"Point"},"properties":{"events":[{"categories":["Music"],"eDate":"2024-05-25","eName":"Alyce Platt","genre":"Pop","price":"$15.00","supports":["Stephen Hadley"," Nicky Del Ray"," The Tappets"],"ticketUrl":null,"time":" 4pm"}],"vName":"Lyrebird Lounge"},"type":"Feature"},{"geometry":{"coordinates":[144.8971518,-37.8054274],"type":"Point"},"properties":{"events":[{"categories":["Music"],"eDate":"2024-05-25","eName":"Naked Mannequin","genre":null,"price":"$10.00 - 15.00","supports":["Gecko"," Left At The Avenue"],"ticketUrl":null,"time":" 2:15pm"},{"categories":["Free","Music"],"eDate":"2024-05-25","eName":"Another Rotting Corpse","genre":null,"price":"Free","supports":["Ze Wisenheimer"," A Stationary Frame"],"ticketUrl":null,"time":" 7:45pm"}],"vName":"Mamma Chen's"},"type":"Feature"},{"geometry":{"coordinates":[144.998414,-37.771471],"type":"Point"},"properties":{"events":[{"categories":["Music"],"eDate":"2024-05-25","eName":"Kitschen Boy + There's A Tuesday","genre":"Indie","price":"$35.30","supports":["Gush"],"ticketUrl":null,"time":" 8pm"}],"vName":"Northcote Social Club"},"type":"Feature"},{"geometry":{"coordinates":[144.97711,-37.79833],"type":"Point"},"properties":{"events":[{"categories":["Music"],"eDate":"2024-05-25","eName":"Hana & Jessie Lee's Bad Habits","genre":"Country/Folk","price":"$15.00","supports":["The Smith & Western Jury"," Norwood"],"ticketUrl":null,"time":" 8pm"}],"vName":"Old Bar"},"type":"Feature"},{"geometry":{"coordinates":[144.9605705,-37.8132486],"type":"Point"},"properties":{"events":[{"categories":["Music"],"eDate":"2024-05-25","eName":"Not So Big Band: A New Take on Disney","genre":"Jazz","price":"$45.00","supports":[],"ticketUrl":null,"time":" 5:30pm"},{"categories":["Music"],"eDate":"2024-05-25","eName":"Dean's Martini","genre":"Soul/Funk","price":"$45.00","supports":[],"ticketUrl":null,"time":" 6pm"},{"categories":["Music"],"eDate":"2024-05-25","eName":"Jennifer Salisbury Sings Audioslave","genre":"Jazz","price":"$45.00","supports":[],"ticketUrl":null,"time":" 8:30pm"},{"categories":["Music"],"eDate":"2024-05-25","eName":"Jazz Messengers: The Music Of Blue Note with Richard Pavlidis","genre":"Jazz","price":"$45.00","supports":[],"ticketUrl":null,"time":" 9pm"}],"vName":"Paris Cat Jazz Club"},"type":"Feature"},{"geometry":{"coordinates":[144.993413,-37.8506652],"type":"Point"},"properties":{"events":[{"categories":["Music"],"eDate":"2024-05-25","eName":"Formoses","genre":"Rock","price":"$9.18","supports":["Paint for Walls"," Magpie"," Mind Stain"],"ticketUrl":null,"time":" 7pm"}],"vName":"Revolver Upstairs"},"type":"Feature"},{"geometry":{"coordinates":[144.9631913,-37.7617818],"type":"Point"},"properties":{"events":[{"categories":["Free","Music"],"eDate":"2024-05-25","eName":"Brand","genre":"Punk","price":"Free","supports":["Stepdad Advice"," Chloe Booth"],"ticketUrl":null,"time":" 8pm"}],"vName":"Ringo Barr"},"type":"Feature"},{"geometry":{"coordinates":[144.9657057,-37.8061581],"type":"Point"},"properties":{"events":[{"categories":["Music"],"eDate":"2024-05-25","eName":"Des Cortez","genre":"Rock","price":"$17.75","supports":["The Heart Shaped Aces"," Goodbye Butterfly"],"ticketUrl":null,"time":" 8:30pm"}],"vName":"The Curtin"},"type":"Feature"},{"geometry":{"coordinates":[145.13337431967784,-37.91372355],"type":"Point"},"properties":{"events":[{"categories":["Music"],"eDate":"2024-05-25","eName":"Live at The Counts: Tania Doko","genre":"Indie","price":"$19.00 - 59.00","supports":[],"ticketUrl":null,"time":" 7:30pm"}],"vName":"The Ian Potter Centre for Performing Arts"},"type":"Feature"},{"geometry":{"coordinates":[144.9622,-37.7679857],"type":"Point"},"properties":{"events":[{"categories":["Music"],"eDate":"2024-05-25","eName":"Yard Duty","genre":"Punk","price":"Free","supports":["Animelodies"," Dole Cheque"],"ticketUrl":null,"time":" 9pm"}],"vName":"The Penny Black"},"type":"Feature"},{"geometry":{"coordinates":[144.9651425,-37.8119429],"type":"Point"},"properties":{"events":[{"categories":["Music"],"eDate":"2024-05-25","eName":"Pizza Death","genre":"Metal","price":"$28.56","supports":["Totally Unicorn"," R.U.B"],"ticketUrl":null,"time":" 7pm"}],"vName":"The Toff In Town"},"type":"Feature"},{"geometry":{"coordinates":[144.9846126,-37.7989941],"type":"Point"},"properties":{"events":[{"categories":["Music"],"eDate":"2024-05-25","eName":"Pet Rhino","genre":"Indie","price":"$13.80","supports":["Strawbz"," The Valliants"],"ticketUrl":null,"time":" 8pm"},{"categories":["Free","Music"],"eDate":"2024-05-25","eName":"Violet Dread: Album Launch","genre":null,"price":"Free","supports":[],"ticketUrl":null,"time":"11:59pm"}],"vName":"The Tote Hotel"},"type":"Feature"}],"type":"FeatureCollection"}