{"features":[{"geometry":{"coordinates":[144.99828116650363,-37.7713296],"type":"Point"},"properties":{"events":[{"categories":["Music"],"eDate":"2024-08-30","eName":"Indented Heads","genre":null,"price":"$10.00","supports":["The Rartel"," Elevators"],"ticketUrl":null,"time":" 7:30pm"}],"vName":"Bar 303"},"type":"Feature"},{"geometry":{"coordinates":[144.978682,-37.7981225],"type":"Point"},"properties":{"events":[{"categories":["Free","Music"],"eDate":"2024-08-30","eName":"Woody Samson","genre":null,"price":"Free","supports":[],"ticketUrl":null,"time":" 9:30pm"},{"categories":["Music"],"eDate":"2024-08-30","eName":"Lewy C","genre":"Indie","price":"Free","supports":[],"ticketUrl":null,"time":"10pm"}],"vName":"Baxter's Lot"},"type":"Feature"},{"geometry":{"coordinates":[144.9607158,-37.776327],"type":"Point"},"properties":{"events":[{"categories":["Music"],"eDate":"2024-08-30","eName":"Chaos Divine","genre":"Metal","price":"$33.15","supports":[],"ticketUrl":null,"time":" 7pm"}],"vName":"Bergy Bandroom"},"type":"Feature"},{"geometry":{"coordinates":[144.96947,-37.816565],"type":"Point"},"properties":{"events":[{"categories":["Music"],"eDate":"2024-08-30","eName":"Benjamin Stewart","genre":null,"price":"$49.90","supports":["Grace Aberhart"],"ticketUrl":null,"time":" 7:30pm"}],"vName":"Forum Melbourne"},"type":"Feature"},{"geometry":{"coordinates":[144.9875917,-37.7963837],"type":"Point"},"properties":{"events":[{"categories":["Free","Music"],"eDate":"2024-08-30","eName":"The Brakes: August Residency","genre":"Rock","price":"Free","supports":["Foggy Notion"],"ticketUrl":null,"time":" 6pm"},{"categories":["Free","Music"],"eDate":"2024-08-30","eName":"The Brakes + Foggy Notion","genre":"Rock","price":"Free","supports":[],"ticketUrl":null,"time":" 8pm"}],"vName":"Gem Bar"},"type":"Feature"},{"geometry":{"coordinates":[144.973013,-37.8640582],"type":"Point"},"properties":{"events":[{"categories":["Music"],"eDate":"2024-08-30","eName":"Superficial Presents Pink Pony Club","genre":"Pop","price":"$11.75 - 22.95","supports":[],"ticketUrl":null,"time":" 9pm"}],"vName":"Hotel Esplanade (aka The Espy)"},"type":"Feature"},{"geometry":{"coordinates":[144.8971518,-37.8054274],"type":"Point"},"properties":{"events":[{"categories":["Free","Music"],"eDate":"2024-08-30","eName":"Clover Blue","genre":null,"price":"Free","supports":["Focus Group"," Surprise Headliner"],"ticketUrl":null,"time":" 7:30pm"},{"categories":["Free","Music"],"eDate":"2024-08-30","eName":"Clover Blue","genre":null,"price":"Free","supports":["Focus Group"],"ticketUrl":null,"time":" 7:30pm"}],"vName":"Mamma Chen's"},"type":"Feature"},{"geometry":{"coordinates":[144.96741062735794,-37.82454855],"type":"Point"},"properties":{"events":[{"categories":["Music"],"eDate":"2024-08-30","eName":"Orava Quartet plays Debussy & Dean","genre":"Acoustic","price":"$50.00","supports":[],"ticketUrl":null,"time":" 7pm"}],"vName":"Melbourne Recital Centre"},"type":"Feature"},{"geometry":{"coordinates":[144.9786817,-37.8671902],"type":"Point"},"properties":{"events":[{"categories":["Music"],"eDate":"2024-08-30","eName":"An Evening with Andrew De Silva","genre":"R&B","price":"$40.00 - 50.00","supports":[],"ticketUrl":null,"time":" 7pm"}],"vName":"Memo Music Hall"},"type":"Feature"},{"geometry":{"coordinates":[145.3553553,-37.9078552],"type":"Point"},"properties":{"events":[{"categories":["Free","Music"],"eDate":"2024-08-30","eName":"Jon Collins","genre":null,"price":"Free","supports":[],"ticketUrl":null,"time":" 7pm"}],"vName":"Micawber Tavern"},"type":"Feature"},{"geometry":{"coordinates":[144.9712356,-37.812902],"type":"Point"},"properties":{"events":[{"categories":["Comedy"],"eDate":"2024-08-30","eName":"Basement Comedy Club","genre":null,"price":"$25.00","supports":["more"],"ticketUrl":null,"time":" 8pm"}],"vName":"Morris House"},"type":"Feature"},{"geometry":{"coordinates":[144.96892412239615,-37.82266345],"type":"Point"},"properties":{"events":[{"categories":["Music"],"eDate":"2024-08-30","eName":"NGV Friday Nights: Tempo Rubato curates David Griffiths & Svetlana Bogosavljevic","genre":"Classical","price":"$45.00","supports":[],"ticketUrl":null,"time":" 6pm"}],"vName":"NGV - National Gallery of Victoria"},"type":"Feature"},{"geometry":{"coordinates":[144.9846126,-37.7989941],"type":"Point"},"properties":{"events":[{"categories":["Music"],"eDate":"2024-08-30","eName":"PURÃ‰E","genre":"Indie","price":"$22.49","supports":[],"ticketUrl":null,"time":" 7pm"}],"vName":"Nighthawks"},"type":"Feature"},{"geometry":{"coordinates":[144.97711,-37.79833],"type":"Point"},"properties":{"events":[{"categories":["Music"],"eDate":"2024-08-30","eName":"Champ Ruby","genre":"Rock","price":"$11.25","supports":["Divers"," Dirty Valentine"," The Swells"],"ticketUrl":null,"time":" 8pm"}],"vName":"Old Bar"},"type":"Feature"},{"geometry":{"coordinates":[144.9605705,-37.8132486],"type":"Point"},"properties":{"events":[{"categories":["Music"],"eDate":"2024-08-30","eName":"Not So Big Band: Swingardium Leviosa (The Music of Harry Potter)","genre":"Jazz","price":"$45.00","supports":[],"ticketUrl":null,"time":" 6pm"},{"categories":["Music"],"eDate":"2024-08-30","eName":"Liz Violi Sings Nostalgic Notes... 80s & 90s, Revamped & Reimagined","genre":"Soul/Funk","price":"$45.00","supports":[],"ticketUrl":null,"time":" 6:30pm"},{"categories":["Music"],"eDate":"2024-08-30","eName":"The Words and Music of Vince Jones with Adam Rudegeair","genre":"Jazz","price":"$40.00","supports":[],"ticketUrl":null,"time":" 9pm"},{"categories":["Music"],"eDate":"2024-08-30","eName":"Collaborations","genre":"Jazz","price":"$45.00","supports":[],"ticketUrl":null,"time":" 9:30pm"}],"vName":"Paris Cat Jazz Club"},"type":"Feature"},{"geometry":{"coordinates":[144.97817073839508,-37.8014757],"type":"Point"},"properties":{"events":[{"categories":["Music"],"eDate":"2024-08-30","eName":"Press Play presents Smoked Salmon (Kim Salmon)","genre":"Rock","price":"$29.90","supports":[],"ticketUrl":null,"time":" 7pm"}],"vName":"Perseverance Hotel"},"type":"Feature"},{"geometry":{"coordinates":[144.9615882,-37.7711432],"type":"Point"},"properties":{"events":[{"categories":["Music"],"eDate":"2024-08-30","eName":"Black Dahlia","genre":"Electronic","price":"$12.00","supports":["Popular Music"," Full Fleshed"],"ticketUrl":null,"time":" 7:30pm"}],"vName":"Retreat Hotel"},"type":"Feature"},{"geometry":{"coordinates":[144.9631913,-37.7617818],"type":"Point"},"properties":{"events":[{"categories":["Free","Music"],"eDate":"2024-08-30","eName":"Abselom","genre":"Rock","price":"Free","supports":["Zak Raymond"," Mellowing"],"ticketUrl":null,"time":" 8pm"}],"vName":"Ringo Barr"},"type":"Feature"},{"geometry":{"coordinates":[144.9607404,-37.7743469],"type":"Point"},"properties":{"events":[{"categories":["Music"],"eDate":"2024-08-30","eName":"To The Grave","genre":"Metal","price":"$29.90","supports":["No Life"," Identity Error"],"ticketUrl":null,"time":" 7pm"},{"categories":["Music"],"eDate":"2024-08-30","eName":"KPop Night","genre":"Pop","price":"$20.00 - 30.00","supports":[],"ticketUrl":null,"time":"11pm"}],"vName":"Stay Gold"},"type":"Feature"},{"geometry":{"coordinates":[144.9651425,-37.8119429],"type":"Point"},"properties":{"events":[{"categories":["Music"],"eDate":"2024-08-30","eName":"SkuX","genre":"Hip Hop","price":"$30.00 - 40.00","supports":[],"ticketUrl":null,"time":" 7:30pm"}],"vName":"The Toff In Town"},"type":"Feature"},{"geometry":{"coordinates":[144.9983987,-37.7729204],"type":"Point"},"properties":{"events":[{"categories":["Music"],"eDate":"2024-08-30","eName":"Searching for Charlie Owen","genre":"Rock","price":"$35.70","supports":["Martin Frawley"],"ticketUrl":null,"time":" 8pm"}],"vName":"Wesley Anne"},"type":"Feature"},{"geometry":{"coordinates":[144.9618426,-37.8125531],"type":"Point"},"properties":{"events":[{"categories":["Free","Music"],"eDate":"2024-08-30","eName":"Honey","genre":null,"price":"Free","supports":["MzRizk"],"ticketUrl":null,"time":" 4pm"}],"vName":"Whitehart Bar"},"type":"Feature"}],"type":"FeatureCollection"}