{"features":[{"geometry":{"coordinates":[145.0048929,-37.8035316],"type":"Point"},"properties":{"events":[{"categories":["Music","Other \"Dance \""],"eDate":"2026-02-07","eName":"Daybreaker Melbourne","genre":"Electronic","price":"$49.00 - 69.00","supports":[],"ticketUrl":null,"time":" 8am"}],"vName":"Abbotsford Convent"},"type":"Feature"},{"geometry":{"coordinates":[144.978682,-37.7981225],"type":"Point"},"properties":{"events":[{"categories":["Free","Music"],"eDate":"2026-02-07","eName":"Lewis Toms","genre":null,"price":"Free","supports":[],"ticketUrl":null,"time":" 9pm"}],"vName":"Baxter's Lot"},"type":"Feature"},{"geometry":{"coordinates":[144.9568039,-37.8111442],"type":"Point"},"properties":{"events":[{"categories":["Music"],"eDate":"2026-02-07","eName":"The Genius of Ray Charles","genre":"Blues","price":"$45.00","supports":[],"ticketUrl":null,"time":" 6pm"}],"vName":"Bird's Basement"},"type":"Feature"},{"geometry":{"coordinates":[144.9617083,-37.7704205],"type":"Point"},"properties":{"events":[{"categories":["Free","Music"],"eDate":"2026-02-07","eName":"The Piccadilloes","genre":"Indie","price":"Free","supports":["Leo Francis & The Galahs"],"ticketUrl":null,"time":" 4:30pm"}],"vName":"Brunswick Artists' Bar"},"type":"Feature"},{"geometry":{"coordinates":[144.9617083,-37.7704205],"type":"Point"},"properties":{"events":[{"categories":["Music"],"eDate":"2026-02-07","eName":"4hr Parking","genre":"Rock","price":"$24.48","supports":["Lalu"," Ethereal Gone Kids"," Sugargum"],"ticketUrl":null,"time":" 7pm"}],"vName":"Brunswick Ballroom"},"type":"Feature"},{"geometry":{"coordinates":[145.0004166,-37.7612582],"type":"Point"},"properties":{"events":[{"categories":["Music"],"eDate":"2026-02-07","eName":"Big Sleeper (Arvo Show)","genre":null,"price":"$10.00","supports":["Alysia Manceau"," Mossrose"," Moth"],"ticketUrl":null,"time":" 2pm"},{"categories":["Music"],"eDate":"2026-02-07","eName":"Slowcoaching","genre":null,"price":"$20.00","supports":[],"ticketUrl":null,"time":" 8pm"}],"vName":"Cactus Room"},"type":"Feature"},{"geometry":{"coordinates":[144.9926664,-37.8248893],"type":"Point"},"properties":{"events":[{"categories":["Music"],"eDate":"2026-02-07","eName":"Bob Marley Birthday Bash with Norris Man","genre":"R&B","price":"$29.10","supports":[],"ticketUrl":null,"time":" 8:30pm"}],"vName":"Corner Hotel"},"type":"Feature"},{"geometry":{"coordinates":[144.9571785,-37.8188809],"type":"Point"},"properties":{"events":[{"categories":["Music"],"eDate":"2026-02-07","eName":"Daydream80s #6: new wave. pop. alternative. daytime.","genre":"Pop","price":"$23.00","supports":["more"],"ticketUrl":null,"time":" 3pm"}],"vName":"Inflation Entertainment Complex"},"type":"Feature"},{"geometry":{"coordinates":[145.0008148,-37.8107158],"type":"Point"},"properties":{"events":[{"categories":["Music"],"eDate":"2026-02-07","eName":"Daysend","genre":"Metal","price":"$41.85","supports":["Hybrid Nightmares"," Immorium"],"ticketUrl":null,"time":" 7:30pm"}],"vName":"Leadbeater Hotel"},"type":"Feature"},{"geometry":{"coordinates":[145.0896374,-37.8968576],"type":"Point"},"properties":{"events":[{"categories":["Music"],"eDate":"2026-02-07","eName":"The Gospel According to George Michael & Whitney Houston","genre":"Pop","price":"$55.00","supports":[],"ticketUrl":null,"time":" 8pm"}],"vName":"Oakleigh-Carnegie RSL"},"type":"Feature"},{"geometry":{"coordinates":[144.96084,-37.813514],"type":"Point"},"properties":{"events":[{"categories":["Music"],"eDate":"2026-02-07","eName":"Nadira & Friends Present: Songs of Nat King Cole","genre":"Jazz","price":"$45.00","supports":[],"ticketUrl":null,"time":" 6pm"},{"categories":["Music"],"eDate":"2026-02-07","eName":"Stevie Wonder Ful","genre":"Jazz","price":"$45.00","supports":[],"ticketUrl":null,"time":" 6:30pm"},{"categories":["Music"],"eDate":"2026-02-07","eName":"Cannonball with Chantal Mitvalsky","genre":"Jazz","price":"$45.00","supports":[],"ticketUrl":null,"time":" 9pm"},{"categories":["Music"],"eDate":"2026-02-07","eName":"Chris Johnstone Quintet: Play Grant Green & Joe Henderson","genre":"Jazz","price":"$45.00","supports":[],"ticketUrl":null,"time":" 9:30pm"}],"vName":"Paris Cat Jazz Club"},"type":"Feature"},{"geometry":{"coordinates":[144.9666355,-37.8360786],"type":"Point"},"properties":{"events":[{"categories":["Music"],"eDate":"2026-02-07","eName":"Songs of the Sunnyboys","genre":"Rock","price":"Free","supports":[],"ticketUrl":null,"time":" 8pm"}],"vName":"Rising Sun Hotel"},"type":"Feature"},{"geometry":{"coordinates":[144.9607404,-37.7743469],"type":"Point"},"properties":{"events":[{"categories":["Music"],"eDate":"2026-02-07","eName":"BreaknBread Battles: Homecoming","genre":"Hip Hop","price":"$64.84","supports":[],"ticketUrl":null,"time":" 4pm"},{"categories":["Music"],"eDate":"2026-02-07","eName":"Dancing Shoes: Twenty Years of Arctic Monkeys","genre":"Rock","price":"$16.85 - 23.50","supports":[],"ticketUrl":null,"time":"11pm"}],"vName":"Stay Gold"},"type":"Feature"},{"geometry":{"coordinates":[144.996838,-37.7794356],"type":"Point"},"properties":{"events":[{"categories":["Music"],"eDate":"2026-02-07","eName":"Tarcutta","genre":null,"price":"$20.00","supports":["Cam Butler"],"ticketUrl":null,"time":" 8:30pm"}],"vName":"The Merri Creek Tavern"},"type":"Feature"},{"geometry":{"coordinates":[144.9708437,-37.7973184],"type":"Point"},"properties":{"events":[{"categories":["Music","Other \"Dance \"","Other \"Spoken Word, Poetry \""],"eDate":"2026-02-07","eName":"New Beginnings","genre":"Pop","price":"$28.00","supports":[],"ticketUrl":null,"time":" 8:20pm"}],"vName":"The Motley Bauhaus"},"type":"Feature"},{"geometry":{"coordinates":[144.9651425,-37.8119429],"type":"Point"},"properties":{"events":[{"categories":["Free","Music"],"eDate":"2026-02-07","eName":"Sleazy Little Thing: Vol. 3","genre":"Indie","price":"Free","supports":[],"ticketUrl":null,"time":"11pm"}],"vName":"The Toff In Town"},"type":"Feature"},{"geometry":{"coordinates":[144.9661635,-37.8176298],"type":"Point"},"properties":{"events":[{"categories":["Music"],"eDate":"2026-02-07","eName":"DILLA: A Jam Celebrating The Music Of J Dilla","genre":null,"price":"$13.15","supports":[],"ticketUrl":null,"time":" 8pm"}],"vName":"Wax Music Lounge"},"type":"Feature"}],"type":"FeatureCollection"}