{"features":[{"geometry":{"coordinates":[144.9982812,-37.7713296],"type":"Point"},"properties":{"events":[{"categories":["Music"],"eDate":"2025-09-18","eName":"The Corduroys + Rivera","genre":"Soul/Funk","price":"Free","supports":[],"ticketUrl":null,"time":" 7:30pm"}],"vName":"Bar 303"},"type":"Feature"},{"geometry":{"coordinates":[144.978682,-37.7981225],"type":"Point"},"properties":{"events":[{"categories":["Free","Music"],"eDate":"2025-09-18","eName":"Jack Milligan","genre":null,"price":"Free","supports":[],"ticketUrl":null,"time":" 9pm"},{"categories":["Free","Music"],"eDate":"2025-09-18","eName":"Jack Milligan","genre":null,"price":"Free","supports":[],"ticketUrl":null,"time":" 9pm"}],"vName":"Baxter's Lot"},"type":"Feature"},{"geometry":{"coordinates":[144.9607158,-37.776327],"type":"Point"},"properties":{"events":[{"categories":["Comedy"],"eDate":"2025-09-18","eName":"African in Australia Comedy Gala","genre":null,"price":"$33.15","supports":["Sam Gebreselassie"," Yeluselmi"," Akwasi Osei-Tutu"],"ticketUrl":null,"time":" 8pm"}],"vName":"Bergy Bandroom"},"type":"Feature"},{"geometry":{"coordinates":[144.9568039,-37.8111442],"type":"Point"},"properties":{"events":[{"categories":["Music"],"eDate":"2025-09-18","eName":"Deborah Conway & Willy Zygier","genre":"Jazz","price":"$50.00","supports":[],"ticketUrl":null,"time":" 6pm"}],"vName":"Bird's Basement"},"type":"Feature"},{"geometry":{"coordinates":[144.9617083,-37.7704205],"type":"Point"},"properties":{"events":[{"categories":["Other \"Spoken Word, Poetry \""],"eDate":"2025-09-18","eName":"Backyard Stories","genre":null,"price":"$28.15","supports":[],"ticketUrl":null,"time":" 7pm"}],"vName":"Brunswick Ballroom"},"type":"Feature"},{"geometry":{"coordinates":[144.9926664,-37.8248893],"type":"Point"},"properties":{"events":[{"categories":["Music"],"eDate":"2025-09-18","eName":"Parents Battle of the Bands: Northside V Southside Finals","genre":"Rock","price":"$37.35","supports":[],"ticketUrl":null,"time":" 7pm"}],"vName":"Corner Hotel"},"type":"Feature"},{"geometry":{"coordinates":[144.9627513,-37.760963],"type":"Point"},"properties":{"events":[{"categories":["Music"],"eDate":"2025-09-18","eName":"John Henderson","genre":"Jazz","price":"Free","supports":[],"ticketUrl":null,"time":" 7pm"}],"vName":"Edinburgh Castle Hotel"},"type":"Feature"},{"geometry":{"coordinates":[144.9693768,-37.8164414],"type":"Point"},"properties":{"events":[{"categories":["Music"],"eDate":"2025-09-18","eName":"Animals as Leaders","genre":"Metal","price":"$89.90 - 169.90","supports":["Car Bomb"],"ticketUrl":null,"time":" 7pm"}],"vName":"Forum Melbourne"},"type":"Feature"},{"geometry":{"coordinates":[144.9777885,-37.8597831],"type":"Point"},"properties":{"events":[{"categories":["Music"],"eDate":"2025-09-18","eName":"Jamie MacDowell","genre":"Acoustic","price":"Free","supports":[],"ticketUrl":null,"time":" 7pm"}],"vName":"Freddie Wimpoles"},"type":"Feature"},{"geometry":{"coordinates":[144.973013,-37.8640582],"type":"Point"},"properties":{"events":[{"categories":["Music"],"eDate":"2025-09-18","eName":"Nana’s Pie","genre":"Rock","price":"$15.85","supports":["Joan & The Giants"," Seb Szabo"," Rod Coote"],"ticketUrl":null,"time":" 6:30pm"},{"categories":["Free","Music"],"eDate":"2025-09-18","eName":"Tainted Façade","genre":"Rock","price":"Free","supports":[],"ticketUrl":null,"time":" 7:30pm"}],"vName":"Hotel Esplanade (aka The Espy)"},"type":"Feature"},{"geometry":{"coordinates":[145.0314658,-37.8067273],"type":"Point"},"properties":{"events":[{"categories":["Music"],"eDate":"2025-09-18","eName":"Kew Court House Live: Ryan Oliver","genre":null,"price":"$20.00","supports":[],"ticketUrl":null,"time":" 7:30pm"}],"vName":"Kew Court House"},"type":"Feature"},{"geometry":{"coordinates":[144.8984802,-37.8111559],"type":"Point"},"properties":{"events":[{"categories":["Music"],"eDate":"2025-09-18","eName":"Mark Ferrie’s Instant Noodles","genre":"Jazz","price":"Free","supports":[],"ticketUrl":null,"time":" 1pm"},{"categories":["Music"],"eDate":"2025-09-18","eName":"Flow Motion","genre":"Jazz","price":"Free","supports":[],"ticketUrl":null,"time":" 7pm"}],"vName":"Kindred Bandroom"},"type":"Feature"},{"geometry":{"coordinates":[144.9675876,-37.8240849],"type":"Point"},"properties":{"events":[{"categories":["Music"],"eDate":"2025-09-18","eName":"Stephen McIntyre plays Schumann","genre":"Classical","price":"$50.00","supports":[],"ticketUrl":null,"time":" 7pm"}],"vName":"Melbourne Recital Centre"},"type":"Feature"},{"geometry":{"coordinates":[144.998414,-37.771471],"type":"Point"},"properties":{"events":[{"categories":["Music"],"eDate":"2025-09-18","eName":"Milly Strange","genre":null,"price":"$24.00","supports":["Dogworld"," Talk Show"],"ticketUrl":null,"time":" 8pm"}],"vName":"Northcote Social Club"},"type":"Feature"},{"geometry":{"coordinates":[144.9982706,-37.7737068],"type":"Point"},"properties":{"events":[{"categories":["Music","Comedy"],"eDate":"2025-09-18","eName":"The Kiffness","genre":"Electronic","price":"$69.90","supports":[],"ticketUrl":null,"time":" 7pm"}],"vName":"Northcote Theatre"},"type":"Feature"},{"geometry":{"coordinates":[144.97711,-37.79833],"type":"Point"},"properties":{"events":[{"categories":["Music"],"eDate":"2025-09-18","eName":"Good Music Presents: Northside New Wave","genre":"Punk","price":"Free","supports":[],"ticketUrl":null,"time":" 7:30pm"}],"vName":"Old Bar"},"type":"Feature"},{"geometry":{"coordinates":[144.96084,-37.813514],"type":"Point"},"properties":{"events":[{"categories":["Music"],"eDate":"2025-09-18","eName":"The Andrew Sisters meet The Will Jones Big Band","genre":"Jazz","price":"$45.00","supports":[],"ticketUrl":null,"time":" 7:30pm"},{"categories":["Music"],"eDate":"2025-09-18","eName":"Johnstone/Neal/Spicer featuring Tim Stocker: The Organ Cookbook","genre":"Jazz","price":"$45.00","supports":[],"ticketUrl":null,"time":" 8pm"}],"vName":"Paris Cat Jazz Club"},"type":"Feature"},{"geometry":{"coordinates":[144.965405,-37.8117457],"type":"Point"},"properties":{"events":[{"categories":["Free","Music"],"eDate":"2025-09-18","eName":"100% Phat","genre":null,"price":"Free","supports":[],"ticketUrl":null,"time":" 6pm"}],"vName":"Section 8"},"type":"Feature"},{"geometry":{"coordinates":[144.9607404,-37.7743469],"type":"Point"},"properties":{"events":[{"categories":["Music"],"eDate":"2025-09-18","eName":"Turkish Pop Rock","genre":null,"price":"$25.00","supports":[],"ticketUrl":null,"time":" 7pm"}],"vName":"Stay Gold"},"type":"Feature"},{"geometry":{"coordinates":[144.9706211,-37.778276],"type":"Point"},"properties":{"events":[{"categories":["Other \"Trivia \"","Other \"Cabaret\""],"eDate":"2025-09-18","eName":"Drag Bingo","genre":null,"price":"Free","supports":[],"ticketUrl":null,"time":" 8pm"}],"vName":"The Beast"},"type":"Feature"},{"geometry":{"coordinates":[144.9770425,-37.8588717],"type":"Point"},"properties":{"events":[{"categories":["Music"],"eDate":"2025-09-18","eName":"Dan & Cyril","genre":"Acoustic","price":"Free","supports":[],"ticketUrl":null,"time":" 8pm"}],"vName":"The Fifth Province"},"type":"Feature"},{"geometry":{"coordinates":[144.9708437,-37.7973184],"type":"Point"},"properties":{"events":[{"categories":["Free","Music","Comedy"],"eDate":"2025-09-18","eName":"The ‘WHAM, BAM, THANK YOU’ Jam","genre":"Jazz","price":"Free","supports":[],"ticketUrl":null,"time":" 8pm"}],"vName":"The Motley Bauhaus"},"type":"Feature"},{"geometry":{"coordinates":[144.9661635,-37.8176298],"type":"Point"},"properties":{"events":[{"categories":["Free","Music"],"eDate":"2025-09-18","eName":"DJ G.S.M","genre":"Electronic","price":"Free","supports":[],"ticketUrl":null,"time":" 9pm"}],"vName":"Wax Music Lounge"},"type":"Feature"},{"geometry":{"coordinates":[144.9618781,-37.8126316],"type":"Point"},"properties":{"events":[{"categories":["Free","Music"],"eDate":"2025-09-18","eName":"Inner Sanctuary FEAT: DJ JNETT + Jimmy James","genre":null,"price":"Free","supports":[],"ticketUrl":null,"time":" 3pm"}],"vName":"Whitehart Bar"},"type":"Feature"},{"geometry":{"coordinates":[144.9606363,-37.8092084],"type":"Point"},"properties":{"events":[{"categories":["Free","Music"],"eDate":"2025-09-18","eName":"Upstairs Neighbours presents Cherry Rype","genre":null,"price":"Free","supports":["Kailen"," Blair Romance"," Annabelle Scobie"," Filthy McNastys"," Mummy Tilkers"],"ticketUrl":null,"time":" 7pm"}],"vName":"Workshop Bar"},"type":"Feature"}],"type":"FeatureCollection"}