{"features":[{"geometry":{"coordinates":[144.9715791,-37.8140656],"type":"Point"},"properties":{"events":[{"categories":["Music","Theatre"],"eDate":"2024-01-28","eName":"Dog Man: The Musical","genre":null,"price":"$39.50","supports":[],"ticketUrl":null,"time":" 1pm"},{"categories":["Music","Theatre"],"eDate":"2024-01-28","eName":"Dog Man: The Musical","genre":null,"price":"$39.50","supports":[],"ticketUrl":null,"time":" 4pm"}],"vName":"Athenaeum Theatre"},"type":"Feature"},{"geometry":{"coordinates":[144.9945274,-37.8001115],"type":"Point"},"properties":{"events":[{"categories":["Free","Music","Other \"Food & Drink\""],"eDate":"2024-01-28","eName":"Ausecuma Beats: Sundays In January Residency","genre":"Electronic","price":"Free","supports":["Kgomotso"," Asha Franco"],"ticketUrl":null,"time":" 2pm"}],"vName":"Bodriggy Brewing Company"},"type":"Feature"},{"geometry":{"coordinates":[144.9628440552175,-37.76100605],"type":"Point"},"properties":{"events":[{"categories":["Music"],"eDate":"2024-01-28","eName":"Steamboat Whistlers","genre":"Jazz","price":"Free","supports":[],"ticketUrl":null,"time":" 4pm"}],"vName":"Edinburgh Castle Hotel"},"type":"Feature"},{"geometry":{"coordinates":[144.96892412239615,-37.82266345],"type":"Point"},"properties":{"events":[{"categories":["Free","Music"],"eDate":"2024-01-28","eName":"NGV Triennial: Alchemy Consort - It Lights the Whole Sky","genre":null,"price":"Free","supports":[],"ticketUrl":null,"time":" 7:15pm"},{"categories":["Free","Music"],"eDate":"2024-01-28","eName":"NGV Triennial: DJ JNETT (DJ Set)","genre":"Electronic","price":"Free","supports":[],"ticketUrl":null,"time":" 9pm"}],"vName":"NGV - National Gallery of Victoria"},"type":"Feature"},{"geometry":{"coordinates":[144.9977626,-37.7755001],"type":"Point"},"properties":{"events":[{"categories":["Music"],"eDate":"2024-01-28","eName":"Anberlin","genre":"Punk","price":"$89.90","supports":["Hawthorne Heights"," The Word Alive"],"ticketUrl":null,"time":" 7pm"}],"vName":"Northcote Theatre"},"type":"Feature"},{"geometry":{"coordinates":[144.9631913,-37.7617818],"type":"Point"},"properties":{"events":[{"categories":["Music"],"eDate":"2024-01-28","eName":"Amla & Valentino + Sweet Coco","genre":"Classical","price":"$15.00","supports":[],"ticketUrl":null,"time":" 2:30pm"},{"categories":["Music"],"eDate":"2024-01-28","eName":"Dalee Sami Project","genre":"Soul/Funk","price":"$10.00","supports":[],"ticketUrl":null,"time":" 8pm"}],"vName":"Ringo Barr"},"type":"Feature"},{"geometry":{"coordinates":[144.9555612,-37.8066759],"type":"Point"},"properties":{"events":[{"categories":["Music"],"eDate":"2024-01-28","eName":"Morgan & The 770's","genre":"Blues","price":"Free","supports":[],"ticketUrl":null,"time":" 4pm"}],"vName":"The Drunken Poet"},"type":"Feature"},{"geometry":{"coordinates":[144.9769450659087,-37.8055776],"type":"Point"},"properties":{"events":[{"categories":["Music"],"eDate":"2024-01-28","eName":"Dolce Blue","genre":"Indie","price":"$11.89","supports":["Simone Strauss"," Birdgirl"],"ticketUrl":null,"time":" 7pm"}],"vName":"The Workers Club"},"type":"Feature"}],"type":"FeatureCollection"}