{"features":[{"geometry":{"coordinates":[144.9679835243618,-37.8201575],"type":"Point"},"properties":{"events":[{"categories":["Other \"Cabaret\""],"eDate":"2025-02-09","eName":"Panti Bliss: If These Wigs Could Talk","genre":null,"price":"$70.00","supports":[],"ticketUrl":null,"time":" 3pm"}],"vName":"Arts Centre Melbourne"},"type":"Feature"},{"geometry":{"coordinates":[144.9715791,-37.8140656],"type":"Point"},"properties":{"events":[{"categories":["Theatre"],"eDate":"2025-02-09","eName":"Shirley Valentine","genre":null,"price":"$30.00 - 139.00","supports":[],"ticketUrl":null,"time":" 4pm"}],"vName":"Athenaeum Theatre"},"type":"Feature"},{"geometry":{"coordinates":[144.978682,-37.7981225],"type":"Point"},"properties":{"events":[{"categories":["Free","Music"],"eDate":"2025-02-09","eName":"Lewis Ciavarella","genre":null,"price":"Free","supports":[],"ticketUrl":null,"time":" 9pm"}],"vName":"Baxter's Lot"},"type":"Feature"},{"geometry":{"coordinates":[144.9945274,-37.8001115],"type":"Point"},"properties":{"events":[{"categories":["Free","Music","Other \"Food & Drink\""],"eDate":"2025-02-09","eName":"Carnaval Tropicana","genre":null,"price":"Free","supports":["Business Partner"],"ticketUrl":null,"time":" 2pm"}],"vName":"Bodriggy Brewing Company"},"type":"Feature"},{"geometry":{"coordinates":[145.03588565533943,-37.8230335],"type":"Point"},"properties":{"events":[{"categories":["Music"],"eDate":"2025-02-09","eName":"Lunar New Year with SinoBeats & Mindy Meng Wang","genre":null,"price":"$15.00 - 38.00","supports":[],"ticketUrl":null,"time":" 6:30pm"}],"vName":"Hawthorn Arts Centre"},"type":"Feature"},{"geometry":{"coordinates":[144.8971518,-37.8054274],"type":"Point"},"properties":{"events":[{"categories":["Free","Music","Comedy"],"eDate":"2025-02-09","eName":"Free Karaoke hosted by Prue Brown","genre":"Acoustic","price":"Free","supports":[],"ticketUrl":null,"time":" 6pm"}],"vName":"Mamma Chen's"},"type":"Feature"},{"geometry":{"coordinates":[144.9786817,-37.8671902],"type":"Point"},"properties":{"events":[{"categories":["Music"],"eDate":"2025-02-09","eName":"Zydeco Jump: The Gerry Hale Years","genre":"Jazz","price":"$35.00 - 55.00","supports":["Shayne Cook"],"ticketUrl":null,"time":" 3pm"}],"vName":"Memo Music Hall"},"type":"Feature"},{"geometry":{"coordinates":[144.9830837,-37.7988316],"type":"Point"},"properties":{"events":[{"categories":["Music"],"eDate":"2025-02-09","eName":"Domingo Latino: The Return of Tumbao Social","genre":"Jazz","price":"$29.57 - 39.76","supports":[],"ticketUrl":null,"time":" 6:45pm"}],"vName":"The Night Cat"},"type":"Feature"},{"geometry":{"coordinates":[144.9846126,-37.7989941],"type":"Point"},"properties":{"events":[{"categories":["Music"],"eDate":"2025-02-09","eName":"Blake Scott","genre":"Acoustic","price":"$28.60","supports":["Kate Alexander"," Violence"],"ticketUrl":null,"time":" 6pm"}],"vName":"The Tote Hotel"},"type":"Feature"}],"type":"FeatureCollection"}