{"features":[{"geometry":{"coordinates":[144.9945274,-37.8001115],"type":"Point"},"properties":{"events":[{"categories":["Free","Music","Festival","Other \"Food \""],"eDate":"2026-03-15","eName":"CARNAVAL TROPICANA: PAULO ALMEIDA","genre":null,"price":"Free","supports":[],"ticketUrl":null,"time":" 2pm"},{"categories":["Music","Other \"Food \"","Free"],"eDate":"2026-03-15","eName":"Calle Luna: Latin Vibes","genre":null,"price":"Free","supports":["DJ Alcalde"],"ticketUrl":null,"time":" 4pm"}],"vName":"Bodriggy Brewing Company"},"type":"Feature"},{"geometry":{"coordinates":[144.9617083,-37.7704205],"type":"Point"},"properties":{"events":[{"categories":["Music"],"eDate":"2026-03-15","eName":"Estudiantina of Melbourne Album Launch: Ta Nisia","genre":"Global","price":"$35.00","supports":[],"ticketUrl":null,"time":" 2pm"}],"vName":"Brunswick Ballroom"},"type":"Feature"},{"geometry":{"coordinates":[144.9501312,-37.8042459],"type":"Point"},"properties":{"events":[{"categories":["Comedy"],"eDate":"2026-03-15","eName":"Sunday Night Comedy","genre":null,"price":"$10.00","supports":[],"ticketUrl":null,"time":" 7:30pm"}],"vName":"Club Voltaire"},"type":"Feature"},{"geometry":{"coordinates":[144.9976902,-37.7745111],"type":"Point"},"properties":{"events":[{"categories":["Theatre"],"eDate":"2026-03-15","eName":"Mature Skin by Gabrielle Fallen","genre":null,"price":"$10.00 - 38.00","supports":[],"ticketUrl":null,"time":" 5pm"}],"vName":"Northcote Town Hall"},"type":"Feature"},{"geometry":{"coordinates":[144.9879283,-37.7505509],"type":"Point"},"properties":{"events":[{"categories":["Music"],"eDate":"2026-03-15","eName":"The Northwest Grifters","genre":"Acoustic","price":"Free","supports":[],"ticketUrl":null,"time":" 4pm"}],"vName":"The Merri Bar"},"type":"Feature"}],"type":"FeatureCollection"}