{"features":[{"geometry":{"coordinates":[144.978682,-37.7981225],"type":"Point"},"properties":{"events":[{"categories":["Free","Music"],"eDate":"2026-05-17","eName":"That Studio Group and Baxter’s present: Live Sessions","genre":null,"price":"Free","supports":[],"ticketUrl":null,"time":" 6pm"},{"categories":["Free","Music"],"eDate":"2026-05-17","eName":"Lily Hallawell","genre":null,"price":"Free","supports":[],"ticketUrl":null,"time":" 9pm"}],"vName":"Baxter's Lot"},"type":"Feature"},{"geometry":{"coordinates":[144.9891167,-37.7996488],"type":"Point"},"properties":{"events":[{"categories":["Free","Music"],"eDate":"2026-05-17","eName":"Hazy Sunday: Santa Ana Rodeo + Tallulah Grace","genre":"Indie","price":"Free","supports":[],"ticketUrl":null,"time":" 3pm"},{"categories":["Free","Music"],"eDate":"2026-05-17","eName":"Hazy Sunday: Santa Ana Rodeo + Tallulah Grace","genre":null,"price":"Free","supports":[],"ticketUrl":null,"time":" 3pm"}],"vName":"Bendigo Hotel"},"type":"Feature"},{"geometry":{"coordinates":[144.9607158,-37.776327],"type":"Point"},"properties":{"events":[{"categories":["Music"],"eDate":"2026-05-17","eName":"Sunday School","genre":"Rock","price":"$16.85","supports":[],"ticketUrl":null,"time":" 5pm"}],"vName":"Bergy Bandroom"},"type":"Feature"},{"geometry":{"coordinates":[144.9945274,-37.8001115],"type":"Point"},"properties":{"events":[{"categories":["Free","Music","Other \"Food \""],"eDate":"2026-05-17","eName":"Deep South Brass 8","genre":null,"price":"Free","supports":[],"ticketUrl":null,"time":" 2pm"}],"vName":"Bodriggy Brewing Company"},"type":"Feature"},{"geometry":{"coordinates":[144.9501312,-37.8042459],"type":"Point"},"properties":{"events":[{"categories":["Comedy"],"eDate":"2026-05-17","eName":"Sunday Night Comedy","genre":null,"price":"$10.00","supports":[],"ticketUrl":null,"time":" 7:30pm"}],"vName":"Club Voltaire"},"type":"Feature"},{"geometry":{"coordinates":[144.9679835,-37.8201575],"type":"Point"},"properties":{"events":[{"categories":["Music","Theatre"],"eDate":"2026-05-17","eName":"The Man From Snowy River in Concert (Matinee Session)","genre":"Classical","price":"$99.00","supports":[],"ticketUrl":null,"time":" 1pm"},{"categories":["Music","Theatre"],"eDate":"2026-05-17","eName":"The Man From Snowy River in Concert","genre":"Classical","price":"$99.00","supports":[],"ticketUrl":null,"time":" 5pm"}],"vName":"Hamer Hall (Arts Centre Melbourne)"},"type":"Feature"},{"geometry":{"coordinates":[144.9675876,-37.8240849],"type":"Point"},"properties":{"events":[{"categories":["Music"],"eDate":"2026-05-17","eName":"Mass of Deliverance","genre":"Classical","price":"$20.00 - 105.00","supports":[],"ticketUrl":null,"time":"12pm"},{"categories":["Music"],"eDate":"2026-05-17","eName":"Gran Partita","genre":"Classical","price":"$20.00 - 105.00","supports":[],"ticketUrl":null,"time":" 6pm"}],"vName":"Melbourne Recital Centre"},"type":"Feature"},{"geometry":{"coordinates":[144.9583409,-37.7664168],"type":"Point"},"properties":{"events":[{"categories":["Free","Music"],"eDate":"2026-05-17","eName":"Laneous Duos","genre":"Jazz","price":"Free","supports":[],"ticketUrl":null,"time":" 3pm"},{"categories":["Markets"],"eDate":"2026-05-17","eName":"Beats & Bits Makers Market","genre":null,"price":"Free","supports":[],"ticketUrl":null,"time":" 9pm"}],"vName":"Quadraphonic Club"},"type":"Feature"},{"geometry":{"coordinates":[144.9657057,-37.8061581],"type":"Point"},"properties":{"events":[{"categories":["Music"],"eDate":"2026-05-17","eName":"Silicone Prairie + Blue Communications","genre":"Country/Folk","price":"Free","supports":[],"ticketUrl":null,"time":" 6pm"}],"vName":"The Curtin"},"type":"Feature"},{"geometry":{"coordinates":[144.9463641,-37.8047757],"type":"Point"},"properties":{"events":[{"categories":["Music"],"eDate":"2026-05-17","eName":"Alera","genre":"Metal","price":"$23.50","supports":["Nervous Light"," Kin"],"ticketUrl":null,"time":" 2:30pm"}],"vName":"The Last Chance Rock & Roll Bar"},"type":"Feature"},{"geometry":{"coordinates":[144.957991,-38.3859573],"type":"Point"},"properties":{"events":[{"categories":["Music","Other \"Spoken Word, Poetry \""],"eDate":"2026-05-17","eName":"An Evening with Steve Kilbey","genre":"Indie","price":"$62.90","supports":[],"ticketUrl":null,"time":" 3pm"}],"vName":"The Shed @ The Pig & Whistle"},"type":"Feature"},{"geometry":{"coordinates":[144.9661635,-37.8176298],"type":"Point"},"properties":{"events":[{"categories":["Music"],"eDate":"2026-05-17","eName":"Brainwaves: Julian Joseph","genre":null,"price":"$16.45","supports":[],"ticketUrl":null,"time":" 9pm"}],"vName":"Wax Music Lounge"},"type":"Feature"}],"type":"FeatureCollection"}