{"features":[{"geometry":{"coordinates":[144.9679369,-37.8120109],"type":"Point"},"properties":{"events":[{"categories":["Music"],"eDate":"2026-03-28","eName":"Pseudo Echo","genre":null,"price":"$59.00","supports":[],"ticketUrl":null,"time":" 7pm"}],"vName":"170 Russell"},"type":"Feature"},{"geometry":{"coordinates":[144.9500257,-37.8032773],"type":"Point"},"properties":{"events":[{"categories":["Theatre"],"eDate":"2026-03-28","eName":"Specials (Matinee Session)","genre":null,"price":"$40.00","supports":[],"ticketUrl":null,"time":" 2pm"}],"vName":"Arts House"},"type":"Feature"},{"geometry":{"coordinates":[145.0004166,-37.7612582],"type":"Point"},"properties":{"events":[{"categories":["Music"],"eDate":"2026-03-28","eName":"Ferla","genre":"Pop","price":"$18.90","supports":["Lenna Mars"," Mansplainers"],"ticketUrl":null,"time":" 8pm"}],"vName":"Cactus Room"},"type":"Feature"},{"geometry":{"coordinates":[144.9713425,-37.8128595],"type":"Point"},"properties":{"events":[{"categories":["Music"],"eDate":"2026-03-28","eName":"ELECTRIK","genre":"Rock","price":"$15.43","supports":["Monroe"," King's Vengeance"],"ticketUrl":null,"time":" 8pm"}],"vName":"Cherry Bar"},"type":"Feature"},{"geometry":{"coordinates":[144.9706211,-37.778276],"type":"Point"},"properties":{"events":[{"categories":["Music"],"eDate":"2026-03-28","eName":"Blood in the Champagne","genre":"Punk","price":"$15.00","supports":["Kooloz"," Serene Ailment"],"ticketUrl":null,"time":" 6pm"}],"vName":"Creature Bar"},"type":"Feature"},{"geometry":{"coordinates":[144.9627513,-37.760963],"type":"Point"},"properties":{"events":[{"categories":["Free","Music"],"eDate":"2026-03-28","eName":"Louise Macgregor","genre":"Acoustic","price":"Free","supports":[],"ticketUrl":null,"time":" 8pm"}],"vName":"Edinburgh Castle Hotel"},"type":"Feature"},{"geometry":{"coordinates":[145.0358857,-37.8230335],"type":"Point"},"properties":{"events":[{"categories":["Music"],"eDate":"2026-03-28","eName":"3MBS Gala Concert: Music of the Seasons","genre":"Classical","price":"$20.00 - 50.00","supports":[],"ticketUrl":null,"time":" 2pm"}],"vName":"Hawthorn Arts Centre"},"type":"Feature"},{"geometry":{"coordinates":[144.3615344,-38.1654387],"type":"Point"},"properties":{"events":[{"categories":["Music"],"eDate":"2026-03-28","eName":"Marigold at Little Creatures","genre":"Electronic","price":"$29.90","supports":[],"ticketUrl":null,"time":" 4pm"}],"vName":"Little Creatures Brewery"},"type":"Feature"},{"geometry":{"coordinates":[144.9675876,-37.8240849],"type":"Point"},"properties":{"events":[{"categories":["Music"],"eDate":"2026-03-28","eName":"Natalie & Brittany Haas","genre":"Country/Folk","price":"$50.00","supports":[],"ticketUrl":null,"time":" 7pm"}],"vName":"Melbourne Recital Centre"},"type":"Feature"},{"geometry":{"coordinates":[144.998414,-37.771471],"type":"Point"},"properties":{"events":[{"categories":["Music"],"eDate":"2026-03-28","eName":"Nick Barker & The Reptiles","genre":"Rock","price":"Free","supports":["Leichardt"],"ticketUrl":null,"time":" 8:30pm"}],"vName":"Northcote Social Club"},"type":"Feature"},{"geometry":{"coordinates":[144.9982706,-37.7737068],"type":"Point"},"properties":{"events":[{"categories":["Music"],"eDate":"2026-03-28","eName":"The Brian Jonestown Massacre","genre":null,"price":"$99.90","supports":[],"ticketUrl":null,"time":" 7:30pm"}],"vName":"Northcote Theatre"},"type":"Feature"},{"geometry":{"coordinates":[144.96084,-37.813514],"type":"Point"},"properties":{"events":[{"categories":["Music"],"eDate":"2026-03-28","eName":"Not So Big Band: The Incredibles","genre":"Jazz","price":"$45.00","supports":[],"ticketUrl":null,"time":" 6pm"},{"categories":["Music"],"eDate":"2026-03-28","eName":"Dr Jazz & the Gangsters Palace with Ruby Ray","genre":"Jazz","price":"$45.00","supports":[],"ticketUrl":null,"time":" 6:30pm"},{"categories":["Music"],"eDate":"2026-03-28","eName":"Yunior Terry’s","genre":"Jazz","price":"$45.00","supports":[],"ticketUrl":null,"time":" 9pm"},{"categories":["Music"],"eDate":"2026-03-28","eName":"Sophisticated Lady: A Tribute to Jazz’s First Ladies of Song","genre":"Jazz","price":"$48.00","supports":[],"ticketUrl":null,"time":" 9:30pm"}],"vName":"Paris Cat Jazz Club"},"type":"Feature"},{"geometry":{"coordinates":[144.9862196,-37.9091087],"type":"Point"},"properties":{"events":[{"categories":["Music"],"eDate":"2026-03-28","eName":"The Louis Armstrong Songbook","genre":"Jazz","price":"$55.00","supports":[],"ticketUrl":null,"time":" 8pm"}],"vName":"Royal Brighton Yacht Club"},"type":"Feature"},{"geometry":{"coordinates":[144.9879283,-37.7505509],"type":"Point"},"properties":{"events":[{"categories":["Music"],"eDate":"2026-03-28","eName":"The Creature From Outer Bass","genre":"Experimental","price":"Free","supports":[],"ticketUrl":null,"time":" 7pm"},{"categories":["Free","Music","Comedy"],"eDate":"2026-03-28","eName":"The Creature from Outer Bass: Live Recording Event","genre":"Rock","price":"Free","supports":[],"ticketUrl":null,"time":" 7pm"}],"vName":"The Merri Bar"},"type":"Feature"},{"geometry":{"coordinates":[145.0141502,-37.8117556],"type":"Point"},"properties":{"events":[{"categories":["Music"],"eDate":"2026-03-28","eName":"Kirtan Melbourne & The Open Space present: A Night of Devotional Kirtan","genre":null,"price":"$10.00","supports":[],"ticketUrl":null,"time":" 7pm"}],"vName":"The Open Space"},"type":"Feature"},{"geometry":{"coordinates":[145.1818891,-37.8163371],"type":"Point"},"properties":{"events":[{"categories":["Music"],"eDate":"2026-03-28","eName":"Colour & Light: The Art of Sondheim (Matinee Session)","genre":null,"price":"$62.00","supports":[],"ticketUrl":null,"time":" 2pm"}],"vName":"The Round"},"type":"Feature"},{"geometry":{"coordinates":[144.9870814,-37.799406],"type":"Point"},"properties":{"events":[{"categories":["Music"],"eDate":"2026-03-28","eName":"Starfest","genre":"Rock","price":"$30.00","supports":[],"ticketUrl":null,"time":" 2:30pm"},{"categories":["Music"],"eDate":"2026-03-28","eName":"Oi Oi Aussie Rock’n’Roll","genre":null,"price":"$23.50","supports":["Convict Class"," Cantona"," Resolver"," The Clinch Boys"],"ticketUrl":null,"time":" 8pm"}],"vName":"The Tote Hotel"},"type":"Feature"},{"geometry":{"coordinates":[144.9984324,-37.7729134],"type":"Point"},"properties":{"events":[{"categories":["Music"],"eDate":"2026-03-28","eName":"Melbourne Ukulele Festival 2026","genre":"Acoustic","price":"$30.00 - 110.00","supports":[],"ticketUrl":null,"time":"12pm"}],"vName":"Wesley Anne"},"type":"Feature"},{"geometry":{"coordinates":[144.9618781,-37.8126316],"type":"Point"},"properties":{"events":[{"categories":["Other \"Food \""],"eDate":"2026-03-28","eName":"Melbourne Food & Wine Festival: Beirut After Dark at Whitehart","genre":null,"price":"$96.61","supports":[],"ticketUrl":null,"time":" 5pm"}],"vName":"Whitehart Bar"},"type":"Feature"}],"type":"FeatureCollection"}