{"features":[{"geometry":{"coordinates":[144.9679369,-37.8120109],"type":"Point"},"properties":{"events":[{"categories":["Music"],"eDate":"2024-02-25","eName":"Of Mice & Men","genre":"Metal","price":"$85.00","supports":["Sienna Skies"," Dream On Dreamer"],"ticketUrl":null,"time":" 7pm"}],"vName":"170 Russell"},"type":"Feature"},{"geometry":{"coordinates":[144.9500257,-37.8032773],"type":"Point"},"properties":{"events":[{"categories":["Dance"],"eDate":"2024-02-25","eName":"CUDDLE by Harrison Ritchie-Jones","genre":null,"price":"$35.00","supports":[],"ticketUrl":null,"time":" 5pm"}],"vName":"Arts House"},"type":"Feature"},{"geometry":{"coordinates":[144.9763781,-37.7983136],"type":"Point"},"properties":{"events":[{"categories":["Music"],"eDate":"2024-02-25","eName":"Sunday Comedown","genre":null,"price":"$10.00","supports":[],"ticketUrl":null,"time":" 7:30pm"}],"vName":"Bad Decisions Bar"},"type":"Feature"},{"geometry":{"coordinates":[144.9607158,-37.776327],"type":"Point"},"properties":{"events":[{"categories":["Music","Comedy"],"eDate":"2024-02-25","eName":"Oliver Clark: Honk! Album Launch","genre":"Soul/Funk","price":"$16.85","supports":[],"ticketUrl":null,"time":" 4:30pm"}],"vName":"Bergy Bandroom"},"type":"Feature"},{"geometry":{"coordinates":[145.00041662186553,-37.76125825],"type":"Point"},"properties":{"events":[{"categories":["Music"],"eDate":"2024-02-25","eName":"Oh! My Valentine","genre":null,"price":"$20.00","supports":["Nick Keogh"," Charlotte Bridie"," Skerzo"],"ticketUrl":null,"time":" 4pm"}],"vName":"Cactus Room"},"type":"Feature"},{"geometry":{"coordinates":[144.8971518,-37.8054274],"type":"Point"},"properties":{"events":[{"categories":["Free","Music"],"eDate":"2024-02-25","eName":"George Last & The First Born","genre":"Indie","price":"Free","supports":["Andrew Fillmore"," Moses Leigh Jones"],"ticketUrl":null,"time":" 2am"},{"categories":["Free","Music"],"eDate":"2024-02-25","eName":"George Last & The First Born","genre":null,"price":"Free","supports":["Moses Leigh Jones"," Andrew Fillmore"],"ticketUrl":null,"time":" 2pm"}],"vName":"Mamma Chen's"},"type":"Feature"},{"geometry":{"coordinates":[144.96741062735794,-37.82454855],"type":"Point"},"properties":{"events":[{"categories":["Music"],"eDate":"2024-02-25","eName":"Australian Brandenburg Orchestra 2024: Notre-Dame","genre":"Classical","price":"$30.00","supports":[],"ticketUrl":null,"time":" 5pm"}],"vName":"Melbourne Recital Centre"},"type":"Feature"},{"geometry":{"coordinates":[145.0142411,-37.7310367],"type":"Point"},"properties":{"events":[{"categories":["Free","Music"],"eDate":"2024-02-25","eName":"Sunday Sunset Sessions","genre":"Jazz","price":"Free","supports":[],"ticketUrl":null,"time":" 6pm"}],"vName":"Ragtime Tavern"},"type":"Feature"},{"geometry":{"coordinates":[144.9631913,-37.7617818],"type":"Point"},"properties":{"events":[{"categories":["Free","Music"],"eDate":"2024-02-25","eName":"Freedom Fly + Miguel Palmeira","genre":"Jazz","price":"Free","supports":[],"ticketUrl":null,"time":" 2:30pm"},{"categories":["Free","Music"],"eDate":"2024-02-25","eName":"chapovski","genre":"Indie","price":"Free","supports":["Sorry"," Dave"," Hannah Cooper"],"ticketUrl":null,"time":" 8pm"}],"vName":"Ringo Barr"},"type":"Feature"}],"type":"FeatureCollection"}