{"features":[{"geometry":{"coordinates":[145.13337431967784,-37.91372355],"type":"Point"},"properties":{"events":[{"categories":["Music"],"eDate":"2025-10-10","eName":"Meg Washington","genre":"Indie","price":"$20.00 - 65.00","supports":[],"ticketUrl":null,"time":" 7:30pm"}],"vName":"Alexander Theatre"},"type":"Feature"},{"geometry":{"coordinates":[144.9891167,-37.7996488],"type":"Point"},"properties":{"events":[{"categories":["Music"],"eDate":"2025-10-10","eName":"The Repores","genre":"Rock","price":"$17.35","supports":["Red Envy"," Motion Blur"],"ticketUrl":null,"time":" 8pm"}],"vName":"Bendigo Hotel"},"type":"Feature"},{"geometry":{"coordinates":[144.9607158,-37.776327],"type":"Point"},"properties":{"events":[{"categories":["Music"],"eDate":"2025-10-10","eName":"Flyying Colours","genre":"Rock","price":"$33.15","supports":[],"ticketUrl":null,"time":" 8pm"}],"vName":"Bergy Bandroom"},"type":"Feature"},{"geometry":{"coordinates":[144.9568039,-37.8111442],"type":"Point"},"properties":{"events":[{"categories":["Music"],"eDate":"2025-10-10","eName":"Taylor Sheridan","genre":"Acoustic","price":"$38.00","supports":[],"ticketUrl":null,"time":" 7:30pm"}],"vName":"Bird's Basement"},"type":"Feature"},{"geometry":{"coordinates":[144.9552495,-37.8146155],"type":"Point"},"properties":{"events":[{"categories":["Music"],"eDate":"2025-10-10","eName":"Nerve: Mac Declos","genre":"Electronic","price":"$11.67","supports":["Akeylah"," Guhrl"," AK97"," Minicoop"," Jack Ahearn"," Maxy McKee"," Bellxsxs"," Jordan Maro"," more"],"ticketUrl":null,"time":"10pm"}],"vName":"Brown Alley"},"type":"Feature"},{"geometry":{"coordinates":[145.0002585,-37.7592368],"type":"Point"},"properties":{"events":[{"categories":["Music"],"eDate":"2025-10-10","eName":"Ghost","genre":null,"price":"$15.00","supports":["Everyday Believer"," Wriding"],"ticketUrl":null,"time":" 8pm"},{"categories":["Music"],"eDate":"2025-10-10","eName":"Post Ghost","genre":null,"price":"$15.00","supports":["Wriding"," Everyday Believer"],"ticketUrl":null,"time":" 8pm"}],"vName":"Cafe Gummo"},"type":"Feature"},{"geometry":{"coordinates":[144.9926664,-37.8248893],"type":"Point"},"properties":{"events":[{"categories":["Music"],"eDate":"2025-10-10","eName":"Dave Graney & The Coral Snakes","genre":"Rock","price":"$67.00","supports":[],"ticketUrl":null,"time":" 8:30pm"}],"vName":"Corner Hotel"},"type":"Feature"},{"geometry":{"coordinates":[144.9489214,-37.8106039],"type":"Point"},"properties":{"events":[{"categories":["Music"],"eDate":"2025-10-10","eName":"Yeat","genre":"Hip Hop","price":"$101.95","supports":[],"ticketUrl":null,"time":" 7pm"}],"vName":"Festival Hall"},"type":"Feature"},{"geometry":{"coordinates":[144.9693768,-37.8164414],"type":"Point"},"properties":{"events":[{"categories":["Music"],"eDate":"2025-10-10","eName":"The Rions","genre":"Indie","price":"$65.30","supports":["Ixaras"],"ticketUrl":null,"time":" 7pm"}],"vName":"Forum Melbourne"},"type":"Feature"},{"geometry":{"coordinates":[144.9777885,-37.8597831],"type":"Point"},"properties":{"events":[{"categories":["Music"],"eDate":"2025-10-10","eName":"Fables: Kevin & Tara","genre":"Acoustic","price":"Free","supports":[],"ticketUrl":null,"time":" 8pm"},{"categories":["Music"],"eDate":"2025-10-10","eName":"Johnny Gurr","genre":"Acoustic","price":"Free","supports":[],"ticketUrl":null,"time":"11pm"}],"vName":"Freddie Wimpoles"},"type":"Feature"},{"geometry":{"coordinates":[144.9787378,-37.7954205],"type":"Point"},"properties":{"events":[{"categories":["Music"],"eDate":"2025-10-10","eName":"Interval: International TBA + Deep Remedy Showcase","genre":"Electronic","price":"Free","supports":[],"ticketUrl":null,"time":" 8pm"}],"vName":"Glamorama"},"type":"Feature"},{"geometry":{"coordinates":[144.983442,-37.804851],"type":"Point"},"properties":{"events":[{"categories":["Music"],"eDate":"2025-10-10","eName":"Human Intrusion","genre":"Indie","price":"$15.00","supports":[],"ticketUrl":null,"time":" 8pm"}],"vName":"Grace Darling Hotel"},"type":"Feature"},{"geometry":{"coordinates":[145.0358857,-37.8230335],"type":"Point"},"properties":{"events":[{"categories":["Music"],"eDate":"2025-10-10","eName":"Cash: A Journey Through The American Recordings","genre":null,"price":"$52.00 - 65.00","supports":[],"ticketUrl":null,"time":" 7:30pm"}],"vName":"Hawthorn Arts Centre"},"type":"Feature"},{"geometry":{"coordinates":[144.973013,-37.8640582],"type":"Point"},"properties":{"events":[{"categories":["Free","Music"],"eDate":"2025-10-10","eName":"Solmaye","genre":"Rock","price":"Free","supports":[],"ticketUrl":null,"time":" 7pm"},{"categories":["Music"],"eDate":"2025-10-10","eName":"Best of Both Worlds Party","genre":"Pop","price":"$14.80 - 22.95","supports":[],"ticketUrl":null,"time":" 9pm"}],"vName":"Hotel Esplanade (aka The Espy)"},"type":"Feature"},{"geometry":{"coordinates":[144.9596527,-37.7720304],"type":"Point"},"properties":{"events":[{"categories":["Music"],"eDate":"2025-10-10","eName":"Peach Fuzz","genre":"Rock","price":"$28.56","supports":["Lottie McLeod"],"ticketUrl":null,"time":" 8pm"}],"vName":"Howler"},"type":"Feature"},{"geometry":{"coordinates":[145.0314658,-37.8067273],"type":"Point"},"properties":{"events":[{"categories":["Music"],"eDate":"2025-10-10","eName":"Kew Court House Live: Darcy Gilkerson","genre":"Jazz","price":"$20.00","supports":[],"ticketUrl":null,"time":" 7:30pm"}],"vName":"Kew Court House"},"type":"Feature"},{"geometry":{"coordinates":[144.8984802,-37.8111559],"type":"Point"},"properties":{"events":[{"categories":["Music"],"eDate":"2025-10-10","eName":"The Mufaro Show: Legacy","genre":"R&B","price":"$28.00","supports":["Janelle Ashley"," JVME"],"ticketUrl":null,"time":" 7pm"}],"vName":"Kindred Bandroom"},"type":"Feature"},{"geometry":{"coordinates":[145.0008148,-37.8107158],"type":"Point"},"properties":{"events":[{"categories":["Music"],"eDate":"2025-10-10","eName":"Council ov Evil Bastards","genre":"Metal","price":"$23.75","supports":["more"],"ticketUrl":null,"time":" 7pm"}],"vName":"Leadbeater Hotel"},"type":"Feature"},{"geometry":{"coordinates":[144.9658499,-37.8147453],"type":"Point"},"properties":{"events":[{"categories":["Music"],"eDate":"2025-10-10","eName":"Zebrahead","genre":"Punk","price":"$79.00","supports":[],"ticketUrl":null,"time":" 7pm"}],"vName":"Max Watt's (Melbourne)"},"type":"Feature"},{"geometry":{"coordinates":[144.9712356,-37.812902],"type":"Point"},"properties":{"events":[{"categories":["Music"],"eDate":"2025-10-10","eName":"Marcus Knight","genre":"Electronic","price":"Free","supports":[],"ticketUrl":null,"time":" 6pm"},{"categories":["Music"],"eDate":"2025-10-10","eName":"DJ Jason Conti","genre":"Electronic","price":"Free","supports":[],"ticketUrl":null,"time":" 8pm"},{"categories":["Music"],"eDate":"2025-10-10","eName":"LMD","genre":"Electronic","price":"Free","supports":[],"ticketUrl":null,"time":"10pm"},{"categories":["Music"],"eDate":"2025-10-10","eName":"Michael Koletsas","genre":"Electronic","price":"Free","supports":[],"ticketUrl":null,"time":"10pm"}],"vName":"Morris House"},"type":"Feature"},{"geometry":{"coordinates":[144.998414,-37.771471],"type":"Point"},"properties":{"events":[{"categories":["Music"],"eDate":"2025-10-10","eName":"Shawn James","genre":null,"price":"Free","supports":[],"ticketUrl":null,"time":" 8pm"}],"vName":"Northcote Social Club"},"type":"Feature"},{"geometry":{"coordinates":[144.9982706,-37.7737068],"type":"Point"},"properties":{"events":[{"categories":["Music"],"eDate":"2025-10-10","eName":"Lucky Ali","genre":"Global","price":"$56.30 - 138.92","supports":[],"ticketUrl":null,"time":" 7:30pm"}],"vName":"Northcote Theatre"},"type":"Feature"},{"geometry":{"coordinates":[145.0015248,-37.8258878],"type":"Point"},"properties":{"events":[{"categories":["Music"],"eDate":"2025-10-10","eName":"Scratch That Itch!","genre":"Soul/Funk","price":"$20.00","supports":[],"ticketUrl":null,"time":" 8pm"}],"vName":"Odeon Richmond"},"type":"Feature"},{"geometry":{"coordinates":[144.97711,-37.79833],"type":"Point"},"properties":{"events":[{"categories":["Music"],"eDate":"2025-10-10","eName":"Flight To Dubai","genre":"Rock","price":"$17.35","supports":["Favoured State"," Arrows of Desire"],"ticketUrl":null,"time":" 8pm"},{"categories":["Music"],"eDate":"2025-10-10","eName":"DJ Daggy Cool","genre":"Electronic","price":"Free","supports":[],"ticketUrl":null,"time":"11:30pm"}],"vName":"Old Bar"},"type":"Feature"},{"geometry":{"coordinates":[144.9741326,-37.8619943],"type":"Point"},"properties":{"events":[{"categories":["Music"],"eDate":"2025-10-10","eName":"LandDownUnder","genre":"Rock","price":"$34.70","supports":[],"ticketUrl":null,"time":" 9pm"}],"vName":"Prince Bandroom"},"type":"Feature"},{"geometry":{"coordinates":[144.9615882,-37.7711432],"type":"Point"},"properties":{"events":[{"categories":["Music"],"eDate":"2025-10-10","eName":"Sure Boy","genre":"Rock","price":"Free","supports":[],"ticketUrl":null,"time":" 7pm"}],"vName":"Retreat Hotel"},"type":"Feature"},{"geometry":{"coordinates":[144.993413,-37.8506652],"type":"Point"},"properties":{"events":[{"categories":["Music"],"eDate":"2025-10-10","eName":"Jacob Jean","genre":"R&B","price":"$9.18","supports":[],"ticketUrl":null,"time":" 7pm"}],"vName":"Revolver Upstairs"},"type":"Feature"},{"geometry":{"coordinates":[144.9463641,-37.8047757],"type":"Point"},"properties":{"events":[{"categories":["Music"],"eDate":"2025-10-10","eName":"The Ivy Walkers","genre":"Rock","price":"$11.25","supports":["Handgrenade Hearts"," The Pearlies"],"ticketUrl":null,"time":" 8pm"}],"vName":"The Last Chance Rock & Roll Bar"},"type":"Feature"},{"geometry":{"coordinates":[144.9998797,-37.7616512],"type":"Point"},"properties":{"events":[{"categories":["Music"],"eDate":"2025-10-10","eName":"The Man From Atlantis","genre":"Rock","price":"Free","supports":[],"ticketUrl":null,"time":" 8pm"}],"vName":"The Thornbury Local"},"type":"Feature"},{"geometry":{"coordinates":[144.9651425,-37.8119429],"type":"Point"},"properties":{"events":[{"categories":["Free","Music"],"eDate":"2025-10-10","eName":"Is That Garage? Vol 9","genre":"Electronic","price":"Free","supports":[],"ticketUrl":null,"time":"10pm"}],"vName":"The Toff In Town"},"type":"Feature"},{"geometry":{"coordinates":[144.9984324,-37.7729134],"type":"Point"},"properties":{"events":[{"categories":["Music"],"eDate":"2025-10-10","eName":"Beth Chia","genre":"Blues","price":"Free","supports":[],"ticketUrl":null,"time":" 6pm"},{"categories":["Music"],"eDate":"2025-10-10","eName":"Love Police Presents Dug","genre":"Country/Folk","price":"$48.45","supports":["Fountain Lakes"],"ticketUrl":null,"time":" 8pm"}],"vName":"Wesley Anne"},"type":"Feature"}],"type":"FeatureCollection"}