{"features":[{"geometry":{"coordinates":[144.99828116650363,-37.7713296],"type":"Point"},"properties":{"events":[{"categories":["Music"],"eDate":"2025-03-28","eName":"Opa! Bato Balkan Brass","genre":"Jazz","price":"$25.00 - 30.00","supports":[],"ticketUrl":null,"time":" 8pm"}],"vName":"Bar 303"},"type":"Feature"},{"geometry":{"coordinates":[144.978425,-37.79773],"type":"Point"},"properties":{"events":[{"categories":["Free","Music"],"eDate":"2025-03-28","eName":"The Four Scoops","genre":"Jazz","price":"Free","supports":[],"ticketUrl":null,"time":" 6:30pm"},{"categories":["Music"],"eDate":"2025-03-28","eName":"Tanner Keast","genre":"Rock","price":"$11.25","supports":["Sweatshop"," Violet"],"ticketUrl":null,"time":" 8:30pm"},{"categories":["Free","Music"],"eDate":"2025-03-28","eName":"Smoking Vinyl","genre":"Jazz","price":"Free","supports":[],"ticketUrl":null,"time":" 8:30pm"}],"vName":"Bar Open"},"type":"Feature"},{"geometry":{"coordinates":[144.9567859,-37.8111049],"type":"Point"},"properties":{"events":[{"categories":["Music"],"eDate":"2025-03-28","eName":"Mark Seymour","genre":"Rock","price":"$70.00","supports":[],"ticketUrl":null,"time":" 6pm"}],"vName":"Bird's Basement"},"type":"Feature"},{"geometry":{"coordinates":[144.9617018,-37.7704566],"type":"Point"},"properties":{"events":[{"categories":["Music"],"eDate":"2025-03-28","eName":"Struts","genre":"Country/Folk","price":"$28.15","supports":[],"ticketUrl":null,"time":" 7pm"}],"vName":"Brunswick Ballroom"},"type":"Feature"},{"geometry":{"coordinates":[144.9713425,-37.8128595],"type":"Point"},"properties":{"events":[{"categories":["Music"],"eDate":"2025-03-28","eName":"Rosco Mule","genre":"Rock","price":"$15.00","supports":["The Terrapins"," Phoenix Street"],"ticketUrl":null,"time":" 8pm"}],"vName":"Cherry Bar"},"type":"Feature"},{"geometry":{"coordinates":[144.9248037207342,-37.7656716],"type":"Point"},"properties":{"events":[{"categories":["Comedy"],"eDate":"2025-03-28","eName":"Jimeoin: Pandemonium","genre":null,"price":"$59.90","supports":[],"ticketUrl":null,"time":" 7:30pm"}],"vName":"Clocktower Centre"},"type":"Feature"},{"geometry":{"coordinates":[144.99266639479475,-37.82488935],"type":"Point"},"properties":{"events":[{"categories":["Music"],"eDate":"2025-03-28","eName":"Spike F*ck","genre":null,"price":"$40.40","supports":["Wet Kiss"," more"],"ticketUrl":null,"time":" 8:30pm"}],"vName":"Corner Hotel"},"type":"Feature"},{"geometry":{"coordinates":[144.98535244416098,-37.79426315],"type":"Point"},"properties":{"events":[{"categories":["Music"],"eDate":"2025-03-28","eName":"Spooky Eyes","genre":null,"price":"$14.30","supports":["Shadow Tussle"," Liam Watts"],"ticketUrl":null,"time":" 8pm"}],"vName":"Gasometer Hotel"},"type":"Feature"},{"geometry":{"coordinates":[144.9875917,-37.7963837],"type":"Point"},"properties":{"events":[{"categories":["Free","Music"],"eDate":"2025-03-28","eName":"Lenny Owens & The Love Struck Bucks + Freya J Hollick","genre":"Country/Folk","price":"Free","supports":[],"ticketUrl":null,"time":" 8pm"}],"vName":"Gem Bar"},"type":"Feature"},{"geometry":{"coordinates":[144.9679835243618,-37.8201575],"type":"Point"},"properties":{"events":[{"categories":["Music"],"eDate":"2025-03-28","eName":"Seasons: Vivaldi & more","genre":"Classical","price":"$81.00","supports":[],"ticketUrl":null,"time":" 7:30pm"}],"vName":"Hamer Hall (Arts Centre Melbourne)"},"type":"Feature"},{"geometry":{"coordinates":[144.90043927513608,-37.8115247],"type":"Point"},"properties":{"events":[{"categories":["Music"],"eDate":"2025-03-28","eName":"Atomic: The Songs Of Blondie + Black Market Clash","genre":null,"price":"$45.00","supports":[],"ticketUrl":null,"time":" 7:30pm"}],"vName":"Kindred Bandroom"},"type":"Feature"},{"geometry":{"coordinates":[145.0355738,-37.8205529],"type":"Point"},"properties":{"events":[{"categories":["Music"],"eDate":"2025-03-28","eName":"The Connie Lansberg Quartet","genre":"Jazz","price":"$25.00 - 30.00","supports":["Jex Saaralaht"],"ticketUrl":null,"time":" 8pm"}],"vName":"Lido Jazz Room"},"type":"Feature"},{"geometry":{"coordinates":[144.8971518,-37.8054274],"type":"Point"},"properties":{"events":[{"categories":["Music"],"eDate":"2025-03-28","eName":"Catharsis 1969","genre":null,"price":"$15.00 - 20.00","supports":["Antonia Kay"," Tim K"],"ticketUrl":null,"time":" 7:30pm"}],"vName":"Mamma Chen's"},"type":"Feature"},{"geometry":{"coordinates":[144.998414,-37.771471],"type":"Point"},"properties":{"events":[{"categories":["Music"],"eDate":"2025-03-28","eName":"Hachiku","genre":"Indie","price":"$35.30","supports":[],"ticketUrl":null,"time":" 8:30pm"}],"vName":"Northcote Social Club"},"type":"Feature"},{"geometry":{"coordinates":[144.9977626,-37.7755001],"type":"Point"},"properties":{"events":[{"categories":["Music"],"eDate":"2025-03-28","eName":"TECH N9NE + Joey Cool","genre":"Hip Hop","price":"$89.90","supports":["Shorty Mic"],"ticketUrl":null,"time":" 7:30pm"}],"vName":"Northcote Theatre"},"type":"Feature"},{"geometry":{"coordinates":[144.97711,-37.79833],"type":"Point"},"properties":{"events":[{"categories":["Music"],"eDate":"2025-03-28","eName":"Motor Inn","genre":"Indie","price":"$11.25","supports":["Doggerel"," Hell Jones"],"ticketUrl":null,"time":" 8pm"}],"vName":"Old Bar"},"type":"Feature"},{"geometry":{"coordinates":[144.9605705,-37.8132486],"type":"Point"},"properties":{"events":[{"categories":["Music"],"eDate":"2025-03-28","eName":"Georga Byrne & Ally Mac present Songbird;p The Story and Music of Eva Cassidy","genre":"Jazz","price":"$45.00","supports":[],"ticketUrl":null,"time":" 6pm"},{"categories":["Music"],"eDate":"2025-03-28","eName":"Liz Violi Sings Nostalgic Notes... 80s & 90s Revamped & Reimagined","genre":"Soul/Funk","price":"$45.00","supports":[],"ticketUrl":null,"time":" 6:30pm"},{"categories":["Music"],"eDate":"2025-03-28","eName":"Not So Big Band: The Music of Sting","genre":"Jazz","price":"$48.00","supports":[],"ticketUrl":null,"time":" 8pm"},{"categories":["Music"],"eDate":"2025-03-28","eName":"The Romans with Amelia Evans","genre":"Jazz","price":"$45.00","supports":[],"ticketUrl":null,"time":" 9:30pm"}],"vName":"Paris Cat Jazz Club"},"type":"Feature"},{"geometry":{"coordinates":[144.9607404,-37.7743469],"type":"Point"},"properties":{"events":[{"categories":["Music"],"eDate":"2025-03-28","eName":"A Fever You Can't Sweat Out: 20 Year Anniversary Party","genre":"Punk","price":"$19.99","supports":[],"ticketUrl":null,"time":" 7pm"},{"categories":["Music"],"eDate":"2025-03-28","eName":"Rosco Mule","genre":"Rock","price":"$17.48","supports":["The Terrapins"," Phoenix Street"],"ticketUrl":null,"time":" 8pm"},{"categories":["Music"],"eDate":"2025-03-28","eName":"Bring It Back: A Y2K Pop Party","genre":"Pop","price":"$11.65","supports":[],"ticketUrl":null,"time":"11pm"}],"vName":"Stay Gold"},"type":"Feature"},{"geometry":{"coordinates":[144.9622,-37.7679857],"type":"Point"},"properties":{"events":[{"categories":["Free","Music"],"eDate":"2025-03-28","eName":"Drop Keys","genre":"Soul/Funk","price":"Free","supports":[],"ticketUrl":null,"time":" 8:30pm"}],"vName":"The Penny Black"},"type":"Feature"},{"geometry":{"coordinates":[144.9983987,-37.7729204],"type":"Point"},"properties":{"events":[{"categories":["Free","Music"],"eDate":"2025-03-28","eName":"Conor Anderson-Vague Trio","genre":"Jazz","price":"Free","supports":[],"ticketUrl":null,"time":" 6pm"}],"vName":"Wesley Anne"},"type":"Feature"}],"type":"FeatureCollection"}