{"features":[{"geometry":{"coordinates":[144.9679835,-37.8201575],"type":"Point"},"properties":{"events":[{"categories":["Other \"Dance \""],"eDate":"2025-06-15","eName":"The Chronicles","genre":null,"price":"$53.00 - 79.00","supports":[],"ticketUrl":null,"time":" 5pm"}],"vName":"Arts Centre Melbourne"},"type":"Feature"},{"geometry":{"coordinates":[144.9500257,-37.8032773],"type":"Point"},"properties":{"events":[{"categories":["Other \"Dance \""],"eDate":"2025-06-15","eName":"Joel Bray Dance presents MONOLITH","genre":null,"price":"$49.00","supports":[],"ticketUrl":null,"time":" 5pm"}],"vName":"Arts House"},"type":"Feature"},{"geometry":{"coordinates":[145.0192156,-37.7562323],"type":"Point"},"properties":{"events":[{"categories":["Music","Theatre"],"eDate":"2025-06-15","eName":"Hedwig & The Angry Inch","genre":"Rock","price":"$69.00 - 159.00","supports":[],"ticketUrl":null,"time":" 6pm"}],"vName":"Athenaeum Theatre"},"type":"Feature"},{"geometry":{"coordinates":[144.9982812,-37.7713296],"type":"Point"},"properties":{"events":[{"categories":["Music"],"eDate":"2025-06-15","eName":"We Will Stand: Rose Turtle Ertler","genre":"Country/Folk","price":"Free","supports":["DJ Annie Apple"],"ticketUrl":null,"time":" 5pm"}],"vName":"Bar 303"},"type":"Feature"},{"geometry":{"coordinates":[144.978682,-37.7981225],"type":"Point"},"properties":{"events":[{"categories":["Free","Music"],"eDate":"2025-06-15","eName":"Griffin Morris","genre":null,"price":"Free","supports":[],"ticketUrl":null,"time":" 9pm"}],"vName":"Baxter's Lot"},"type":"Feature"},{"geometry":{"coordinates":[144.9607158,-37.776327],"type":"Point"},"properties":{"events":[{"categories":["Music"],"eDate":"2025-06-15","eName":"Keynan","genre":"Metal","price":"$29.90","supports":["Sebasticide"," Aurateque"],"ticketUrl":null,"time":" 6pm"}],"vName":"Bergy Bandroom"},"type":"Feature"},{"geometry":{"coordinates":[144.9945274,-37.8001115],"type":"Point"},"properties":{"events":[{"categories":["Free","Music","Other \"Food \""],"eDate":"2025-06-15","eName":"Tamo Junto Presents: Forró Lunar","genre":null,"price":"Free","supports":[],"ticketUrl":null,"time":" 3pm"}],"vName":"Bodriggy Brewing Company"},"type":"Feature"},{"geometry":{"coordinates":[145.0004166,-37.7612582],"type":"Point"},"properties":{"events":[{"categories":["Music"],"eDate":"2025-06-15","eName":"Class Traitor","genre":"Metal","price":"$10.00 - 15.00","supports":["Sondar"," Lily Of The Valley"],"ticketUrl":null,"time":" 4pm"},{"categories":["Music"],"eDate":"2025-06-15","eName":"Class Traitor","genre":"Rock","price":"$13.80","supports":["Sondar"," Lily Of The Valley"],"ticketUrl":null,"time":" 4pm"}],"vName":"Cactus Room"},"type":"Feature"},{"geometry":{"coordinates":[144.9951224,-37.8476521],"type":"Point"},"properties":{"events":[{"categories":["Music","Comedy","Theatre"],"eDate":"2025-06-15","eName":"Promise & Promiscuity","genre":"Pop","price":"$39.50","supports":[],"ticketUrl":null,"time":" 6pm"}],"vName":"Chapel Off Chapel"},"type":"Feature"},{"geometry":{"coordinates":[144.9875792,-37.7963739],"type":"Point"},"properties":{"events":[{"categories":["Music"],"eDate":"2025-06-15","eName":"The Hope Di Do Review","genre":"Country/Folk","price":"$25.75","supports":["more"],"ticketUrl":null,"time":" 4pm"}],"vName":"Gem Bar"},"type":"Feature"},{"geometry":{"coordinates":[144.8975289,-37.8022392],"type":"Point"},"properties":{"events":[{"categories":["Music"],"eDate":"2025-06-15","eName":"Flora","genre":null,"price":"$10.00 - 15.00","supports":["Danika"," Max Aurora"],"ticketUrl":null,"time":" 2:30pm"},{"categories":["Free","Music"],"eDate":"2025-06-15","eName":"Melbourne Chiptune Academy: June Meetup & Open Mic!","genre":null,"price":"Free","supports":[],"ticketUrl":null,"time":" 7pm"}],"vName":"Mamma Chen's"},"type":"Feature"},{"geometry":{"coordinates":[144.9920349,-37.8074016],"type":"Point"},"properties":{"events":[{"categories":["Music"],"eDate":"2025-06-15","eName":"Where’s Jimmy","genre":"Punk","price":"$23.50","supports":["W.O.M.B.A.T"," Vixen Scream"," Handgrenade Hearts"],"ticketUrl":null,"time":" 3pm"}],"vName":"The Yorkshire Stingo Hotel"},"type":"Feature"}],"type":"FeatureCollection"}