{"features":[{"geometry":{"coordinates":[144.99828116650363,-37.7713296],"type":"Point"},"properties":{"events":[{"categories":["Music"],"eDate":"2025-03-29","eName":"Homebass","genre":"Electronic","price":"Free","supports":[],"ticketUrl":null,"time":" 8:30pm"}],"vName":"Bar 303"},"type":"Feature"},{"geometry":{"coordinates":[144.978425,-37.79773],"type":"Point"},"properties":{"events":[{"categories":["Music","Comedy","Other \"Cabaret\""],"eDate":"2025-03-29","eName":"The Dilapidated Diva: On The Verge...","genre":"Jazz","price":"$17.50 - 27.50","supports":[],"ticketUrl":null,"time":" 7pm"},{"categories":["Music"],"eDate":"2025-03-29","eName":"Slow Grind Fever #109","genre":"Soul/Funk","price":"$15.00","supports":[],"ticketUrl":null,"time":" 9pm"}],"vName":"Bar Open"},"type":"Feature"},{"geometry":{"coordinates":[144.9617018,-37.7704566],"type":"Point"},"properties":{"events":[{"categories":["Music"],"eDate":"2025-03-29","eName":"The Counterfeit presents The Music of ENNIO MORRICONE & the Spaghetti West","genre":"Country/Folk","price":"$38.86","supports":[],"ticketUrl":null,"time":" 8:30pm"}],"vName":"Brunswick Ballroom"},"type":"Feature"},{"geometry":{"coordinates":[145.0006024,-37.8837941],"type":"Point"},"properties":{"events":[{"categories":["Music"],"eDate":"2025-03-29","eName":"The Tamara Kuldin Quartet","genre":"Jazz","price":"$25.00 - 30.00","supports":[],"ticketUrl":null,"time":" 8pm"},{"categories":["Music"],"eDate":"2025-03-29","eName":"The Tamara Kuldin Quartet","genre":"Jazz","price":"$30.00","supports":[],"ticketUrl":null,"time":" 8pm"}],"vName":"Classic Southside"},"type":"Feature"},{"geometry":{"coordinates":[144.9248037207342,-37.7656716],"type":"Point"},"properties":{"events":[{"categories":["Music"],"eDate":"2025-03-29","eName":"The Poems, Prayers & Promises of John Denver with Darren Coggan","genre":"Country/Folk","price":"$65.00","supports":[],"ticketUrl":null,"time":" 7:30pm"}],"vName":"Clocktower Centre"},"type":"Feature"},{"geometry":{"coordinates":[144.9875917,-37.7963837],"type":"Point"},"properties":{"events":[{"categories":["Free","Music"],"eDate":"2025-03-29","eName":"Sin City + Adam Hattaway","genre":"Country/Folk","price":"Free","supports":[],"ticketUrl":null,"time":" 8pm"}],"vName":"Gem Bar"},"type":"Feature"},{"geometry":{"coordinates":[144.9778169,-37.8600967],"type":"Point"},"properties":{"events":[{"categories":["Music"],"eDate":"2025-03-29","eName":"The Rebelles","genre":"Jazz","price":"$20.00","supports":[],"ticketUrl":null,"time":" 2:30pm"}],"vName":"George Lane"},"type":"Feature"},{"geometry":{"coordinates":[144.9679835243618,-37.8201575],"type":"Point"},"properties":{"events":[{"categories":["Music"],"eDate":"2025-03-29","eName":"Melbourne Symphony Orchestra presents Coronation Anthems","genre":"Classical","price":"$67.00","supports":[],"ticketUrl":null,"time":" 2pm"}],"vName":"Hamer Hall (Arts Centre Melbourne)"},"type":"Feature"},{"geometry":{"coordinates":[145.0355738,-37.8205529],"type":"Point"},"properties":{"events":[{"categories":["Music"],"eDate":"2025-03-29","eName":"The Emma Gilmartin Quartet","genre":"Jazz","price":"$25.00 - 30.00","supports":[],"ticketUrl":null,"time":" 8pm"}],"vName":"Lido Jazz Room"},"type":"Feature"},{"geometry":{"coordinates":[144.8971518,-37.8054274],"type":"Point"},"properties":{"events":[{"categories":["Music"],"eDate":"2025-03-29","eName":"Keratin","genre":null,"price":"$15.00","supports":["Sun Run"," Everyday Believer"," Welfare"],"ticketUrl":null,"time":" 7pm"}],"vName":"Mamma Chen's"},"type":"Feature"},{"geometry":{"coordinates":[144.96741062735794,-37.82454855],"type":"Point"},"properties":{"events":[{"categories":["Music"],"eDate":"2025-03-29","eName":"Ravel & The Spirit of French Music","genre":"Classical","price":"$62.00","supports":[],"ticketUrl":null,"time":" 1pm"},{"categories":["Music"],"eDate":"2025-03-29","eName":"Hoang Pham in Recital","genre":"Classical","price":"$68.00","supports":[],"ticketUrl":null,"time":" 6pm"}],"vName":"Melbourne Recital Centre"},"type":"Feature"},{"geometry":{"coordinates":[144.998414,-37.771471],"type":"Point"},"properties":{"events":[{"categories":["Music"],"eDate":"2025-03-29","eName":"Alice Ivy","genre":"Electronic","price":"$29.10","supports":[],"ticketUrl":null,"time":" 8:30pm"}],"vName":"Northcote Social Club"},"type":"Feature"},{"geometry":{"coordinates":[144.9977626,-37.7755001],"type":"Point"},"properties":{"events":[{"categories":["Music"],"eDate":"2025-03-29","eName":"Telenova","genre":null,"price":"$49.90","supports":["Lotte Gallagher"," Tash"],"ticketUrl":null,"time":" 7pm"}],"vName":"Northcote Theatre"},"type":"Feature"},{"geometry":{"coordinates":[144.9605705,-37.8132486],"type":"Point"},"properties":{"events":[{"categories":["Music"],"eDate":"2025-03-29","eName":"GrooVe Congress Plays Postmodern Jukebox with Imogen Spendlove","genre":"Jazz","price":"$45.00","supports":[],"ticketUrl":null,"time":" 6pm"},{"categories":["Music"],"eDate":"2025-03-29","eName":"Anything Goes: The Songs of Cole Porter","genre":"Jazz","price":"$45.00","supports":[],"ticketUrl":null,"time":" 6:30pm"},{"categories":["Music"],"eDate":"2025-03-29","eName":"The Aretha Franklin Project with Joys Njambi","genre":"Jazz","price":"$48.00","supports":[],"ticketUrl":null,"time":" 9pm"},{"categories":["Music"],"eDate":"2025-03-29","eName":"Nadira & Eamon McNelis Present: The Magic of Jazz Duets","genre":"Jazz","price":"$45.00","supports":[],"ticketUrl":null,"time":" 9:30pm"}],"vName":"Paris Cat Jazz Club"},"type":"Feature"},{"geometry":{"coordinates":[144.9878631,-37.9220954],"type":"Point"},"properties":{"events":[{"categories":["Music"],"eDate":"2025-03-29","eName":"Aurora Mackrill & The Craig Schneider Trio: Liza & All That Jazz","genre":"Jazz","price":"$50.00","supports":[],"ticketUrl":null,"time":" 8:30pm"}],"vName":"Royal Brighton Yacht Club"},"type":"Feature"},{"geometry":{"coordinates":[144.9607404,-37.7743469],"type":"Point"},"properties":{"events":[{"categories":["Music"],"eDate":"2025-03-29","eName":"Visualis","genre":"Metal","price":"$17.48","supports":["Demon Head"," Rawtism"," Katana Cartel"],"ticketUrl":null,"time":" 7pm"},{"categories":["Music"],"eDate":"2025-03-29","eName":"Kitchen","genre":"Electronic","price":"$11.65","supports":[],"ticketUrl":null,"time":"11pm"}],"vName":"Stay Gold"},"type":"Feature"},{"geometry":{"coordinates":[144.9715321,-37.8098002],"type":"Point"},"properties":{"events":[{"categories":["Comedy"],"eDate":"2025-03-29","eName":"Isabella Charlton: So My Dad F***** the Nanny","genre":null,"price":"$15.00 - 25.00","supports":[],"ticketUrl":null,"time":" 5:30pm"}],"vName":"StoryVille"},"type":"Feature"},{"geometry":{"coordinates":[144.9657057,-37.8061581],"type":"Point"},"properties":{"events":[{"categories":["Music"],"eDate":"2025-03-29","eName":"Sweet Talk","genre":"Rock","price":"$27.95","supports":[],"ticketUrl":null,"time":" 8pm"}],"vName":"The Curtin"},"type":"Feature"}],"type":"FeatureCollection"}