{"features":[{"geometry":{"coordinates":[144.9945274,-37.8001115],"type":"Point"},"properties":{"events":[{"categories":["Free","Festival","Other \"Food \"","Music"],"eDate":"2026-03-26","eName":"Club Tropicana: GDB Quartet with VYDA","genre":null,"price":"Free","supports":[],"ticketUrl":null,"time":" 7:30pm"},{"categories":["Festival","Comedy","Other \"Food \""],"eDate":"2026-03-26","eName":"On The Gags: Comedy Fest Extravaganza","genre":null,"price":"$20.00 - 25.00","supports":[],"ticketUrl":null,"time":" 8pm"}],"vName":"Bodriggy Brewing Company"},"type":"Feature"},{"geometry":{"coordinates":[144.9627513,-37.760963],"type":"Point"},"properties":{"events":[{"categories":["Music","Free"],"eDate":"2026-03-26","eName":"Jade Paw","genre":"Indie","price":"Free","supports":[],"ticketUrl":null,"time":" 7pm"}],"vName":"Edinburgh Castle Hotel"},"type":"Feature"},{"geometry":{"coordinates":[144.959768,-37.831777],"type":"Point"},"properties":{"events":[{"categories":["Music"],"eDate":"2026-03-26","eName":"John Montesante Quintet: Juliarna Clark + Tony Hicks","genre":"Jazz","price":"$20.00","supports":[],"ticketUrl":null,"time":" 6:30pm"}],"vName":"Golden Gate Hotel"},"type":"Feature"},{"geometry":{"coordinates":[144.9675876,-37.8240849],"type":"Point"},"properties":{"events":[{"categories":["Music"],"eDate":"2026-03-26","eName":"Listening to the Elements (Relaxed Performance)","genre":"Classical","price":"$10.00","supports":[],"ticketUrl":null,"time":"10:30am"}],"vName":"Melbourne Recital Centre"},"type":"Feature"},{"geometry":{"coordinates":[144.998414,-37.771471],"type":"Point"},"properties":{"events":[{"categories":["Music"],"eDate":"2026-03-26","eName":"Pinky Beecroft","genre":"Rock","price":"$51.10","supports":["Lachlan Bryan"],"ticketUrl":null,"time":" 8pm"},{"categories":["Music"],"eDate":"2026-03-26","eName":"Pinky Beecroft","genre":"Rock","price":"$51.10","supports":["Lachlan Bryan"],"ticketUrl":null,"time":" 8pm"}],"vName":"Northcote Social Club"},"type":"Feature"},{"geometry":{"coordinates":[144.96084,-37.813514],"type":"Point"},"properties":{"events":[{"categories":["Music"],"eDate":"2026-03-26","eName":"The Daryl McKenzie Jazz Orchestra with Jacqueline Gawler","genre":"Jazz","price":"$45.00","supports":[],"ticketUrl":null,"time":" 7:30pm"},{"categories":["Music"],"eDate":"2026-03-26","eName":"Pattison/Koop/Swain","genre":"Jazz","price":"$40.00","supports":[],"ticketUrl":null,"time":" 7:30pm"}],"vName":"Paris Cat Jazz Club"},"type":"Feature"},{"geometry":{"coordinates":[144.9761619,-37.8230506],"type":"Point"},"properties":{"events":[{"categories":["Music"],"eDate":"2026-03-26","eName":"Jordan Davis","genre":"Country/Folk","price":"$99.00","supports":[],"ticketUrl":null,"time":" 6:30pm"}],"vName":"Rod Laver Arena"},"type":"Feature"},{"geometry":{"coordinates":[144.9794553,-37.7982653],"type":"Point"},"properties":{"events":[{"categories":["Music"],"eDate":"2026-03-26","eName":"Gareth","genre":"Country/Folk","price":"$60.95","supports":[],"ticketUrl":null,"time":" 7:30pm"}],"vName":"The Night Cat"},"type":"Feature"},{"geometry":{"coordinates":[144.9870814,-37.799406],"type":"Point"},"properties":{"events":[{"categories":["Music"],"eDate":"2026-03-26","eName":"Forever Mourning: Forever at Midnight + Call the Mourning","genre":"Punk","price":"$16.35","supports":["Ultravlt"," Tiny Red Houses"],"ticketUrl":null,"time":" 7:30pm"}],"vName":"The Tote Hotel"},"type":"Feature"},{"geometry":{"coordinates":[144.9984324,-37.7729134],"type":"Point"},"properties":{"events":[{"categories":["Music"],"eDate":"2026-03-26","eName":"Tall Timber","genre":"Indie","price":"Free","supports":[],"ticketUrl":null,"time":" 6pm"},{"categories":["Music"],"eDate":"2026-03-26","eName":"Henry Fenton","genre":"Country/Folk","price":"$23.20","supports":["Alison Ferrier"],"ticketUrl":null,"time":" 8pm"}],"vName":"Wesley Anne"},"type":"Feature"}],"type":"FeatureCollection"}