{"features":[{"geometry":{"coordinates":[144.99828116650363,-37.7713296],"type":"Point"},"properties":{"events":[{"categories":["Free","Music"],"eDate":"2024-12-28","eName":"Homebass","genre":"Electronic","price":"$0.00 - 10.00","supports":["more"],"ticketUrl":null,"time":" 8pm"}],"vName":"Bar 303"},"type":"Feature"},{"geometry":{"coordinates":[144.978425,-37.79773],"type":"Point"},"properties":{"events":[{"categories":["Music"],"eDate":"2024-12-28","eName":"SHIRKHER","genre":"Rock","price":"$15.00","supports":["LXRP"," Realname"],"ticketUrl":null,"time":" 8:30pm"}],"vName":"Bar Open"},"type":"Feature"},{"geometry":{"coordinates":[144.9607158,-37.776327],"type":"Point"},"properties":{"events":[{"categories":["Music"],"eDate":"2024-12-28","eName":"Flower Field Folly","genre":"Rock","price":"$16.85","supports":["Nephalem"," Malcura"," Gorrister"],"ticketUrl":null,"time":" 7pm"}],"vName":"Bergy Bandroom"},"type":"Feature"},{"geometry":{"coordinates":[144.9567859,-37.8111049],"type":"Point"},"properties":{"events":[{"categories":["Music"],"eDate":"2024-12-28","eName":"Relax With Max","genre":"Soul/Funk","price":"$35.00","supports":[],"ticketUrl":null,"time":" 6pm"}],"vName":"Bird's Basement"},"type":"Feature"},{"geometry":{"coordinates":[144.9786817,-37.8671902],"type":"Point"},"properties":{"events":[{"categories":["Music"],"eDate":"2024-12-28","eName":"The Black Sorrows","genre":"Soul/Funk","price":"$45.00 - 70.00","supports":[],"ticketUrl":null,"time":" 7pm"}],"vName":"Memo Music Hall"},"type":"Feature"},{"geometry":{"coordinates":[144.9712356,-37.812902],"type":"Point"},"properties":{"events":[{"categories":["Comedy"],"eDate":"2024-12-28","eName":"Basement Comedy Club","genre":null,"price":"$25.00","supports":[],"ticketUrl":null,"time":" 8pm"}],"vName":"Morris House"},"type":"Feature"},{"geometry":{"coordinates":[144.97711,-37.79833],"type":"Point"},"properties":{"events":[{"categories":["Free","Music"],"eDate":"2024-12-28","eName":"John Kennedy Band + Ten Gallon Head","genre":"Rock","price":"Free","supports":["Chloe Booth"," The Opals"],"ticketUrl":null,"time":" 3:30pm"}],"vName":"Old Bar"},"type":"Feature"},{"geometry":{"coordinates":[144.9988348,-37.8525949],"type":"Point"},"properties":{"events":[{"categories":["Music"],"eDate":"2024-12-28","eName":"OZO presents: Disconnect","genre":"Electronic","price":"$10.00 - 20.00","supports":[],"ticketUrl":null,"time":" 6pm"}],"vName":"OneSixOne"},"type":"Feature"},{"geometry":{"coordinates":[144.9615882,-37.7711432],"type":"Point"},"properties":{"events":[{"categories":["Free","Music"],"eDate":"2024-12-28","eName":"Sunbeam Sound Machine","genre":"Indie","price":"Free","supports":["Taylah Carroll"],"ticketUrl":null,"time":" 2:30pm"}],"vName":"Retreat Hotel"},"type":"Feature"},{"geometry":{"coordinates":[145.001392343033,-37.75592655],"type":"Point"},"properties":{"events":[{"categories":["Music"],"eDate":"2024-12-28","eName":"Aardvark","genre":"Rock","price":"$18.35","supports":["Grim Rhythm"," The 6v6s"],"ticketUrl":null,"time":" 8pm"}],"vName":"Shotkickers"},"type":"Feature"},{"geometry":{"coordinates":[144.9708437,-37.7973184],"type":"Point"},"properties":{"events":[{"categories":["Free","Music"],"eDate":"2024-12-28","eName":"Jazz Arvos","genre":"Jazz","price":"Free","supports":[],"ticketUrl":null,"time":" 5pm"},{"categories":["Comedy"],"eDate":"2024-12-28","eName":"The Big HOO HAA!","genre":null,"price":"$30.39","supports":[],"ticketUrl":null,"time":" 8:30pm"}],"vName":"The Motley Bauhaus"},"type":"Feature"},{"geometry":{"coordinates":[144.9830837,-37.7988316],"type":"Point"},"properties":{"events":[{"categories":["Music"],"eDate":"2024-12-28","eName":"Dave Lee","genre":"Soul/Funk","price":"$29.57 - 34.66","supports":[],"ticketUrl":null,"time":" 9pm"}],"vName":"The Night Cat"},"type":"Feature"},{"geometry":{"coordinates":[144.9830837,-37.7988316],"type":"Point"},"properties":{"events":[{"categories":["Music"],"eDate":"2024-12-28","eName":"Eluize","genre":"Electronic","price":"$20.00","supports":[],"ticketUrl":null,"time":"11pm"},{"categories":["Music"],"eDate":"2024-12-28","eName":"Eluize","genre":"Electronic","price":"$20.00","supports":[],"ticketUrl":null,"time":"11pm"}],"vName":"The Rochester"},"type":"Feature"},{"geometry":{"coordinates":[144.9846126,-37.7989941],"type":"Point"},"properties":{"events":[{"categories":["Free","Music"],"eDate":"2024-12-28","eName":"Post Hexmas","genre":"Rock","price":"Free","supports":["Future Tongues"],"ticketUrl":null,"time":" 3pm"}],"vName":"The Tote Hotel"},"type":"Feature"}],"type":"FeatureCollection"}