{"features":[{"geometry":{"coordinates":[144.978682,-37.7981225],"type":"Point"},"properties":{"events":[{"categories":["Free","Music"],"eDate":"2025-05-18","eName":"Mukul Jiwnani","genre":null,"price":"Free","supports":[],"ticketUrl":null,"time":" 9pm"}],"vName":"Baxter's Lot"},"type":"Feature"},{"geometry":{"coordinates":[144.9945274,-37.8001115],"type":"Point"},"properties":{"events":[{"categories":["Free","Music","Other \"Dance \"","Other \"Food \""],"eDate":"2025-05-18","eName":"Buck Dancer’s Choice + Bootscootin’","genre":null,"price":"Free","supports":[],"ticketUrl":null,"time":" 1:30pm"}],"vName":"Bodriggy Brewing Company"},"type":"Feature"},{"geometry":{"coordinates":[144.9951224,-37.8476521],"type":"Point"},"properties":{"events":[{"categories":["Music"],"eDate":"2025-05-18","eName":"Riebl, Tedesco & McGill (The Cat Empire)","genre":"Jazz","price":"$50.00 - 65.00","supports":[],"ticketUrl":null,"time":" 7pm"}],"vName":"Chapel Off Chapel"},"type":"Feature"},{"geometry":{"coordinates":[144.97609011199125,-37.867583041643705],"type":"Point"},"properties":{"events":[{"categories":["Music"],"eDate":"2025-05-18","eName":"Snarky Puppy","genre":"Jazz","price":"$109.90 - 149.90","supports":[],"ticketUrl":null,"time":" 7pm"}],"vName":"Palais Theatre"},"type":"Feature"},{"geometry":{"coordinates":[145.0142411,-37.7310367],"type":"Point"},"properties":{"events":[{"categories":["Free","Music"],"eDate":"2025-05-18","eName":"Sunday Sunset Sessions","genre":"Jazz","price":"Free","supports":[],"ticketUrl":null,"time":" 7pm"}],"vName":"Ragtime Tavern"},"type":"Feature"},{"geometry":{"coordinates":[145.3534507,-37.9100746],"type":"Point"},"properties":{"events":[{"categories":["Music"],"eDate":"2025-05-18","eName":"Sooki Open Mic","genre":"Acoustic","price":"Free","supports":[],"ticketUrl":null,"time":" 5pm"}],"vName":"Sooki Lounge"},"type":"Feature"},{"geometry":{"coordinates":[145.1334272,-37.9135736],"type":"Point"},"properties":{"events":[{"categories":["Music"],"eDate":"2025-05-18","eName":"Sharon & Slava Grigoryan","genre":"Classical","price":"$20.00 - 39.00","supports":[],"ticketUrl":null,"time":" 3pm"}],"vName":"The Ian Potter Centre for Performing Arts"},"type":"Feature"},{"geometry":{"coordinates":[144.9879283,-37.7505509],"type":"Point"},"properties":{"events":[{"categories":["Music"],"eDate":"2025-05-18","eName":"Mark Sinton","genre":"Acoustic","price":"Free","supports":[],"ticketUrl":null,"time":" 4pm"}],"vName":"The Merri Bar"},"type":"Feature"}],"type":"FeatureCollection"}