{"features":[{"geometry":{"coordinates":[144.9763781,-37.7983136],"type":"Point"},"properties":{"events":[{"categories":["Music"],"eDate":"2024-03-15","eName":"LIT Studios presents SpaceCake Recordings (Producer Edition 2.0)","genre":"Electronic","price":"$18.03","supports":["Lektrk"," BigDaff"," Zanos"," LCK",""," Felix R"," Blkdrvgon"," Xovr"],"ticketUrl":null,"time":" 7pm"}],"vName":"Bad Decisions Bar"},"type":"Feature"},{"geometry":{"coordinates":[144.99828116650363,-37.7713296],"type":"Point"},"properties":{"events":[{"categories":["Music"],"eDate":"2024-03-15","eName":"OSBO","genre":"Metal","price":"$20.00 - 25.00","supports":["Geld"," Eyeroll"," Clit Split"," Serpette"],"ticketUrl":null,"time":" 7:30pm"}],"vName":"Bar 303"},"type":"Feature"},{"geometry":{"coordinates":[144.9617018,-37.7704566],"type":"Point"},"properties":{"events":[{"categories":["Music"],"eDate":"2024-03-15","eName":"A Friendship Fundraiser","genre":"Rock","price":"$23.05","supports":["Jarrow"," Tamara & The Dreams"," Bakers Eddy"," Dogworld"," more"],"ticketUrl":null,"time":" 8pm"}],"vName":"Brunswick Ballroom"},"type":"Feature"},{"geometry":{"coordinates":[145.00041662186553,-37.76125825],"type":"Point"},"properties":{"events":[{"categories":["Music"],"eDate":"2024-03-15","eName":"Dolls Single Launch","genre":null,"price":"$10.00","supports":["Kill Bell"," Maggie Slater"],"ticketUrl":null,"time":" 8pm"}],"vName":"Cactus Room"},"type":"Feature"},{"geometry":{"coordinates":[144.9713425,-37.8128595],"type":"Point"},"properties":{"events":[{"categories":["Music"],"eDate":"2024-03-15","eName":"The Neurotics","genre":"Punk","price":"$14.41","supports":[],"ticketUrl":null,"time":" 8:30pm"}],"vName":"Cherry Bar"},"type":"Feature"},{"geometry":{"coordinates":[144.99266639479475,-37.82488935],"type":"Point"},"properties":{"events":[{"categories":["Music"],"eDate":"2024-03-15","eName":"Mia Dyson","genre":"Indie","price":"$46.00","supports":["Lewis Coleman"],"ticketUrl":null,"time":" 8pm"}],"vName":"Corner Hotel"},"type":"Feature"},{"geometry":{"coordinates":[144.9745581,-37.7694446],"type":"Point"},"properties":{"events":[{"categories":["Music"],"eDate":"2024-03-15","eName":"Fridays @ Cross Street - Operation: Free Jam","genre":null,"price":"$20.00","supports":[],"ticketUrl":null,"time":" 8:30pm"}],"vName":"Cross Street Music Hall"},"type":"Feature"},{"geometry":{"coordinates":[144.9628440552175,-37.76100605],"type":"Point"},"properties":{"events":[{"categories":["Free","Music","Trivia"],"eDate":"2024-03-15","eName":"Bingo & Disco","genre":"Electronic","price":"Free","supports":[],"ticketUrl":null,"time":" 8pm"}],"vName":"Edinburgh Castle Hotel"},"type":"Feature"},{"geometry":{"coordinates":[144.9875917,-37.7963837],"type":"Point"},"properties":{"events":[{"categories":["Free","Music"],"eDate":"2024-03-15","eName":"Zig Zag + Loveboner","genre":"Rock","price":"Free","supports":[],"ticketUrl":null,"time":" 8pm"}],"vName":"Gem Bar"},"type":"Feature"},{"geometry":{"coordinates":[144.983442,-37.804851],"type":"Point"},"properties":{"events":[{"categories":["Music"],"eDate":"2024-03-15","eName":"DoloRRes Presents: Real Live Music","genre":null,"price":"$10.00 - 15.00","supports":["Gabriel LCR"," Lil Ket"],"ticketUrl":null,"time":" 8pm"}],"vName":"Grace Darling Hotel"},"type":"Feature"},{"geometry":{"coordinates":[144.8971518,-37.8054274],"type":"Point"},"properties":{"events":[{"categories":["Music"],"eDate":"2024-03-15","eName":"The Seven Ups","genre":null,"price":"$26.00","supports":["Buried Feather"],"ticketUrl":null,"time":" 8pm"}],"vName":"Mamma Chen's"},"type":"Feature"},{"geometry":{"coordinates":[144.96741062735794,-37.82454855],"type":"Point"},"properties":{"events":[{"categories":["Music","Other \"Spoken Word\"","Other \"Poetry & Forums\""],"eDate":"2024-03-15","eName":"Lydia Lunch & Joseph Keckler: Tales of Lust & Madness (Early Session)","genre":"Punk","price":"$60.00","supports":[],"ticketUrl":null,"time":" 6pm"},{"categories":["Music","Other \"Spoken Word\"","Other \"Poetry & Forums\""],"eDate":"2024-03-15","eName":"Lydia Lunch & Joseph Keckler: Tales of Lust & Madness","genre":"Punk","price":"$60.00","supports":[],"ticketUrl":null,"time":" 9pm"}],"vName":"Melbourne Recital Centre"},"type":"Feature"},{"geometry":{"coordinates":[145.3553553,-37.9078552],"type":"Point"},"properties":{"events":[{"categories":["Free","Music"],"eDate":"2024-03-15","eName":"Chris Hoffmann","genre":"Acoustic","price":"Free","supports":[],"ticketUrl":null,"time":" 7pm"}],"vName":"Micawber Tavern"},"type":"Feature"},{"geometry":{"coordinates":[144.998414,-37.771471],"type":"Point"},"properties":{"events":[{"categories":["Music"],"eDate":"2024-03-15","eName":"Full Flower Moon Band","genre":"Rock","price":"$35.30","supports":["Sunfruits"," The Vovos"],"ticketUrl":null,"time":" 8:30pm"}],"vName":"Northcote Social Club"},"type":"Feature"},{"geometry":{"coordinates":[144.97711,-37.79833],"type":"Point"},"properties":{"events":[{"categories":["Music"],"eDate":"2024-03-15","eName":"Rack Jones","genre":"Rock","price":"$11.25","supports":["The Great Emu War Casualties"," Immortal Fish"],"ticketUrl":null,"time":" 8pm"}],"vName":"Old Bar"},"type":"Feature"},{"geometry":{"coordinates":[145.0142411,-37.7310367],"type":"Point"},"properties":{"events":[{"categories":["Free","Music"],"eDate":"2024-03-15","eName":"Jump The Sun","genre":"Soul/Funk","price":"Free","supports":[],"ticketUrl":null,"time":" 7:30pm"}],"vName":"Ragtime Tavern"},"type":"Feature"},{"geometry":{"coordinates":[144.9631913,-37.7617818],"type":"Point"},"properties":{"events":[{"categories":["Music"],"eDate":"2024-03-15","eName":"Meatshell","genre":"Experimental","price":"$15.00","supports":[],"ticketUrl":null,"time":" 8pm"}],"vName":"Ringo Barr"},"type":"Feature"},{"geometry":{"coordinates":[144.9706095,-37.7783326],"type":"Point"},"properties":{"events":[{"categories":["Free","Music"],"eDate":"2024-03-15","eName":"Busted Chops","genre":"Punk","price":"Free","supports":["Araminta"],"ticketUrl":null,"time":" 9:30pm"}],"vName":"The Beast"},"type":"Feature"},{"geometry":{"coordinates":[145.0010957,-37.7546577],"type":"Point"},"properties":{"events":[{"categories":["Music"],"eDate":"2024-03-15","eName":"Ross Wilson & The Peaceniks","genre":"Rock","price":"$59.90","supports":["Alana Wilkinson"],"ticketUrl":null,"time":" 7:30pm"}],"vName":"The Thornbury Theatre"},"type":"Feature"},{"geometry":{"coordinates":[144.9651425,-37.8119429],"type":"Point"},"properties":{"events":[{"categories":["Music"],"eDate":"2024-03-15","eName":"Ana","genre":"Metal","price":"$17.34","supports":["Altria"," The Sun Is A Deadly Laser"," Animelodies"],"ticketUrl":null,"time":" 7:30pm"}],"vName":"The Toff In Town"},"type":"Feature"},{"geometry":{"coordinates":[144.9769450659087,-37.8055776],"type":"Point"},"properties":{"events":[{"categories":["Music"],"eDate":"2024-03-15","eName":"Joan & The Giants","genre":"Indie","price":"$18.10","supports":["Ramona Sky"," Sophia Petro"],"ticketUrl":null,"time":" 8pm"}],"vName":"The Workers Club"},"type":"Feature"},{"geometry":{"coordinates":[144.2195296,-37.0651041],"type":"Point"},"properties":{"events":[{"categories":["Music"],"eDate":"2024-03-15","eName":"The Cambodian Space Project","genre":"Rock","price":"$51.55","supports":["The Tommys"," Maquina Peligrosa"],"ticketUrl":null,"time":" 8pm"}],"vName":"Theatre Royal Castlemaine"},"type":"Feature"}],"type":"FeatureCollection"}