{"features":[{"geometry":{"coordinates":[144.9982812,-37.7713296],"type":"Point"},"properties":{"events":[{"categories":["Music"],"eDate":"2025-06-19","eName":"Quartet Nouvelle & Dean Kalait","genre":"Jazz","price":"Free","supports":[],"ticketUrl":null,"time":" 8pm"}],"vName":"Bar 303"},"type":"Feature"},{"geometry":{"coordinates":[144.978682,-37.7981225],"type":"Point"},"properties":{"events":[{"categories":["Free","Music"],"eDate":"2025-06-19","eName":"Mukul Jiwnani","genre":null,"price":"Free","supports":[],"ticketUrl":null,"time":" 9pm"}],"vName":"Baxter's Lot"},"type":"Feature"},{"geometry":{"coordinates":[144.9568039,-37.8111442],"type":"Point"},"properties":{"events":[{"categories":["Music"],"eDate":"2025-06-19","eName":"Jack Jones","genre":"Rock","price":"$40.00","supports":[],"ticketUrl":null,"time":" 7:30pm"}],"vName":"Bird's Basement"},"type":"Feature"},{"geometry":{"coordinates":[144.9945274,-37.8001115],"type":"Point"},"properties":{"events":[{"categories":["Free","Music","Other \"Food \""],"eDate":"2025-06-19","eName":"Dune Castle Present: Robbie Belchamber","genre":null,"price":"Free","supports":["Cantrips"],"ticketUrl":null,"time":" 6pm"}],"vName":"Bodriggy Brewing Company"},"type":"Feature"},{"geometry":{"coordinates":[145.0314658,-37.8067273],"type":"Point"},"properties":{"events":[{"categories":["Music"],"eDate":"2025-06-19","eName":"Global Music Thursdays: Tamalah","genre":null,"price":"$20.00","supports":[],"ticketUrl":null,"time":" 7:30pm"}],"vName":"Kew Court House"},"type":"Feature"},{"geometry":{"coordinates":[144.96084,-37.813514],"type":"Point"},"properties":{"events":[{"categories":["Music"],"eDate":"2025-06-19","eName":"Nina Ferro & The Gold Standard","genre":"Soul/Funk","price":"$45.00","supports":[],"ticketUrl":null,"time":" 7:30pm"},{"categories":["Music"],"eDate":"2025-06-19","eName":"Luca Brading plays The Music of The Brecker Brothers","genre":"Jazz","price":"$40.00","supports":[],"ticketUrl":null,"time":" 8pm"}],"vName":"Paris Cat Jazz Club"},"type":"Feature"},{"geometry":{"coordinates":[144.9615882,-37.7711432],"type":"Point"},"properties":{"events":[{"categories":["Free","Music"],"eDate":"2025-06-19","eName":"Barbara","genre":"Indie","price":"Free","supports":["Assteroid"," Hot Dog"],"ticketUrl":null,"time":" 7pm"}],"vName":"Retreat Hotel"},"type":"Feature"},{"geometry":{"coordinates":[145.0013923,-37.7559265],"type":"Point"},"properties":{"events":[{"categories":["Music"],"eDate":"2025-06-19","eName":"Brian Eldorado & The Tuesday People","genre":"Rock","price":"$23.45","supports":["Yolanda Ingley II"],"ticketUrl":null,"time":" 7:30pm"}],"vName":"Shotkickers"},"type":"Feature"},{"geometry":{"coordinates":[144.9607404,-37.7743469],"type":"Point"},"properties":{"events":[{"categories":["Comedy"],"eDate":"2025-06-19","eName":"Shayne Smith","genre":null,"price":"$45.00","supports":[],"ticketUrl":null,"time":" 6:30pm"},{"categories":["Comedy"],"eDate":"2025-06-19","eName":"Shayne Smith (Second Show)","genre":null,"price":"$45.00","supports":[],"ticketUrl":null,"time":" 9pm"}],"vName":"Stay Gold"},"type":"Feature"},{"geometry":{"coordinates":[144.9995955,-37.762377],"type":"Point"},"properties":{"events":[{"categories":["Music"],"eDate":"2025-06-19","eName":"Parents Battle of the Bands: Northside 1","genre":"Rock","price":"$36.75","supports":[],"ticketUrl":null,"time":" 7pm"}],"vName":"The Croxton"},"type":"Feature"},{"geometry":{"coordinates":[144.9651425,-37.8119429],"type":"Point"},"properties":{"events":[{"categories":["Free","Music"],"eDate":"2025-06-19","eName":"Toff Live Presents: No News","genre":null,"price":"Free","supports":[],"ticketUrl":null,"time":" 8pm"}],"vName":"The Toff In Town"},"type":"Feature"},{"geometry":{"coordinates":[144.9870814,-37.799406],"type":"Point"},"properties":{"events":[{"categories":["Music"],"eDate":"2025-06-19","eName":"Lewis Coleman","genre":"Indie","price":"$28.60","supports":["Jacob Diamond"," more"],"ticketUrl":null,"time":" 7:30pm"},{"categories":["Music"],"eDate":"2025-06-19","eName":"Little Faiths","genre":"Rock","price":"$16.35","supports":["Baker Mellonie & Adams"," The Delvenes"],"ticketUrl":null,"time":" 7:30pm"}],"vName":"The Tote Hotel"},"type":"Feature"},{"geometry":{"coordinates":[144.9984324,-37.7729134],"type":"Point"},"properties":{"events":[{"categories":["Music"],"eDate":"2025-06-19","eName":"Nick Howells & Jeremy Beggs","genre":"Indie","price":"Free","supports":[],"ticketUrl":null,"time":" 6pm"}],"vName":"Wesley Anne"},"type":"Feature"}],"type":"FeatureCollection"}