{"features":[{"geometry":{"coordinates":[144.978682,-37.7981225],"type":"Point"},"properties":{"events":[{"categories":["Free","Music"],"eDate":"2025-09-27","eName":"Lewis Toms","genre":null,"price":"Free","supports":[],"ticketUrl":null,"time":" 9pm"}],"vName":"Baxter's Lot"},"type":"Feature"},{"geometry":{"coordinates":[144.9607158,-37.776327],"type":"Point"},"properties":{"events":[{"categories":["Music"],"eDate":"2025-09-27","eName":"Resenter","genre":"Punk","price":"$22.95","supports":["Cloud Ice 9"," Mindrace"," World Sick"],"ticketUrl":null,"time":" 8pm"}],"vName":"Bergy Bandroom"},"type":"Feature"},{"geometry":{"coordinates":[144.9568039,-37.8111442],"type":"Point"},"properties":{"events":[{"categories":["Music"],"eDate":"2025-09-27","eName":"HYDRA: The Australian TOTO Show","genre":"Rock","price":"$35.00","supports":[],"ticketUrl":null,"time":" 6pm"}],"vName":"Bird's Basement"},"type":"Feature"},{"geometry":{"coordinates":[144.9617083,-37.7704205],"type":"Point"},"properties":{"events":[{"categories":["Music"],"eDate":"2025-09-27","eName":"Double Opa with Opa Bato! + Estudiantina of Melbourne","genre":null,"price":"$43.96","supports":[],"ticketUrl":null,"time":" 8:30pm"}],"vName":"Brunswick Ballroom"},"type":"Feature"},{"geometry":{"coordinates":[145.0002585,-37.7592368],"type":"Point"},"properties":{"events":[{"categories":["Comedy","Other \"Dance \"","Other \"Trivia \"","Other \"Cabaret\""],"eDate":"2025-09-27","eName":"Drag at Gummo! Feral x Outer Demons","genre":null,"price":"$20.00","supports":[],"ticketUrl":null,"time":" 8:30pm"}],"vName":"Cafe Gummo"},"type":"Feature"},{"geometry":{"coordinates":[144.9248037,-37.7656716],"type":"Point"},"properties":{"events":[{"categories":["Theatre"],"eDate":"2025-09-27","eName":"Velveteen Rabbit","genre":null,"price":"$30.00","supports":[],"ticketUrl":null,"time":"11am"}],"vName":"Clocktower Centre"},"type":"Feature"},{"geometry":{"coordinates":[144.1430697,-37.3414953],"type":"Point"},"properties":{"events":[{"categories":["Other \"Food \""],"eDate":"2025-09-27","eName":"Grand Final Day at The DH","genre":null,"price":"Free","supports":[],"ticketUrl":null,"time":" 2pm"},{"categories":["Free","Music"],"eDate":"2025-09-27","eName":"Stevie Rigby","genre":"Jazz","price":"Free","supports":[],"ticketUrl":null,"time":" 8:30pm"}],"vName":"Daylesford Hotel"},"type":"Feature"},{"geometry":{"coordinates":[144.9627513,-37.760963],"type":"Point"},"properties":{"events":[{"categories":["Music"],"eDate":"2025-09-27","eName":"Sam O’Halloran Trio","genre":"Jazz","price":"Free","supports":[],"ticketUrl":null,"time":" 8pm"}],"vName":"Edinburgh Castle Hotel"},"type":"Feature"},{"geometry":{"coordinates":[144.9777885,-37.8597831],"type":"Point"},"properties":{"events":[{"categories":["Music"],"eDate":"2025-09-27","eName":"Mixed Tape","genre":"Rock","price":"Free","supports":[],"ticketUrl":null,"time":" 9pm"}],"vName":"Freddie Wimpoles"},"type":"Feature"},{"geometry":{"coordinates":[144.9875792,-37.7963739],"type":"Point"},"properties":{"events":[{"categories":["Free","Music"],"eDate":"2025-09-27","eName":"The Country & Western Ramblers: Grand Final Night","genre":"Country/Folk","price":"Free","supports":[],"ticketUrl":null,"time":" 7pm"}],"vName":"Gem Bar"},"type":"Feature"},{"geometry":{"coordinates":[144.9787378,-37.7954205],"type":"Point"},"properties":{"events":[{"categories":["Free","Music"],"eDate":"2025-09-27","eName":"Glamorama Saturdays: Sasha Fern + 2422 Collective","genre":"Electronic","price":"$0.00 - 30.00","supports":[],"ticketUrl":null,"time":" 9pm"}],"vName":"Glamorama"},"type":"Feature"},{"geometry":{"coordinates":[144.9596527,-37.7720304],"type":"Point"},"properties":{"events":[{"categories":["Music"],"eDate":"2025-09-27","eName":"Dregg","genre":"Metal","price":"$29.90","supports":["Mélancolia"," Gravitate"," Aurateque"],"ticketUrl":null,"time":" 8pm"}],"vName":"Howler"},"type":"Feature"},{"geometry":{"coordinates":[145.0008148,-37.8107158],"type":"Point"},"properties":{"events":[{"categories":["Music"],"eDate":"2025-09-27","eName":"Seven Pound Halo","genre":"Rock","price":"$17.85","supports":["Star Jock"," Jaded State"," Cassaware"],"ticketUrl":null,"time":" 7pm"}],"vName":"Leadbeater Hotel"},"type":"Feature"},{"geometry":{"coordinates":[144.9712356,-37.812902],"type":"Point"},"properties":{"events":[{"categories":["Music"],"eDate":"2025-09-27","eName":"Simon Phillips","genre":"Country/Folk","price":"Free","supports":[],"ticketUrl":null,"time":" 6pm"},{"categories":["Music"],"eDate":"2025-09-27","eName":"Marcus Knight","genre":"Electronic","price":"Free","supports":[],"ticketUrl":null,"time":" 6pm"},{"categories":["Music"],"eDate":"2025-09-27","eName":"Kayla Bruno","genre":"Electronic","price":"Free","supports":[],"ticketUrl":null,"time":" 9pm"},{"categories":["Music"],"eDate":"2025-09-27","eName":"Marcus Knight","genre":"Electronic","price":"Free","supports":[],"ticketUrl":null,"time":"10pm"}],"vName":"Morris House"},"type":"Feature"},{"geometry":{"coordinates":[144.998414,-37.771471],"type":"Point"},"properties":{"events":[{"categories":["Music"],"eDate":"2025-09-27","eName":"June Jones","genre":"Indie","price":"$29.10","supports":["Hyena"," WWRWW"],"ticketUrl":null,"time":" 9pm"}],"vName":"Northcote Social Club"},"type":"Feature"},{"geometry":{"coordinates":[145.0015248,-37.8258878],"type":"Point"},"properties":{"events":[{"categories":["Music"],"eDate":"2025-09-27","eName":"Moving Toward The Pulsebeat","genre":"Electronic","price":"Free","supports":[],"ticketUrl":null,"time":" 7pm"}],"vName":"Odeon Richmond"},"type":"Feature"},{"geometry":{"coordinates":[144.97711,-37.79833],"type":"Point"},"properties":{"events":[{"categories":["Free"],"eDate":"2025-09-27","eName":"Grand Final At The Old Bar","genre":null,"price":"Free","supports":[],"ticketUrl":null,"time":"12pm"},{"categories":["Music"],"eDate":"2025-09-27","eName":"Scattered Limbs + Blight","genre":"Metal","price":"Free","supports":[],"ticketUrl":null,"time":" 8pm"},{"categories":["Music"],"eDate":"2025-09-27","eName":"DJ Daggy Cool","genre":"Rock","price":"Free","supports":[],"ticketUrl":null,"time":" 8pm"}],"vName":"Old Bar"},"type":"Feature"},{"geometry":{"coordinates":[144.96084,-37.813514],"type":"Point"},"properties":{"events":[{"categories":["Music"],"eDate":"2025-09-27","eName":"Not So Big Band: An Evening In La La Land with Ava McDermott","genre":"Jazz","price":"$48.00","supports":[],"ticketUrl":null,"time":" 6pm"},{"categories":["Music"],"eDate":"2025-09-27","eName":"Duets: Peggy Lee & Frank Sinatra","genre":"Jazz","price":"$45.00","supports":[],"ticketUrl":null,"time":" 6:30pm"},{"categories":["Music"],"eDate":"2025-09-27","eName":"Not So Big Band: An Evening In La La Land with Ava McDermott (Later Session)","genre":"Jazz","price":"$48.00","supports":[],"ticketUrl":null,"time":" 9pm"},{"categories":["Music"],"eDate":"2025-09-27","eName":"The Shuffle Club","genre":"Jazz","price":"$45.00","supports":[],"ticketUrl":null,"time":" 9:30pm"}],"vName":"Paris Cat Jazz Club"},"type":"Feature"},{"geometry":{"coordinates":[144.9615882,-37.7711432],"type":"Point"},"properties":{"events":[{"categories":["Music"],"eDate":"2025-09-27","eName":"Rhys & Dan’s 30th","genre":"Rock","price":"Free","supports":[],"ticketUrl":null,"time":" 6pm"}],"vName":"Retreat Hotel"},"type":"Feature"},{"geometry":{"coordinates":[144.9574795,-37.7697547],"type":"Point"},"properties":{"events":[{"categories":["Music","Markets"],"eDate":"2025-09-27","eName":"Red Heart Rising Goth Night","genre":"Punk","price":"$23.00","supports":["The Transistors of Mercy"],"ticketUrl":null,"time":" 6:30pm"}],"vName":"Rubix Warehouse"},"type":"Feature"},{"geometry":{"coordinates":[144.9607404,-37.7743469],"type":"Point"},"properties":{"events":[{"categories":["Music"],"eDate":"2025-09-27","eName":"Transmission Presents Indie Party","genre":"Indie","price":"$16.85 - 23.50","supports":[],"ticketUrl":null,"time":" 9pm"}],"vName":"Stay Gold"},"type":"Feature"},{"geometry":{"coordinates":[144.9706211,-37.778276],"type":"Point"},"properties":{"events":[{"categories":["Free","Music"],"eDate":"2025-09-27","eName":"Turn Up The Sound","genre":"Electronic","price":"Free","supports":[],"ticketUrl":null,"time":" 8pm"}],"vName":"The Beast"},"type":"Feature"},{"geometry":{"coordinates":[144.9770425,-37.8588717],"type":"Point"},"properties":{"events":[{"categories":["Music"],"eDate":"2025-09-27","eName":"Milly Joel Trio + DJ Aha","genre":"Country/Folk","price":"Free","supports":[],"ticketUrl":null,"time":" 9pm"}],"vName":"The Fifth Province"},"type":"Feature"},{"geometry":{"coordinates":[144.9655277,-37.7344052],"type":"Point"},"properties":{"events":[{"categories":["Music"],"eDate":"2025-09-27","eName":"Brand","genre":"Rock","price":"Free","supports":[],"ticketUrl":null,"time":"12pm"}],"vName":"The Graveyard Bar"},"type":"Feature"},{"geometry":{"coordinates":[144.9463641,-37.8047757],"type":"Point"},"properties":{"events":[{"categories":["Free","Music"],"eDate":"2025-09-27","eName":"The Peptides: Grand Final Extravaganza","genre":"Punk","price":"Free","supports":[],"ticketUrl":null,"time":" 1pm"},{"categories":["Music"],"eDate":"2025-09-27","eName":"No Apologies","genre":"Metal","price":"$34.20","supports":[],"ticketUrl":null,"time":" 8pm"}],"vName":"The Last Chance Rock & Roll Bar"},"type":"Feature"},{"geometry":{"coordinates":[144.996838,-37.7794356],"type":"Point"},"properties":{"events":[{"categories":["Free","Other \"Food \""],"eDate":"2025-09-27","eName":"Grand Final Day 2025","genre":null,"price":"Free","supports":["Loni Rae Thomson"],"ticketUrl":null,"time":" 1pm"}],"vName":"The Merri Creek Tavern"},"type":"Feature"},{"geometry":{"coordinates":[144.9708437,-37.7973184],"type":"Point"},"properties":{"events":[{"categories":["Music"],"eDate":"2025-09-27","eName":"Lily Jones","genre":"Indie","price":"Free","supports":[],"ticketUrl":null,"time":" 5pm"},{"categories":["Music"],"eDate":"2025-09-27","eName":"Motley Jazz Jam","genre":"Jazz","price":"Free","supports":[],"ticketUrl":null,"time":" 7:30pm"},{"categories":["Comedy"],"eDate":"2025-09-27","eName":"The Big HOO HAA!","genre":null,"price":"$30.39","supports":[],"ticketUrl":null,"time":" 8:30pm"},{"categories":["Comedy","Theatre"],"eDate":"2025-09-27","eName":"The Big HOO-HAA!","genre":null,"price":"$32.00","supports":[],"ticketUrl":null,"time":" 8:30pm"}],"vName":"The Motley Bauhaus"},"type":"Feature"},{"geometry":{"coordinates":[144.9621651,-37.7679775],"type":"Point"},"properties":{"events":[{"categories":["Free","Other \"Food \""],"eDate":"2025-09-27","eName":"AFL Grand Final Day At The Penny Black","genre":null,"price":"$0.00 - 120.00","supports":[],"ticketUrl":null,"time":"12pm"}],"vName":"The Penny Black"},"type":"Feature"},{"geometry":{"coordinates":[145.1818891,-37.8163371],"type":"Point"},"properties":{"events":[{"categories":["Music","Other \"Spoken Word, Poetry \""],"eDate":"2025-09-27","eName":"KELI by Dr Methil Devika","genre":"Global","price":"$25.00 - 99.00","supports":[],"ticketUrl":null,"time":" 5:30pm"}],"vName":"The Round"},"type":"Feature"},{"geometry":{"coordinates":[144.9998797,-37.7616512],"type":"Point"},"properties":{"events":[{"categories":["Music"],"eDate":"2025-09-27","eName":"Jumpin Jack Jordan","genre":"Blues","price":"Free","supports":[],"ticketUrl":null,"time":" 8pm"}],"vName":"The Thornbury Local"},"type":"Feature"},{"geometry":{"coordinates":[144.9651425,-37.8119429],"type":"Point"},"properties":{"events":[{"categories":["Music"],"eDate":"2025-09-27","eName":"The Residency","genre":"Soul/Funk","price":"$12.24 - 17.34","supports":[],"ticketUrl":null,"time":"10:30pm"},{"categories":["Music"],"eDate":"2025-09-27","eName":"Double Vision Presents: The Residency","genre":"Electronic","price":"$12.24 - 17.34","supports":[],"ticketUrl":null,"time":"10:30pm"}],"vName":"The Toff In Town"},"type":"Feature"},{"geometry":{"coordinates":[144.9769451,-37.8055776],"type":"Point"},"properties":{"events":[{"categories":["Other \"Food \""],"eDate":"2025-09-27","eName":"The Workers Club presents 2025 AFL Grand Final","genre":null,"price":"Free","supports":[],"ticketUrl":null,"time":"11am"}],"vName":"The Workers Club"},"type":"Feature"},{"geometry":{"coordinates":[144.9661635,-37.8176298],"type":"Point"},"properties":{"events":[{"categories":["Music"],"eDate":"2025-09-27","eName":"Naarm Underground: Tumi The Be","genre":"Hip Hop","price":"$21.95","supports":[],"ticketUrl":null,"time":" 8pm"}],"vName":"Wax Music Lounge"},"type":"Feature"}],"type":"FeatureCollection"}