{"features":[{"geometry":{"coordinates":[144.9982812,-37.7713296],"type":"Point"},"properties":{"events":[{"categories":["Music","Free"],"eDate":"2026-07-03","eName":"Kiss of Reality","genre":null,"price":"Free","supports":["Madam Nightingale"],"ticketUrl":null,"time":" 7:30pm"}],"vName":"Bar 303"},"type":"Feature"},{"geometry":{"coordinates":[144.978682,-37.7981225],"type":"Point"},"properties":{"events":[{"categories":["Free","Music"],"eDate":"2026-07-03","eName":"Harrisen Hughes","genre":null,"price":"Free","supports":[],"ticketUrl":null,"time":" 9pm"}],"vName":"Baxter's Lot"},"type":"Feature"},{"geometry":{"coordinates":[144.9568039,-37.8111442],"type":"Point"},"properties":{"events":[{"categories":["Music"],"eDate":"2026-07-03","eName":"Steve Sedergreen & Friends","genre":"Jazz","price":"$40.00","supports":[],"ticketUrl":null,"time":" 7:30pm"}],"vName":"Bird's Basement"},"type":"Feature"},{"geometry":{"coordinates":[144.96084,-37.813514],"type":"Point"},"properties":{"events":[{"categories":["Music"],"eDate":"2026-07-03","eName":"Jazz Harbingers: The Music of Art Blakey & The Jazz Messengers","genre":"Jazz","price":"$45.00","supports":[],"ticketUrl":null,"time":" 9:30pm"}],"vName":"Paris Cat Jazz Club"},"type":"Feature"},{"geometry":{"coordinates":[144.9655277,-37.7344052],"type":"Point"},"properties":{"events":[{"categories":["Music"],"eDate":"2026-07-03","eName":"Plaster of Paris","genre":"Punk","price":"$17.19 - 20.00","supports":["Snake Thighs"," Roarcuss"," Looney Moons"],"ticketUrl":null,"time":" 6pm"}],"vName":"The Graveyard Bar"},"type":"Feature"},{"geometry":{"coordinates":[144.9720579,-37.8121675],"type":"Point"},"properties":{"events":[{"categories":["Theatre","Comedy"],"eDate":"2026-07-03","eName":"F#*k This, I Quit: Comedy Based on YOUR Work Stories","genre":null,"price":"$24.00","supports":[],"ticketUrl":null,"time":" 7pm"},{"categories":["Theatre","Comedy"],"eDate":"2026-07-03","eName":"The Remix: Live Improv Comedy From A Guest’s True Stories","genre":null,"price":"$24.00","supports":[],"ticketUrl":null,"time":" 8:15pm"}],"vName":"The Improv Conspiracy"},"type":"Feature"},{"geometry":{"coordinates":[145.1818891,-37.8163371],"type":"Point"},"properties":{"events":[{"categories":["Music","Other \"Cabaret\""],"eDate":"2026-07-03","eName":"Britney Spears: The Cabaret","genre":"Pop","price":"$58.00","supports":[],"ticketUrl":null,"time":" 7:30pm"}],"vName":"The Round"},"type":"Feature"}],"type":"FeatureCollection"}