{"features":[{"geometry":{"coordinates":[144.9679369,-37.8120109],"type":"Point"},"properties":{"events":[{"categories":["Music","Other \"Trivia \""],"eDate":"2025-04-26","eName":"Bingo Loco presents Day Shift","genre":"Electronic","price":"$47.94 - 50.49","supports":[],"ticketUrl":null,"time":" 6pm"}],"vName":"170 Russell"},"type":"Feature"},{"geometry":{"coordinates":[144.978682,-37.7981225],"type":"Point"},"properties":{"events":[{"categories":["Free","Music"],"eDate":"2025-04-26","eName":"Tejo D’Cruz","genre":null,"price":"Free","supports":[],"ticketUrl":null,"time":" 9pm"},{"categories":["Free","Music"],"eDate":"2025-04-26","eName":"DJ Damien Mack","genre":null,"price":"Free","supports":[],"ticketUrl":null,"time":"10pm"}],"vName":"Baxter's Lot"},"type":"Feature"},{"geometry":{"coordinates":[144.9891167,-37.7996488],"type":"Point"},"properties":{"events":[{"categories":["Music"],"eDate":"2025-04-26","eName":"Metal United Down Under 2025","genre":"Metal","price":"$28.05","supports":["more"],"ticketUrl":null,"time":" 6pm"}],"vName":"Bendigo Hotel"},"type":"Feature"},{"geometry":{"coordinates":[144.9607158,-37.776327],"type":"Point"},"properties":{"events":[{"categories":["Music"],"eDate":"2025-04-26","eName":"The Miffs","genre":"Rock","price":"$19.90","supports":["Super American Eagle"," Kelsey Jean & The Bad Health"],"ticketUrl":null,"time":" 8pm"}],"vName":"Bergy Bandroom"},"type":"Feature"},{"geometry":{"coordinates":[144.9617083,-37.7704205],"type":"Point"},"properties":{"events":[{"categories":["Music"],"eDate":"2025-04-26","eName":"The Reflex: The Australian Duran Duran Experience","genre":"Pop","price":"$39.00","supports":[],"ticketUrl":null,"time":" 8pm"}],"vName":"Brunswick Ballroom"},"type":"Feature"},{"geometry":{"coordinates":[145.0006883,-37.8838373],"type":"Point"},"properties":{"events":[{"categories":["Music"],"eDate":"2025-04-26","eName":"Bob Sedergreen & Friends with Paul Coyle and Mal Sedergreen","genre":"Jazz","price":"$25.00 - 30.00","supports":[],"ticketUrl":null,"time":" 8pm"}],"vName":"Classic Southside"},"type":"Feature"},{"geometry":{"coordinates":[144.9926664,-37.8248893],"type":"Point"},"properties":{"events":[{"categories":["Music"],"eDate":"2025-04-26","eName":"DICE","genre":"Rock","price":"$46.00","supports":["Dear Sunday"," Dizzy Days"],"ticketUrl":null,"time":" 8:30pm"}],"vName":"Corner Hotel"},"type":"Feature"},{"geometry":{"coordinates":[144.9489214,-37.8106039],"type":"Point"},"properties":{"events":[{"categories":["Music"],"eDate":"2025-04-26","eName":"Neck Deep","genre":"Rock","price":"$99.90","supports":["State Champs"," Late 90's"],"ticketUrl":null,"time":" 8pm"}],"vName":"Festival Hall"},"type":"Feature"},{"geometry":{"coordinates":[144.983442,-37.804851],"type":"Point"},"properties":{"events":[{"categories":["Music"],"eDate":"2025-04-26","eName":"YEGI & Friends","genre":null,"price":"$15.00 - 20.00","supports":["Damian Carl & the Quaaludes"," Luke Warm"],"ticketUrl":null,"time":" 8pm"}],"vName":"Grace Darling Hotel"},"type":"Feature"},{"geometry":{"coordinates":[144.973013,-37.8640582],"type":"Point"},"properties":{"events":[{"categories":["Music"],"eDate":"2025-04-26","eName":"Esha Tewari","genre":"Indie","price":"Free","supports":[],"ticketUrl":null,"time":" 3pm"}],"vName":"Hotel Esplanade (aka The Espy)"},"type":"Feature"},{"geometry":{"coordinates":[144.9596527,-37.7720304],"type":"Point"},"properties":{"events":[{"categories":["Music"],"eDate":"2025-04-26","eName":"This Will Destroy You","genre":"Rock","price":"$85.17","supports":[],"ticketUrl":null,"time":" 7:30pm"}],"vName":"Howler"},"type":"Feature"},{"geometry":{"coordinates":[145.0008148,-37.8107158],"type":"Point"},"properties":{"events":[{"categories":["Music"],"eDate":"2025-04-26","eName":"Backo","genre":"Indie","price":"$23.75","supports":["The Opals"," Chloe Booth"],"ticketUrl":null,"time":" 8pm"}],"vName":"Leadbeater Hotel"},"type":"Feature"},{"geometry":{"coordinates":[145.0355738,-37.8205529],"type":"Point"},"properties":{"events":[{"categories":["Music"],"eDate":"2025-04-26","eName":"The Tamara Kuldin Quartet","genre":"Jazz","price":"$25.00 - 30.00","supports":[],"ticketUrl":null,"time":" 8pm"}],"vName":"Lido Jazz Room"},"type":"Feature"},{"geometry":{"coordinates":[144.8975289,-37.8022392],"type":"Point"},"properties":{"events":[{"categories":["Music","Markets","Other \"Art \""],"eDate":"2025-04-26","eName":"ASTRID #2: Live music, vintage fashion & local designers","genre":null,"price":"$20.00 - 25.00","supports":["Xandri"," Genieman"," Habit"," Zach Byrne"],"ticketUrl":null,"time":" 2pm"},{"categories":["Free","Music"],"eDate":"2025-04-26","eName":"The Satisfaction","genre":null,"price":"Free","supports":["The Dead Amigos"," Ingrid & The Ministers"],"ticketUrl":null,"time":" 7:45pm"}],"vName":"Mamma Chen's"},"type":"Feature"},{"geometry":{"coordinates":[144.9658499,-37.8147453],"type":"Point"},"properties":{"events":[{"categories":["Music"],"eDate":"2025-04-26","eName":"The Buzz Lovers: Performing ‘Nevermind’ + Fan Faves","genre":"Rock","price":"Free","supports":[],"ticketUrl":null,"time":" 8pm"}],"vName":"Max Watt's (Melbourne)"},"type":"Feature"},{"geometry":{"coordinates":[144.9675876,-37.8240849],"type":"Point"},"properties":{"events":[{"categories":["Music"],"eDate":"2025-04-26","eName":"RY X","genre":"Indie","price":"$69.00 - 89.00","supports":["Indigo Sparke"],"ticketUrl":null,"time":" 7:30pm"}],"vName":"Melbourne Recital Centre"},"type":"Feature"},{"geometry":{"coordinates":[144.9790251,-37.8675008],"type":"Point"},"properties":{"events":[{"categories":["Music"],"eDate":"2025-04-26","eName":"The Audreys","genre":"Blues","price":"$59.00 - 79.00","supports":["Jarryn Phegan"],"ticketUrl":null,"time":" 7pm"}],"vName":"Memo Music Hall"},"type":"Feature"},{"geometry":{"coordinates":[144.9712356,-37.812902],"type":"Point"},"properties":{"events":[{"categories":["Music"],"eDate":"2025-04-26","eName":"Kelly Tee","genre":"Electronic","price":"Free","supports":[],"ticketUrl":null,"time":" 7pm"}],"vName":"Morris House"},"type":"Feature"},{"geometry":{"coordinates":[144.998414,-37.771471],"type":"Point"},"properties":{"events":[{"categories":["Music"],"eDate":"2025-04-26","eName":"Mess Esque","genre":"Indie","price":"$29.10","supports":[],"ticketUrl":null,"time":" 8:30pm"}],"vName":"Northcote Social Club"},"type":"Feature"},{"geometry":{"coordinates":[144.9982706,-37.7737068],"type":"Point"},"properties":{"events":[{"categories":["Music"],"eDate":"2025-04-26","eName":"Yung Singh","genre":"Electronic","price":"$62.42 - 83.84","supports":["Brown Suga Princess"," JPS"," Kampai"],"ticketUrl":null,"time":" 8pm"}],"vName":"Northcote Theatre"},"type":"Feature"},{"geometry":{"coordinates":[144.96084,-37.813514],"type":"Point"},"properties":{"events":[{"categories":["Music","Other \"Film\""],"eDate":"2025-04-26","eName":"Seoul Soundtrack: Music of Korean Drama & Film","genre":null,"price":"$48.00","supports":[],"ticketUrl":null,"time":" 6pm"},{"categories":["Music"],"eDate":"2025-04-26","eName":"Mina Yu Quartet presents Seoul Soundtracks: From Squid Game to Parasite","genre":"Jazz","price":"$48.00","supports":[],"ticketUrl":null,"time":" 6pm"},{"categories":["Music"],"eDate":"2025-04-26","eName":"Kind of Blue Deluxe","genre":"Jazz","price":"$45.00","supports":[],"ticketUrl":null,"time":" 6:30pm"},{"categories":["Music"],"eDate":"2025-04-26","eName":"Ollie Shute Quintet presents The Music Of Jamiroquai","genre":"Soul/Funk","price":"$45.00","supports":[],"ticketUrl":null,"time":" 9pm"},{"categories":["Music"],"eDate":"2025-04-26","eName":"Sophisticated Lady: A Tribute to Jazz’s First Ladies of Song","genre":"Jazz","price":"$45.00","supports":[],"ticketUrl":null,"time":" 9:30pm"}],"vName":"Paris Cat Jazz Club"},"type":"Feature"},{"geometry":{"coordinates":[144.9741326,-37.8619943],"type":"Point"},"properties":{"events":[{"categories":["Music"],"eDate":"2025-04-26","eName":"Boom Crash Opera + Models","genre":"Pop","price":"$65.00","supports":[],"ticketUrl":null,"time":" 6:30pm"}],"vName":"Prince Bandroom"},"type":"Feature"},{"geometry":{"coordinates":[144.9583409,-37.7664168],"type":"Point"},"properties":{"events":[{"categories":["Music"],"eDate":"2025-04-26","eName":"Nice Music Presents A Nice Night","genre":"Electronic","price":"Free","supports":[],"ticketUrl":null,"time":" 7pm"}],"vName":"Quadraphonic Club"},"type":"Feature"},{"geometry":{"coordinates":[145.0142411,-37.7310367],"type":"Point"},"properties":{"events":[{"categories":["Music"],"eDate":"2025-04-26","eName":"Beltin’ Elton With Nitida","genre":"Pop","price":"Free","supports":[],"ticketUrl":null,"time":" 8pm"}],"vName":"Ragtime Tavern"},"type":"Feature"},{"geometry":{"coordinates":[144.9615882,-37.7711432],"type":"Point"},"properties":{"events":[{"categories":["Free","Music"],"eDate":"2025-04-26","eName":"Quartet Nouvelle","genre":"Jazz","price":"Free","supports":[],"ticketUrl":null,"time":" 2pm"},{"categories":["Music"],"eDate":"2025-04-26","eName":"Shady Nasty","genre":"Punk","price":"Free","supports":[],"ticketUrl":null,"time":" 7:30pm"}],"vName":"Retreat Hotel"},"type":"Feature"},{"geometry":{"coordinates":[144.993413,-37.8506652],"type":"Point"},"properties":{"events":[{"categories":["Music"],"eDate":"2025-04-26","eName":"The Australian Pantera Show","genre":"Metal","price":"$26.52","supports":[],"ticketUrl":null,"time":" 7pm"}],"vName":"Revolver Upstairs"},"type":"Feature"},{"geometry":{"coordinates":[145.0013923,-37.7559265],"type":"Point"},"properties":{"events":[{"categories":["Music"],"eDate":"2025-04-26","eName":"Head Gap: DIY Saturday","genre":"Indie","price":"$23.45","supports":[],"ticketUrl":null,"time":" 5:30pm"}],"vName":"Shotkickers"},"type":"Feature"},{"geometry":{"coordinates":[145.3534507,-37.9100746],"type":"Point"},"properties":{"events":[{"categories":["Music"],"eDate":"2025-04-26","eName":"Zen Monkee","genre":"Rock","price":"Free","supports":[],"ticketUrl":null,"time":" 5pm"},{"categories":["Music"],"eDate":"2025-04-26","eName":"HDC","genre":"Electronic","price":"Free","supports":[],"ticketUrl":null,"time":" 9pm"}],"vName":"Sooki Lounge"},"type":"Feature"},{"geometry":{"coordinates":[144.9607404,-37.7743469],"type":"Point"},"properties":{"events":[{"categories":["Music"],"eDate":"2025-04-26","eName":"am//pm emo night","genre":"Punk","price":"$23.75","supports":["State Champs (DJ)"],"ticketUrl":null,"time":" 8pm"}],"vName":"Stay Gold"},"type":"Feature"},{"geometry":{"coordinates":[144.9706211,-37.778276],"type":"Point"},"properties":{"events":[{"categories":["Music","Comedy"],"eDate":"2025-04-26","eName":"Tetsuians","genre":"Rock","price":"Free","supports":["Plaster Of Paris"," more"],"ticketUrl":null,"time":" 9pm"}],"vName":"The Beast"},"type":"Feature"},{"geometry":{"coordinates":[144.9657057,-37.8061581],"type":"Point"},"properties":{"events":[{"categories":["Music"],"eDate":"2025-04-26","eName":"Womb","genre":"Indie","price":"$17.75","supports":["Pastures"," Japes"],"ticketUrl":null,"time":" 8pm"}],"vName":"The Curtin"},"type":"Feature"},{"geometry":{"coordinates":[144.9555612,-37.8066759],"type":"Point"},"properties":{"events":[{"categories":["Free","Music"],"eDate":"2025-04-26","eName":"Marty Kelly","genre":"Country/Folk","price":"Free","supports":[],"ticketUrl":null,"time":" 3pm"},{"categories":["Free","Music"],"eDate":"2025-04-26","eName":"The Lonesome Wranglers","genre":"Country/Folk","price":"Free","supports":[],"ticketUrl":null,"time":" 9pm"}],"vName":"The Drunken Poet"},"type":"Feature"},{"geometry":{"coordinates":[144.9586498,-37.766903],"type":"Point"},"properties":{"events":[{"categories":["Music"],"eDate":"2025-04-26","eName":"Emma Pask With Her World Class Trio","genre":"Jazz","price":"$45.00 - 50.00","supports":[],"ticketUrl":null,"time":" 8pm"}],"vName":"The Jazzlab"},"type":"Feature"},{"geometry":{"coordinates":[144.9463641,-37.8047757],"type":"Point"},"properties":{"events":[{"categories":["Music"],"eDate":"2025-04-26","eName":"Christian Black’s 50th Birthday: Cold Red Mute","genre":"Rock","price":"$11.25","supports":["Superdriver"," Trash & The Treasures"],"ticketUrl":null,"time":" 3pm"},{"categories":["Music"],"eDate":"2025-04-26","eName":"The Weight Of Silence","genre":"Metal","price":"$23.50","supports":["The Rising Tide"," more"],"ticketUrl":null,"time":" 8:30pm"}],"vName":"The Last Chance Rock & Roll Bar"},"type":"Feature"},{"geometry":{"coordinates":[144.9879283,-37.7505509],"type":"Point"},"properties":{"events":[{"categories":["Music"],"eDate":"2025-04-26","eName":"Faces In The Street","genre":"Rock","price":"Free","supports":[],"ticketUrl":null,"time":" 7pm"}],"vName":"The Merri Bar"},"type":"Feature"},{"geometry":{"coordinates":[144.9794553,-37.7982653],"type":"Point"},"properties":{"events":[{"categories":["Music"],"eDate":"2025-04-26","eName":"Joey Lightbulb & Friends","genre":"Electronic","price":"Free","supports":[],"ticketUrl":null,"time":" 9pm"}],"vName":"The Night Cat"},"type":"Feature"},{"geometry":{"coordinates":[145.1818891,-37.8163371],"type":"Point"},"properties":{"events":[{"categories":["Music"],"eDate":"2025-04-26","eName":"Diamond Love: The Music Of Sade","genre":"Pop","price":"$30.00","supports":[],"ticketUrl":null,"time":" 8pm"}],"vName":"The Round"},"type":"Feature"},{"geometry":{"coordinates":[144.9998797,-37.7616512],"type":"Point"},"properties":{"events":[{"categories":["Music"],"eDate":"2025-04-26","eName":"Amos Roach","genre":"Country/Folk","price":"Free","supports":[],"ticketUrl":null,"time":" 8pm"}],"vName":"The Thornbury Local"},"type":"Feature"},{"geometry":{"coordinates":[144.9651425,-37.8119429],"type":"Point"},"properties":{"events":[{"categories":["Music"],"eDate":"2025-04-26","eName":"GROOVE! With Keets","genre":"Soul/Funk","price":"$17.34","supports":["BIIGSHOT"," Steppers"],"ticketUrl":null,"time":" 7pm"},{"categories":["Free","Music"],"eDate":"2025-04-26","eName":"Rhythm Express: DJ J’Nett & Friends","genre":"Electronic","price":"Free","supports":[],"ticketUrl":null,"time":" 9pm"},{"categories":["Free","Music"],"eDate":"2025-04-26","eName":"House + Plus","genre":"Electronic","price":"Free","supports":["Kuzco"],"ticketUrl":null,"time":"11pm"}],"vName":"The Toff In Town"},"type":"Feature"},{"geometry":{"coordinates":[144.9870814,-37.799406],"type":"Point"},"properties":{"events":[{"categories":["Music"],"eDate":"2025-04-26","eName":"Truckers for Christ + The Delvenes","genre":"Rock","price":"Free","supports":[],"ticketUrl":null,"time":" 3pm"},{"categories":["Music"],"eDate":"2025-04-26","eName":"Melbourne City Mosh","genre":"Metal","price":"$20.00","supports":[],"ticketUrl":null,"time":" 7:30pm"},{"categories":["Music"],"eDate":"2025-04-26","eName":"Deiphago","genre":"Metal","price":"$28.60","supports":["Blasfemancia"," Writhing"," Voidchrist"],"ticketUrl":null,"time":" 8:30pm"}],"vName":"The Tote Hotel"},"type":"Feature"},{"geometry":{"coordinates":[144.9985126,-37.7588241],"type":"Point"},"properties":{"events":[{"categories":["Music"],"eDate":"2025-04-26","eName":"Helluva Ride 2","genre":"Rock","price":"$35.00 - 40.00","supports":["DJ Sweet Thang"],"ticketUrl":null,"time":"12pm"}],"vName":"Thornbury Bowls Club"},"type":"Feature"},{"geometry":{"coordinates":[144.9661635,-37.8176298],"type":"Point"},"properties":{"events":[{"categories":["Music"],"eDate":"2025-04-26","eName":"Jerry","genre":"Electronic","price":"Free","supports":["DJ Dem Large"],"ticketUrl":null,"time":" 8pm"}],"vName":"Wax Music Lounge"},"type":"Feature"},{"geometry":{"coordinates":[144.9618781,-37.8126316],"type":"Point"},"properties":{"events":[{"categories":["Free","Music"],"eDate":"2025-04-26","eName":"DJ Naliita & Friends","genre":null,"price":"Free","supports":[],"ticketUrl":null,"time":" 2pm"}],"vName":"Whitehart Bar"},"type":"Feature"}],"type":"FeatureCollection"}