{"features":[{"geometry":{"coordinates":[144.9500257,-37.8032773],"type":"Point"},"properties":{"events":[{"categories":["Music","Art"],"eDate":"2024-05-19","eName":"Rainbow Chan 陳雋然 : The Bridal Lament 哭嫁歌","genre":"Experimental","price":"$35.00","supports":[],"ticketUrl":null,"time":" 5pm"}],"vName":"Arts House"},"type":"Feature"},{"geometry":{"coordinates":[144.9607158,-37.776327],"type":"Point"},"properties":{"events":[{"categories":["Music"],"eDate":"2024-05-19","eName":"WALTA","genre":"Pop","price":"$16.85","supports":["Kevin Collett"," Raria"],"ticketUrl":null,"time":" 6pm"}],"vName":"Bergy Bandroom"},"type":"Feature"},{"geometry":{"coordinates":[144.9617018,-37.7704566],"type":"Point"},"properties":{"events":[{"categories":["Music"],"eDate":"2024-05-19","eName":"The Avenue Ensemble","genre":"Soul/Funk","price":"$23.00","supports":[],"ticketUrl":null,"time":" 1pm"},{"categories":["Music"],"eDate":"2024-05-19","eName":"Tropical Fuck Storm","genre":"Rock","price":"$54.67","supports":["Screen Saver"],"ticketUrl":null,"time":" 6:30pm"}],"vName":"Brunswick Ballroom"},"type":"Feature"},{"geometry":{"coordinates":[144.9688742,-37.8074223],"type":"Point"},"properties":{"events":[{"categories":["Comedy","Theatre"],"eDate":"2024-05-19","eName":"The Odd Couple","genre":null,"price":"$69.90","supports":["Lucy Durack"," Penny McNamee"],"ticketUrl":null,"time":" 6pm"}],"vName":"Comedy Theatre"},"type":"Feature"},{"geometry":{"coordinates":[144.9875917,-37.7963837],"type":"Point"},"properties":{"events":[{"categories":["Free","Music"],"eDate":"2024-05-19","eName":"Emily Lubitz + Madeline Leman","genre":"Indie","price":"Free","supports":[],"ticketUrl":null,"time":" 4pm"}],"vName":"Gem Bar"},"type":"Feature"},{"geometry":{"coordinates":[144.973013,-37.8640582],"type":"Point"},"properties":{"events":[{"categories":["Music"],"eDate":"2024-05-19","eName":"RAWKUS Live","genre":"Rock","price":"$10.75","supports":[],"ticketUrl":null,"time":"12:30pm"},{"categories":["Music"],"eDate":"2024-05-19","eName":"RAWKUS Live! All Ages Gig","genre":null,"price":"$10.00","supports":[],"ticketUrl":null,"time":" 1pm"}],"vName":"Hotel Esplanade (aka The Espy)"},"type":"Feature"},{"geometry":{"coordinates":[144.9936498,-37.8000264],"type":"Point"},"properties":{"events":[{"categories":["Music"],"eDate":"2024-05-19","eName":"Elly McK & The Unbelievers","genre":"Country/Folk","price":"Free","supports":["Georgia Rodgers"],"ticketUrl":null,"time":" 4pm"}],"vName":"Lulie Tavern"},"type":"Feature"},{"geometry":{"coordinates":[144.8971518,-37.8054274],"type":"Point"},"properties":{"events":[{"categories":["Free","Music"],"eDate":"2024-05-19","eName":"Red Aid Sound Stage: CUDL Fundraiser","genre":null,"price":"$15.00 - 20.00","supports":["Big Chocolate"," Liam Dwyer"," Joseph Tafra"],"ticketUrl":null,"time":" 5pm"}],"vName":"Mamma Chen's"},"type":"Feature"},{"geometry":{"coordinates":[144.96741062735794,-37.82454855],"type":"Point"},"properties":{"events":[{"categories":["Music"],"eDate":"2024-05-19","eName":"Corpus Medicorum Concert #2","genre":"Classical","price":"$65.00","supports":[],"ticketUrl":null,"time":" 5pm"}],"vName":"Melbourne Recital Centre"},"type":"Feature"},{"geometry":{"coordinates":[145.3553553,-37.9078552],"type":"Point"},"properties":{"events":[{"categories":["Free","Music"],"eDate":"2024-05-19","eName":"John Crosbie","genre":null,"price":"Free","supports":[],"ticketUrl":null,"time":" 1pm"}],"vName":"Micawber Tavern"},"type":"Feature"},{"geometry":{"coordinates":[144.97711,-37.79833],"type":"Point"},"properties":{"events":[{"categories":["Music"],"eDate":"2024-05-19","eName":"Fundraisers For Fitzroy 2: Confident Girls Foundation","genre":"Rock","price":"$25.00","supports":[],"ticketUrl":null,"time":" 3pm"}],"vName":"Old Bar"},"type":"Feature"},{"geometry":{"coordinates":[144.9605705,-37.8132486],"type":"Point"},"properties":{"events":[{"categories":["Music"],"eDate":"2024-05-19","eName":"Margot Petrie: The Music of Cécile McLorin Salvant","genre":"Jazz","price":"$45.00","supports":[],"ticketUrl":null,"time":" 5:30pm"},{"categories":["Music"],"eDate":"2024-05-19","eName":"Candela Flamenca","genre":"Jazz","price":"$40.00","supports":[],"ticketUrl":null,"time":" 6pm"}],"vName":"Paris Cat Jazz Club"},"type":"Feature"},{"geometry":{"coordinates":[145.0142411,-37.7310367],"type":"Point"},"properties":{"events":[{"categories":["Free","Music"],"eDate":"2024-05-19","eName":"Sunday Sunset Sessions","genre":"Jazz","price":"Free","supports":[],"ticketUrl":null,"time":" 6pm"}],"vName":"Ragtime Tavern"},"type":"Feature"},{"geometry":{"coordinates":[144.9631913,-37.7617818],"type":"Point"},"properties":{"events":[{"categories":["Music"],"eDate":"2024-05-19","eName":"Playing Trio","genre":"Jazz","price":"$10.00","supports":[],"ticketUrl":null,"time":" 8pm"}],"vName":"Ringo Barr"},"type":"Feature"},{"geometry":{"coordinates":[144.9948802,-37.8431403],"type":"Point"},"properties":{"events":[{"categories":["Free","Music","Other \"Food & Drink\""],"eDate":"2024-05-19","eName":"Sunday Sessions","genre":"Acoustic","price":"Free","supports":[],"ticketUrl":null,"time":" 3pm"},{"categories":["Free","Music","Other \"Food & Drink\""],"eDate":"2024-05-19","eName":"Sunday Sessions","genre":"Acoustic","price":"Free","supports":[],"ticketUrl":null,"time":" 3pm"}],"vName":"Temperance Hotel"},"type":"Feature"},{"geometry":{"coordinates":[144.960725,-37.7762687],"type":"Point"},"properties":{"events":[{"categories":["Music"],"eDate":"2024-05-19","eName":"Convergence","genre":null,"price":"Free","supports":["Abe Dunovits"," Jad Pinnone"],"ticketUrl":null,"time":" 5pm"}],"vName":"The Bergy Seltzer"},"type":"Feature"},{"geometry":{"coordinates":[144.9622,-37.7679857],"type":"Point"},"properties":{"events":[{"categories":["Music"],"eDate":"2024-05-19","eName":"Harley Luscombe","genre":"Acoustic","price":"Free","supports":[],"ticketUrl":null,"time":" 4pm"}],"vName":"The Penny Black"},"type":"Feature"},{"geometry":{"coordinates":[144.9768316068748,-37.800751500000004],"type":"Point"},"properties":{"events":[{"categories":["Free","Music","Other \"Food & Drink\""],"eDate":"2024-05-19","eName":"Sunshine Tip","genre":"Country/Folk","price":"Free","supports":["Silver Channels"],"ticketUrl":null,"time":" 5pm"}],"vName":"The Standard Hotel"},"type":"Feature"},{"geometry":{"coordinates":[144.9618426,-37.8125531],"type":"Point"},"properties":{"events":[{"categories":["Free","Music","Other \"Food & Drink\""],"eDate":"2024-05-19","eName":"Amphi & Friends","genre":"Electronic","price":"Free","supports":[],"ticketUrl":null,"time":" 3pm"}],"vName":"Whitehart Bar"},"type":"Feature"}],"type":"FeatureCollection"}