{"features":[{"geometry":{"coordinates":[144.9679835243618,-37.8201575],"type":"Point"},"properties":{"events":[{"categories":["Theatre"],"eDate":"2024-04-27","eName":"A Midsummer Night's Dream (Matinee)","genre":null,"price":"$40.00 - 110.00","supports":[],"ticketUrl":null,"time":" 2pm"},{"categories":["Theatre"],"eDate":"2024-04-27","eName":"A Midsummer Night's Dream (Second Matinee)","genre":null,"price":"$40.00 - 110.00","supports":[],"ticketUrl":null,"time":" 4pm"}],"vName":"Arts Centre Melbourne"},"type":"Feature"},{"geometry":{"coordinates":[144.9500257,-37.8032773],"type":"Point"},"properties":{"events":[{"categories":["Free","Art"],"eDate":"2024-04-27","eName":"ಒಡಲಾಳ Odalala","genre":null,"price":"Free","supports":[],"ticketUrl":null,"time":"11am"},{"categories":["Free","Art"],"eDate":"2024-04-27","eName":"ನಿರೀಕ್ಷಣೆ nireekshane","genre":null,"price":"Free","supports":[],"ticketUrl":null,"time":"11am"}],"vName":"Arts House"},"type":"Feature"},{"geometry":{"coordinates":[144.978425,-37.79773],"type":"Point"},"properties":{"events":[{"categories":["Free","Music"],"eDate":"2024-04-27","eName":"Steamboat Whistlers","genre":"Jazz","price":"Free","supports":[],"ticketUrl":null,"time":" 5:30pm"},{"categories":["Free","Music"],"eDate":"2024-04-27","eName":"Midnight Circuitry / Synaptic Dreams","genre":"Electronic","price":"Free","supports":[],"ticketUrl":null,"time":"11pm"}],"vName":"Bar Open"},"type":"Feature"},{"geometry":{"coordinates":[144.9607158,-37.776327],"type":"Point"},"properties":{"events":[{"categories":["Music"],"eDate":"2024-04-27","eName":"Sienna Skies","genre":"Metal","price":"$32.65","supports":["No Home"," Harroway"," Vatic"," Silverfang"],"ticketUrl":null,"time":" 7pm"}],"vName":"Bergy Bandroom"},"type":"Feature"},{"geometry":{"coordinates":[144.9617018,-37.7704566],"type":"Point"},"properties":{"events":[{"categories":["Music"],"eDate":"2024-04-27","eName":"Gypsy: The Australian Fleetwood Mac Show","genre":"Rock","price":"$43.96","supports":[],"ticketUrl":null,"time":" 8:30pm"}],"vName":"Brunswick Ballroom"},"type":"Feature"},{"geometry":{"coordinates":[144.99266639479475,-37.82488935],"type":"Point"},"properties":{"events":[{"categories":["Music","Other \"Wrestling\""],"eDate":"2024-04-27","eName":"Wrestlerock FEAT: Shotgun Mistress","genre":"Rock","price":"$45.45","supports":[],"ticketUrl":null,"time":" 8pm"}],"vName":"Corner Hotel"},"type":"Feature"},{"geometry":{"coordinates":[144.9745581,-37.7694446],"type":"Point"},"properties":{"events":[{"categories":["Music"],"eDate":"2024-04-27","eName":"Phil Collings: The Bright Angles CD Launch","genre":null,"price":"$20.00","supports":["Tom Stewart-Toner"],"ticketUrl":null,"time":" 7:30pm"}],"vName":"Cross Street Music Hall"},"type":"Feature"},{"geometry":{"coordinates":[144.9679835243618,-37.8201575],"type":"Point"},"properties":{"events":[{"categories":["Free","Theatre"],"eDate":"2024-04-27","eName":"Monster High","genre":null,"price":"Free","supports":[],"ticketUrl":null,"time":"12:30pm"},{"categories":["Music"],"eDate":"2024-04-27","eName":"Kate Ceberano: My Life is a Symphony","genre":"Pop","price":"$85.00","supports":[],"ticketUrl":null,"time":" 7:30pm"}],"vName":"Hamer Hall (Arts Centre Melbourne)"},"type":"Feature"},{"geometry":{"coordinates":[144.9596527,-37.7720304],"type":"Point"},"properties":{"events":[{"categories":["Music"],"eDate":"2024-04-27","eName":"Daniel Deluxe","genre":"Electronic","price":"$57.00","supports":["The Night Terrors"," Zerotonine"],"ticketUrl":null,"time":" 8pm"}],"vName":"Howler"},"type":"Feature"},{"geometry":{"coordinates":[144.9764962,-37.7983139],"type":"Point"},"properties":{"events":[{"categories":["Music"],"eDate":"2024-04-27","eName":"Girli","genre":null,"price":"$59.99","supports":["Juno"],"ticketUrl":null,"time":" 8pm"},{"categories":["Music"],"eDate":"2024-04-27","eName":"LAUNDRY - Saturdays","genre":null,"price":"$16.53","supports":[],"ticketUrl":null,"time":"10pm"}],"vName":"Laundry Bar"},"type":"Feature"},{"geometry":{"coordinates":[144.8971518,-37.8054274],"type":"Point"},"properties":{"events":[{"categories":["Free","Music"],"eDate":"2024-04-27","eName":"MONSTER MASH .02: Punk Rock & Metal Fest","genre":null,"price":"Free","supports":[],"ticketUrl":null,"time":" 2pm"}],"vName":"Mamma Chen's"},"type":"Feature"},{"geometry":{"coordinates":[144.998414,-37.771471],"type":"Point"},"properties":{"events":[{"categories":["Music"],"eDate":"2024-04-27","eName":"Cordrazine","genre":"Jazz","price":"$29.10","supports":["Autohaze"," Blackchords"," Simon Langdon"],"ticketUrl":null,"time":" 7:30pm"}],"vName":"Northcote Social Club"},"type":"Feature"},{"geometry":{"coordinates":[144.9706095,-37.7783326],"type":"Point"},"properties":{"events":[{"categories":["Free","Music"],"eDate":"2024-04-27","eName":"River Of Snakes","genre":"Punk","price":"Free","supports":["Dental Plan"," Gutternoize"],"ticketUrl":null,"time":" 9pm"}],"vName":"The Beast"},"type":"Feature"},{"geometry":{"coordinates":[144.97515565,-37.805788500000006],"type":"Point"},"properties":{"events":[{"categories":["Music"],"eDate":"2024-04-27","eName":"Second Idol","genre":null,"price":"$16.33","supports":["Gush"," Linen"],"ticketUrl":null,"time":" 7:30pm"}],"vName":"The Catfish"},"type":"Feature"},{"geometry":{"coordinates":[144.9657057,-37.8061581],"type":"Point"},"properties":{"events":[{"categories":["Music"],"eDate":"2024-04-27","eName":"The Vovos","genre":"Rock","price":"$22.85","supports":["Screensaver"," Bad Bangs"," Tali & The Arms"],"ticketUrl":null,"time":" 8pm"}],"vName":"The Curtin"},"type":"Feature"},{"geometry":{"coordinates":[145.13337431967784,-37.91372355],"type":"Point"},"properties":{"events":[{"categories":["Music"],"eDate":"2024-04-27","eName":"Live at The Count's: Mo'Ju","genre":"R&B","price":"$19.00 - 59.00","supports":[],"ticketUrl":null,"time":" 7:30pm"}],"vName":"The Ian Potter Centre for Performing Arts"},"type":"Feature"},{"geometry":{"coordinates":[144.9622,-37.7679857],"type":"Point"},"properties":{"events":[{"categories":["Music","Theatre","Other \"Cabaret\""],"eDate":"2024-04-27","eName":"Queers To The Front: A BONEZ Queer Party Festival","genre":"Rock","price":"$33.08","supports":["Art Simone"," Ruby Slippers"," Theresa Problem"," Alessa Evil"," Xai"],"ticketUrl":null,"time":" 3pm"}],"vName":"The Penny Black"},"type":"Feature"},{"geometry":{"coordinates":[144.9651425,-37.8119429],"type":"Point"},"properties":{"events":[{"categories":["Music"],"eDate":"2024-04-27","eName":"Joel Leggett","genre":"Acoustic","price":"$17.34","supports":[],"ticketUrl":null,"time":" 7:30pm"}],"vName":"The Toff In Town"},"type":"Feature"},{"geometry":{"coordinates":[144.9846126,-37.7989941],"type":"Point"},"properties":{"events":[{"categories":["Music"],"eDate":"2024-04-27","eName":"HOON","genre":"Rock","price":"$16.35","supports":[],"ticketUrl":null,"time":" 7pm"}],"vName":"The Tote Hotel"},"type":"Feature"},{"geometry":{"coordinates":[144.9985126,-37.7588241],"type":"Point"},"properties":{"events":[{"categories":["Music"],"eDate":"2024-04-27","eName":"Skink Tank","genre":"Punk","price":"$20.00","supports":["Truffle Pigs"," Talk Show"],"ticketUrl":null,"time":" 1pm"}],"vName":"Thornbury Bowls Club"},"type":"Feature"},{"geometry":{"coordinates":[144.9807148,-37.7801461],"type":"Point"},"properties":{"events":[{"categories":["Music"],"eDate":"2024-04-27","eName":"Roles","genre":null,"price":"Free","supports":["Hot Tubs Time Machine"],"ticketUrl":null,"time":" 4pm"}],"vName":"Tramway Hotel"},"type":"Feature"}],"type":"FeatureCollection"}