{"features":[{"geometry":{"coordinates":[144.9762881,-37.798246],"type":"Point"},"properties":{"events":[{"categories":["Music"],"eDate":"2026-06-05","eName":"Night of the Disenfranchised","genre":"Rock","price":"$20.00","supports":["The Chop"," Materia"," Pomp Art"],"ticketUrl":null,"time":" 7:30pm"}],"vName":"Bad Decisions Bar"},"type":"Feature"},{"geometry":{"coordinates":[144.9982812,-37.7713296],"type":"Point"},"properties":{"events":[{"categories":["Free","Music"],"eDate":"2026-06-05","eName":"The Calabrians + The T-Bones","genre":"Rock","price":"Free","supports":[],"ticketUrl":null,"time":" 5pm"},{"categories":["Music"],"eDate":"2026-06-05","eName":"One Spirit Africa","genre":"Jazz","price":"$20.00","supports":["Vanessa & Band"],"ticketUrl":null,"time":" 7:30pm"}],"vName":"Bar 303"},"type":"Feature"},{"geometry":{"coordinates":[144.978682,-37.7981225],"type":"Point"},"properties":{"events":[{"categories":["Free","Music"],"eDate":"2026-06-05","eName":"Luna The Moon","genre":null,"price":"Free","supports":[],"ticketUrl":null,"time":" 9pm"}],"vName":"Baxter's Lot"},"type":"Feature"},{"geometry":{"coordinates":[144.9568039,-37.8111442],"type":"Point"},"properties":{"events":[{"categories":["Music"],"eDate":"2026-06-05","eName":"SPIRIT: Supernatural – The Santana Songbook","genre":"Soul/Funk","price":"$45.00","supports":[],"ticketUrl":null,"time":" 7:30pm"}],"vName":"Bird's Basement"},"type":"Feature"},{"geometry":{"coordinates":[144.9713425,-37.8128595],"type":"Point"},"properties":{"events":[{"categories":["Music"],"eDate":"2026-06-05","eName":"C.O.B.B","genre":"Rock","price":"$15.43","supports":[],"ticketUrl":null,"time":" 8pm"}],"vName":"Cherry Bar"},"type":"Feature"},{"geometry":{"coordinates":[144.9248037,-37.7656716],"type":"Point"},"properties":{"events":[{"categories":["Music"],"eDate":"2026-06-05","eName":"Bjorn Again: ABBA Forever Tour","genre":"Pop","price":"$85.00","supports":[],"ticketUrl":null,"time":" 7:30pm"}],"vName":"Clocktower Centre"},"type":"Feature"},{"geometry":{"coordinates":[144.9777885,-37.8597831],"type":"Point"},"properties":{"events":[{"categories":["Music"],"eDate":"2026-06-05","eName":"Brooke & Craig","genre":"Acoustic","price":"Free","supports":[],"ticketUrl":null,"time":" 8pm"},{"categories":["Music"],"eDate":"2026-06-05","eName":"DJ Christian Belvedere","genre":"Rock","price":"Free","supports":[],"ticketUrl":null,"time":"11pm"}],"vName":"Freddie Wimpoles"},"type":"Feature"},{"geometry":{"coordinates":[144.9787378,-37.7954205],"type":"Point"},"properties":{"events":[{"categories":["Music"],"eDate":"2026-06-05","eName":"Interval: Cotto + Lexï","genre":"Electronic","price":"$15.00 - 30.00","supports":["Annie Kez"," Kadel"," Liry"," Naliita"," Ryan Stow"],"ticketUrl":null,"time":"10pm"}],"vName":"Glamorama"},"type":"Feature"},{"geometry":{"coordinates":[144.983442,-37.804851],"type":"Point"},"properties":{"events":[{"categories":["Music"],"eDate":"2026-06-05","eName":"Middle Management","genre":null,"price":"$15.00","supports":["OPERA",""," Birds Aren't Real"],"ticketUrl":null,"time":" 8pm"}],"vName":"Grace Darling Hotel"},"type":"Feature"},{"geometry":{"coordinates":[144.9679835,-37.8201575],"type":"Point"},"properties":{"events":[{"categories":["Music"],"eDate":"2026-06-05","eName":"Seun Kuti & Egypt 80","genre":null,"price":"$79.00","supports":[],"ticketUrl":null,"time":" 8pm"}],"vName":"Hamer Hall (Arts Centre Melbourne)"},"type":"Feature"},{"geometry":{"coordinates":[144.9675876,-37.8240849],"type":"Point"},"properties":{"events":[{"categories":["Music"],"eDate":"2026-06-05","eName":"Tiaryn","genre":"Jazz","price":"$45.00 - 50.00","supports":[],"ticketUrl":null,"time":" 7:30pm"},{"categories":["Music"],"eDate":"2026-06-05","eName":"Saul Williams Meets Carlos Niño & Friends","genre":"Jazz","price":"$69.00 - 79.00","supports":["Mz Risk"," Nū"],"ticketUrl":null,"time":" 8pm"}],"vName":"Melbourne Recital Centre"},"type":"Feature"},{"geometry":{"coordinates":[144.998414,-37.771471],"type":"Point"},"properties":{"events":[{"categories":["Music"],"eDate":"2026-06-05","eName":"Second Hand High","genre":"Rock","price":"$13.30 - 18.40","supports":["Chick"," Left At The Avenue"],"ticketUrl":null,"time":" 8pm"}],"vName":"Northcote Social Club"},"type":"Feature"},{"geometry":{"coordinates":[144.97711,-37.79833],"type":"Point"},"properties":{"events":[{"categories":["Music"],"eDate":"2026-06-05","eName":"DOLLS","genre":null,"price":"$15.00","supports":["Bellhop"," Zero City"],"ticketUrl":null,"time":" 8pm"}],"vName":"Old Bar"},"type":"Feature"},{"geometry":{"coordinates":[144.96084,-37.813514],"type":"Point"},"properties":{"events":[{"categories":["Music"],"eDate":"2026-06-05","eName":"No Regrets: The Edith Piaf Story with Nikki Nouveau","genre":"Jazz","price":"Free","supports":[],"ticketUrl":null,"time":" 6pm"},{"categories":["Music"],"eDate":"2026-06-05","eName":"Craig Smith Quintet plays Billy Joel: In a Jazz State of Mind","genre":"Jazz","price":"$45.00","supports":[],"ticketUrl":null,"time":" 6:30pm"},{"categories":["Music"],"eDate":"2026-06-05","eName":"Alinta & The Jazz Emperors","genre":"Jazz","price":"$48.00","supports":[],"ticketUrl":null,"time":" 9pm"},{"categories":["Music"],"eDate":"2026-06-05","eName":"Partners In Jazz: A Night Of Dex & Slide Played By Blackham/Rozakeas","genre":"Jazz","price":"$45.00","supports":[],"ticketUrl":null,"time":" 9:30pm"}],"vName":"Paris Cat Jazz Club"},"type":"Feature"},{"geometry":{"coordinates":[144.9615882,-37.7711432],"type":"Point"},"properties":{"events":[{"categories":["Music"],"eDate":"2026-06-05","eName":"Fairtrade Narcotics","genre":"Soul/Funk","price":"Free","supports":["Lunar Lagoon"],"ticketUrl":null,"time":" 8pm"}],"vName":"Retreat Hotel"},"type":"Feature"},{"geometry":{"coordinates":[144.9607404,-37.7743469],"type":"Point"},"properties":{"events":[{"categories":["Music"],"eDate":"2026-06-05","eName":"Stimpies","genre":"Rock","price":"$25.00","supports":[],"ticketUrl":null,"time":" 7:30pm"}],"vName":"Stay Gold"},"type":"Feature"},{"geometry":{"coordinates":[144.9770425,-37.8588717],"type":"Point"},"properties":{"events":[{"categories":["Music"],"eDate":"2026-06-05","eName":"MD Duo + DJ Matty J","genre":null,"price":"Free","supports":[],"ticketUrl":null,"time":" 9pm"}],"vName":"The Fifth Province"},"type":"Feature"},{"geometry":{"coordinates":[144.9463641,-37.8047757],"type":"Point"},"properties":{"events":[{"categories":["Music"],"eDate":"2026-06-05","eName":"10 Years of Last Chance: The Clinch","genre":"Punk","price":"$11.25","supports":["The Dive Bombs"," Mongrel"," Smut Brigade"],"ticketUrl":null,"time":" 8pm"}],"vName":"The Last Chance Rock & Roll Bar"},"type":"Feature"},{"geometry":{"coordinates":[144.9794553,-37.7982653],"type":"Point"},"properties":{"events":[{"categories":["Music"],"eDate":"2026-06-05","eName":"Conrad Sewell","genre":"R&B","price":"$60.36","supports":[],"ticketUrl":null,"time":" 7:30pm"}],"vName":"The Night Cat"},"type":"Feature"},{"geometry":{"coordinates":[144.9651425,-37.8119429],"type":"Point"},"properties":{"events":[{"categories":["Music","Other \"Art \""],"eDate":"2026-06-05","eName":"Sorry Christ Installation","genre":null,"price":"$23.46","supports":["Harminia"," Sanszu"," Twostar"],"ticketUrl":null,"time":" 6pm"}],"vName":"The Toff In Town"},"type":"Feature"},{"geometry":{"coordinates":[144.9984324,-37.7729134],"type":"Point"},"properties":{"events":[{"categories":["Music"],"eDate":"2026-06-05","eName":"Nash Lee Trio","genre":"Jazz","price":"Free","supports":["Hugo Turudia"],"ticketUrl":null,"time":" 6pm"},{"categories":["Music"],"eDate":"2026-06-05","eName":"Lucy Burke","genre":"Jazz","price":"$20.00 - 25.00","supports":[],"ticketUrl":null,"time":" 8pm"}],"vName":"Wesley Anne"},"type":"Feature"}],"type":"FeatureCollection"}