{"features":[{"geometry":{"coordinates":[144.978425,-37.79773],"type":"Point"},"properties":{"events":[{"categories":["Free","Music"],"eDate":"2024-07-25","eName":"The Temple Of Groove","genre":"Jazz","price":"Free","supports":["Moth"," Titration"],"ticketUrl":null,"time":" 6pm"},{"categories":["Music"],"eDate":"2024-07-25","eName":"Snailgun","genre":null,"price":"$15.00","supports":["Waxman"," Cold Regards"],"ticketUrl":null,"time":" 8pm"}],"vName":"Bar Open"},"type":"Feature"},{"geometry":{"coordinates":[144.978682,-37.7981225],"type":"Point"},"properties":{"events":[{"categories":["Free","Music"],"eDate":"2024-07-25","eName":"Woody Samson","genre":null,"price":"Free","supports":[],"ticketUrl":null,"time":" 9:30pm"}],"vName":"Baxter's Lot"},"type":"Feature"},{"geometry":{"coordinates":[144.9607158,-37.776327],"type":"Point"},"properties":{"events":[{"categories":["Music"],"eDate":"2024-07-25","eName":"Shelly's Motor Club","genre":"Rock","price":"$16.85","supports":["Bailey Judd"," Eastbound Buzz"],"ticketUrl":null,"time":" 7pm"},{"categories":["Music"],"eDate":"2024-07-25","eName":"Shelly’s Motor Club","genre":null,"price":"$20.00","supports":["Eastbound Buzz"," Bailey Judd"],"ticketUrl":null,"time":" 7pm"}],"vName":"Bergy Bandroom"},"type":"Feature"},{"geometry":{"coordinates":[144.9945274,-37.8001115],"type":"Point"},"properties":{"events":[{"categories":["Free","Music","Art","Other \"Food & Drink\""],"eDate":"2024-07-25","eName":"Leaps & Bounds presents: Kiwat Kennell + ENOKi","genre":null,"price":"Free","supports":["Ethan Savage"],"ticketUrl":null,"time":" 6pm"}],"vName":"Bodriggy Brewing Company"},"type":"Feature"},{"geometry":{"coordinates":[144.9248037207342,-37.7656716],"type":"Point"},"properties":{"events":[{"categories":["Music"],"eDate":"2024-07-25","eName":"Seven Drunken Nights","genre":"Country/Folk","price":"$89.90","supports":[],"ticketUrl":null,"time":" 7:30pm"}],"vName":"Clocktower Centre"},"type":"Feature"},{"geometry":{"coordinates":[144.959768,-37.831777],"type":"Point"},"properties":{"events":[{"categories":["Music"],"eDate":"2024-07-25","eName":"Georgia Brooks + John Montesante Quintet","genre":"Jazz","price":"$18.00","supports":[],"ticketUrl":null,"time":" 7pm"}],"vName":"Golden Gate Hotel"},"type":"Feature"},{"geometry":{"coordinates":[144.973013,-37.8640582],"type":"Point"},"properties":{"events":[{"categories":["Music"],"eDate":"2024-07-25","eName":"Yung Shõgun","genre":"Hip Hop","price":"Free","supports":["Bilalli"," Jordan Dennis"," ThatKidMaz"],"ticketUrl":null,"time":" 8pm"}],"vName":"Hotel Esplanade (aka The Espy)"},"type":"Feature"},{"geometry":{"coordinates":[144.8971518,-37.8054274],"type":"Point"},"properties":{"events":[{"categories":["Free","Music","Other \"Spoken Word\"","Other \"Poetry & Forums\""],"eDate":"2024-07-25","eName":"Assorted Sporks: Poetry & Performance","genre":"Experimental","price":"Free","supports":[],"ticketUrl":null,"time":" 7pm"}],"vName":"Mamma Chen's"},"type":"Feature"},{"geometry":{"coordinates":[144.998414,-37.771471],"type":"Point"},"properties":{"events":[{"categories":["Free","Trivia"],"eDate":"2024-07-25","eName":"Wii Sports Tournament","genre":"Metal","price":"Free","supports":[],"ticketUrl":null,"time":" 7pm"}],"vName":"Northcote Social Club"},"type":"Feature"},{"geometry":{"coordinates":[144.9605705,-37.8132486],"type":"Point"},"properties":{"events":[{"categories":["Music"],"eDate":"2024-07-25","eName":"The Daryl McKenzie Jazz Orchestra with Fem Belling","genre":"Jazz","price":"$45.00","supports":[],"ticketUrl":null,"time":" 7:30pm"},{"categories":["Music"],"eDate":"2024-07-25","eName":"Rhys Tolhurst Sings The Crooners","genre":"Jazz","price":"$45.00","supports":[],"ticketUrl":null,"time":" 8pm"}],"vName":"Paris Cat Jazz Club"},"type":"Feature"},{"geometry":{"coordinates":[144.9631913,-37.7617818],"type":"Point"},"properties":{"events":[{"categories":["Free","Music"],"eDate":"2024-07-25","eName":"Open Mic Thursdays @ Ringo Barr","genre":"Acoustic","price":"Free","supports":[],"ticketUrl":null,"time":" 7pm"}],"vName":"Ringo Barr"},"type":"Feature"},{"geometry":{"coordinates":[145.001392343033,-37.75592655],"type":"Point"},"properties":{"events":[{"categories":["Music"],"eDate":"2024-07-25","eName":"MUDRAT","genre":"Hip Hop","price":"$23.45","supports":["Priya"," Daddy Issues"," Strewth The Drag Queen"],"ticketUrl":null,"time":" 8pm"}],"vName":"Shotkickers"},"type":"Feature"},{"geometry":{"coordinates":[144.9715321,-37.8098002],"type":"Point"},"properties":{"events":[{"categories":["Comedy"],"eDate":"2024-07-25","eName":"Raise the Bar Comedy: Standup Comedy Female All-Stars Comedy For Palestine","genre":null,"price":"$20.00","supports":[],"ticketUrl":null,"time":" 7pm"}],"vName":"StoryVille"},"type":"Feature"},{"geometry":{"coordinates":[144.9952245,-37.8510689],"type":"Point"},"properties":{"events":[{"categories":["Music","Theatre"],"eDate":"2024-07-25","eName":"Scott Hollingsworth: Older Than I Ever Intended to Be","genre":"Pop","price":"$20.00 - 30.00","supports":[],"ticketUrl":null,"time":" 8pm"}],"vName":"The MC Showroom"},"type":"Feature"},{"geometry":{"coordinates":[144.9651425,-37.8119429],"type":"Point"},"properties":{"events":[{"categories":["Free","Music","Other \"Food & Drink\""],"eDate":"2024-07-25","eName":"Jazz & Jaffles: Niine + Kurt Rainbow","genre":"Jazz","price":"Free","supports":[],"ticketUrl":null,"time":" 7:30pm"}],"vName":"The Toff In Town"},"type":"Feature"},{"geometry":{"coordinates":[144.9769450659087,-37.8055776],"type":"Point"},"properties":{"events":[{"categories":["Music"],"eDate":"2024-07-25","eName":"Sunset Blush","genre":"Rock","price":"$17.85 - 20.00","supports":["Nitida Atkinson"," Sarah Light"],"ticketUrl":null,"time":" 7pm"}],"vName":"The Workers Club"},"type":"Feature"},{"geometry":{"coordinates":[144.9985126,-37.7588241],"type":"Point"},"properties":{"events":[{"categories":["Free","Music"],"eDate":"2024-07-25","eName":"Hume Blues Club","genre":"Blues","price":"Free","supports":["Shake Shack Jammers"],"ticketUrl":null,"time":" 7pm"}],"vName":"Thornbury Bowls Club"},"type":"Feature"}],"type":"FeatureCollection"}