{"features":[{"geometry":{"coordinates":[144.978425,-37.79773],"type":"Point"},"properties":{"events":[{"categories":["Free","Music"],"eDate":"2023-12-31","eName":"New Year's Eve with Sorbo Amplio","genre":"Global","price":"Free","supports":[],"ticketUrl":null,"time":"10pm"}],"vName":"Bar Open"},"type":"Feature"},{"geometry":{"coordinates":[144.9945274,-37.8001115],"type":"Point"},"properties":{"events":[{"categories":["Free","Music","Other \"Food & Drink\""],"eDate":"2023-12-31","eName":"Holy Smokes: Early NYE Session","genre":null,"price":"Free","supports":[],"ticketUrl":null,"time":" 3pm"}],"vName":"Bodriggy Brewing Company"},"type":"Feature"},{"geometry":{"coordinates":[144.9617018,-37.7704566],"type":"Point"},"properties":{"events":[{"categories":["Music"],"eDate":"2023-12-31","eName":"Midnight Driver on New Year's Eve","genre":"Soul/Funk","price":"$54.67","supports":[],"ticketUrl":null,"time":" 8pm"}],"vName":"Brunswick Ballroom"},"type":"Feature"},{"geometry":{"coordinates":[144.99266639479475,-37.82488935],"type":"Point"},"properties":{"events":[{"categories":["Music"],"eDate":"2023-12-31","eName":"Bon But Not Forgotten: Celebrate AC/DC 50 Years","genre":"Rock","price":"$39.90","supports":[],"ticketUrl":null,"time":" 1pm"},{"categories":["Music"],"eDate":"2023-12-31","eName":"Slumberjack + Kinder + Raave Tapes (NYE Party)","genre":"Electronic","price":"$46.00","supports":["The Valiants"],"ticketUrl":null,"time":" 9pm"}],"vName":"Corner Hotel"},"type":"Feature"},{"geometry":{"coordinates":[144.9679835243618,-37.8201575],"type":"Point"},"properties":{"events":[{"categories":["Music"],"eDate":"2023-12-31","eName":"New Year's Eve Gala Concert (Matinee Session)","genre":"Classical","price":"$99.00","supports":[],"ticketUrl":null,"time":" 2pm"},{"categories":["Music"],"eDate":"2023-12-31","eName":"New Year's Eve Gala Concert","genre":"Classical","price":"$99.00","supports":[],"ticketUrl":null,"time":" 8pm"}],"vName":"Hamer Hall (Arts Centre Melbourne)"},"type":"Feature"},{"geometry":{"coordinates":[144.9712356,-37.812902],"type":"Point"},"properties":{"events":[{"categories":["Music","Other \"Food & Drink\""],"eDate":"2023-12-31","eName":"Morris House: New Year’s Eve","genre":"Jazz","price":"$180.00 - 220.00","supports":[],"ticketUrl":null,"time":" 7pm"}],"vName":"Morris House"},"type":"Feature"},{"geometry":{"coordinates":[144.998414,-37.771471],"type":"Point"},"properties":{"events":[{"categories":["Music"],"eDate":"2023-12-31","eName":"BONEZ: NEW QUEERS EVE","genre":"Rock","price":"$24.00","supports":["Ruby Slippers"," Theresa Problem"," Bromeo"," Winter Greene"],"ticketUrl":null,"time":" 8:30pm"}],"vName":"Northcote Social Club"},"type":"Feature"},{"geometry":{"coordinates":[144.9977626,-37.7755001],"type":"Point"},"properties":{"events":[{"categories":["Music"],"eDate":"2023-12-31","eName":"Sundaylicious Melbourne: New Year's Eve","genre":null,"price":"$86.80","supports":[],"ticketUrl":null,"time":" 7pm"}],"vName":"Northcote Theatre"},"type":"Feature"},{"geometry":{"coordinates":[144.97711,-37.79833],"type":"Point"},"properties":{"events":[{"categories":["Music","Other \"Wrestling\""],"eDate":"2023-12-31","eName":"NYE: Australian Outlaw Wrestling","genre":null,"price":"$28.60","supports":["Gutless"," Vile Apparition"," Kvll"],"ticketUrl":null,"time":" 7pm"}],"vName":"Old Bar"},"type":"Feature"},{"geometry":{"coordinates":[144.90239079583333,-37.79990865],"type":"Point"},"properties":{"events":[{"categories":["Music"],"eDate":"2023-12-31","eName":"Drag & Disco New Year’s Eve Celebration","genre":"Soul/Funk","price":"$15.00","supports":[],"ticketUrl":null,"time":" 8pm"}],"vName":"Pride Of Our Footscray Community Bar"},"type":"Feature"},{"geometry":{"coordinates":[144.9746525926778,-37.823819181966286],"type":"Point"},"properties":{"events":[{"categories":["Music"],"eDate":"2023-12-31","eName":"Heaps Good","genre":"Electronic","price":"$139.90","supports":["more"],"ticketUrl":null,"time":"10am"}],"vName":"Sidney Myer Music Bowl"},"type":"Feature"},{"geometry":{"coordinates":[144.9706095,-37.7783326],"type":"Point"},"properties":{"events":[{"categories":["Free","Music"],"eDate":"2023-12-31","eName":"Bob Log III: New Year's Eve","genre":"Rock","price":"Free","supports":["Freud & The Family Solution"," Cheeky B"],"ticketUrl":null,"time":" 9pm"}],"vName":"The Beast"},"type":"Feature"},{"geometry":{"coordinates":[144.9830837,-37.7988316],"type":"Point"},"properties":{"events":[{"categories":["Free","Music"],"eDate":"2023-12-31","eName":"NYE @ The Night Cat","genre":"Jazz","price":"$39.90 - 49.90","supports":[],"ticketUrl":null,"time":" 9pm"}],"vName":"The Night Cat"},"type":"Feature"},{"geometry":{"coordinates":[144.8946587,-37.8151254],"type":"Point"},"properties":{"events":[{"categories":["Music"],"eDate":"2023-12-31","eName":"BABBA: New Year's Eve Dinner & Show","genre":"Pop","price":"$47.00 - 139.50","supports":[],"ticketUrl":null,"time":" 7pm"}],"vName":"Yarraville Club"},"type":"Feature"}],"type":"FeatureCollection"}