{"features":[{"geometry":{"coordinates":[144.978682,-37.7981225],"type":"Point"},"properties":{"events":[{"categories":["Music","Free"],"eDate":"2025-08-29","eName":"Lewis Ciavarella","genre":null,"price":"Free","supports":[],"ticketUrl":null,"time":" 9pm"}],"vName":"Baxter's Lot"},"type":"Feature"},{"geometry":{"coordinates":[144.9891167,-37.7996488],"type":"Point"},"properties":{"events":[{"categories":["Music"],"eDate":"2025-08-29","eName":"Bendigo Hotel 1 Year Revival Anniversary: Mammons Throne","genre":"Metal","price":"$22.95","supports":["Algor Mortis"," Bludger"," Who Bastard"],"ticketUrl":null,"time":" 8:30pm"}],"vName":"Bendigo Hotel"},"type":"Feature"},{"geometry":{"coordinates":[144.9501312,-37.8042459],"type":"Point"},"properties":{"events":[{"categories":["Comedy"],"eDate":"2025-08-29","eName":"Fresh Friday Stand-Up Comedy","genre":null,"price":"$11.90","supports":[],"ticketUrl":null,"time":" 7:30pm"}],"vName":"Club Voltaire"},"type":"Feature"},{"geometry":{"coordinates":[144.9864551,-37.7993391],"type":"Point"},"properties":{"events":[{"categories":["Other \"Spoken Word, Poetry \"","Music","Free"],"eDate":"2025-08-29","eName":"VMDO Breakfast: A Conversation with Derrick Gee","genre":null,"price":"Free","supports":[],"ticketUrl":null,"time":" 9am"}],"vName":"Collingwood Yards"},"type":"Feature"},{"geometry":{"coordinates":[144.9777885,-37.8597831],"type":"Point"},"properties":{"events":[{"categories":["Music"],"eDate":"2025-08-29","eName":"Adam Hattaway","genre":"Country/Folk","price":"Free","supports":[],"ticketUrl":null,"time":" 6:30pm"}],"vName":"Freddie Wimpoles"},"type":"Feature"},{"geometry":{"coordinates":[145.0358258,-37.9334203],"type":"Point"},"properties":{"events":[{"categories":["Other \"Cabaret\"","Music"],"eDate":"2025-08-29","eName":"The Exotic Lives of Lola Montez","genre":"Jazz","price":"$30.00 - 35.00","supports":[],"ticketUrl":null,"time":" 7:30pm"}],"vName":"Kingston City Hall"},"type":"Feature"},{"geometry":{"coordinates":[144.8975289,-37.8022392],"type":"Point"},"properties":{"events":[{"categories":["Music","Free"],"eDate":"2025-08-29","eName":"Earth Cadet","genre":"Punk","price":"Free","supports":["Waxman"," B-Sides"," Moths"],"ticketUrl":null,"time":" 7:45pm"}],"vName":"Mamma Chen's"},"type":"Feature"},{"geometry":{"coordinates":[144.9658499,-37.8147453],"type":"Point"},"properties":{"events":[{"categories":["Music"],"eDate":"2025-08-29","eName":"Tipsy Rodeo","genre":"Country/Folk","price":"$51.00","supports":[],"ticketUrl":null,"time":" 7pm"}],"vName":"Max Watt's (Melbourne)"},"type":"Feature"},{"geometry":{"coordinates":[144.9615882,-37.7711432],"type":"Point"},"properties":{"events":[{"categories":["Music"],"eDate":"2025-08-29","eName":"Cass Aware","genre":"Rock","price":"$9.41 - 15.10","supports":["The Opals"," Chloe Booth"],"ticketUrl":null,"time":" 7:30pm"}],"vName":"Retreat Hotel"},"type":"Feature"},{"geometry":{"coordinates":[144.9651425,-37.8119429],"type":"Point"},"properties":{"events":[{"categories":["Music"],"eDate":"2025-08-29","eName":"The Art of the Side Room: Mike G Takeover","genre":"Electronic","price":"Free","supports":["Zjoso"," Kuzco"],"ticketUrl":null,"time":" 9pm"}],"vName":"The Toff In Town"},"type":"Feature"},{"geometry":{"coordinates":[144.9870814,-37.799406],"type":"Point"},"properties":{"events":[{"categories":["Music"],"eDate":"2025-08-29","eName":"Because Silence Is Worse","genre":"Punk","price":"$15.00","supports":["Relays"," The Rartel"," Abselom"],"ticketUrl":null,"time":" 8pm"}],"vName":"The Tote Hotel"},"type":"Feature"},{"geometry":{"coordinates":[144.9769451,-37.8055776],"type":"Point"},"properties":{"events":[{"categories":["Music"],"eDate":"2025-08-29","eName":"PowderKeg","genre":"Rock","price":"$12.75","supports":["Swim State"," Emma Yue"],"ticketUrl":null,"time":" 8pm"}],"vName":"The Workers Club"},"type":"Feature"}],"type":"FeatureCollection"}