{"features":[{"geometry":{"coordinates":[144.973013,-37.8640582],"type":"Point"},"properties":{"events":[{"categories":["Free","Comedy"],"eDate":"2024-05-20","eName":"Espy Comedy Club","genre":null,"price":"Free","supports":[],"ticketUrl":null,"time":" 7pm"}],"vName":"Hotel Esplanade (aka The Espy)"},"type":"Feature"},{"geometry":{"coordinates":[144.96741062735794,-37.82454855],"type":"Point"},"properties":{"events":[{"categories":["Music"],"eDate":"2024-05-20","eName":"Martha Wainwright","genre":"Classical","price":"$49.00","supports":[],"ticketUrl":null,"time":"11am"}],"vName":"Melbourne Recital Centre"},"type":"Feature"},{"geometry":{"coordinates":[144.998414,-37.771471],"type":"Point"},"properties":{"events":[{"categories":["Free","Music"],"eDate":"2024-05-20","eName":"Social Sanctuary: Georgia Mulligan","genre":"Indie","price":"Free","supports":["Hannah McKittrick"," Lewis Coleman"],"ticketUrl":null,"time":" 7pm"}],"vName":"Northcote Social Club"},"type":"Feature"},{"geometry":{"coordinates":[144.9631913,-37.7617818],"type":"Point"},"properties":{"events":[{"categories":["Music"],"eDate":"2024-05-20","eName":"Ruby Lou + Connor Kerr-Newell","genre":"Indie","price":"$15.00","supports":[],"ticketUrl":null,"time":" 8pm"}],"vName":"Ringo Barr"},"type":"Feature"},{"geometry":{"coordinates":[144.9651227,-37.815011],"type":"Point"},"properties":{"events":[{"categories":["Music","Comedy","Theatre","Other \"Cabaret\""],"eDate":"2024-05-20","eName":"The Last Word: A Totally Objective Cabaret","genre":"Jazz","price":"$31.00 - 39.00","supports":[],"ticketUrl":null,"time":" 7pm"}],"vName":"The Butterfly Club"},"type":"Feature"}],"type":"FeatureCollection"}