{"features":[{"geometry":{"coordinates":[144.978682,-37.7981225],"type":"Point"},"properties":{"events":[{"categories":["Free","Music"],"eDate":"2025-12-12","eName":"Tejo D’Cruz","genre":null,"price":"Free","supports":[],"ticketUrl":null,"time":" 9pm"}],"vName":"Baxter's Lot"},"type":"Feature"},{"geometry":{"coordinates":[144.9891167,-37.7996488],"type":"Point"},"properties":{"events":[{"categories":["Music"],"eDate":"2025-12-12","eName":"CHILD","genre":"Rock","price":"$17.35","supports":["The Miffs"," Dukes of Deliciousness"],"ticketUrl":null,"time":" 6:30pm"},{"categories":["Free","Music"],"eDate":"2025-12-12","eName":"Blarke Bayer","genre":null,"price":"Free","supports":["DJ BA"],"ticketUrl":null,"time":" 7pm"},{"categories":["Music"],"eDate":"2025-12-12","eName":"Outer Worlds + RVN//NT","genre":"Metal","price":"$17.35","supports":["Rimmy Grasa"," Red Portrait"],"ticketUrl":null,"time":" 8pm"}],"vName":"Bendigo Hotel"},"type":"Feature"},{"geometry":{"coordinates":[144.9607158,-37.776327],"type":"Point"},"properties":{"events":[{"categories":["Music"],"eDate":"2025-12-12","eName":"Slay Belles 3","genre":"Punk","price":"$16.85","supports":[],"ticketUrl":null,"time":" 7pm"}],"vName":"Bergy Bandroom"},"type":"Feature"},{"geometry":{"coordinates":[144.9617083,-37.7704205],"type":"Point"},"properties":{"events":[{"categories":["Free","Music"],"eDate":"2025-12-12","eName":"The Remotes","genre":"Rock","price":"Free","supports":["Annual Leaf"],"ticketUrl":null,"time":" 8pm"}],"vName":"Brunswick Artists' Bar"},"type":"Feature"},{"geometry":{"coordinates":[144.9617083,-37.7704205],"type":"Point"},"properties":{"events":[{"categories":["Music"],"eDate":"2025-12-12","eName":"Tracey “Mama” Miller: Queen of the Creek","genre":"Soul/Funk","price":"$38.86","supports":[],"ticketUrl":null,"time":" 8:30pm"}],"vName":"Brunswick Ballroom"},"type":"Feature"},{"geometry":{"coordinates":[145.0004166,-37.7612582],"type":"Point"},"properties":{"events":[{"categories":["Music"],"eDate":"2025-12-12","eName":"The Great Emu War Casualties","genre":"Rock","price":"$13.80","supports":["HECTICT"," Cranes Against Clouds"],"ticketUrl":null,"time":" 8pm"}],"vName":"Cactus Room"},"type":"Feature"},{"geometry":{"coordinates":[144.9785611,-37.7965465],"type":"Point"},"properties":{"events":[{"categories":["Free","Other \"Food \""],"eDate":"2025-12-12","eName":"FREE Wine Tasting with Tampopo","genre":null,"price":"Free","supports":[],"ticketUrl":null,"time":" 4pm"},{"categories":["Music"],"eDate":"2025-12-12","eName":"Gabe Bondoc","genre":"Acoustic","price":"$75.00","supports":[],"ticketUrl":null,"time":" 8pm"}],"vName":"Evelyn Hotel"},"type":"Feature"},{"geometry":{"coordinates":[144.9875792,-37.7963739],"type":"Point"},"properties":{"events":[{"categories":["Music"],"eDate":"2025-12-12","eName":"Cherry Bomb Featuring Liqiud Zoo","genre":"Rock","price":"$18.10","supports":["Handgrenade Hearts"," Fiasco"],"ticketUrl":null,"time":" 8pm"}],"vName":"Gem Bar"},"type":"Feature"},{"geometry":{"coordinates":[144.973013,-37.8640582],"type":"Point"},"properties":{"events":[{"categories":["Music"],"eDate":"2025-12-12","eName":"VOXNEON","genre":"Rock","price":"$39.00","supports":[],"ticketUrl":null,"time":" 7pm"}],"vName":"Hotel Esplanade (aka The Espy)"},"type":"Feature"},{"geometry":{"coordinates":[144.9596527,-37.7720304],"type":"Point"},"properties":{"events":[{"categories":["Music"],"eDate":"2025-12-12","eName":"Mondo Freaks","genre":"Soul/Funk","price":"$36.72","supports":[],"ticketUrl":null,"time":" 8pm"}],"vName":"Howler"},"type":"Feature"},{"geometry":{"coordinates":[144.9790251,-37.8675008],"type":"Point"},"properties":{"events":[{"categories":["Music"],"eDate":"2025-12-12","eName":"Checkerboard Lounge + Opelousas","genre":"Blues","price":"$30.00 - 55.00","supports":[],"ticketUrl":null,"time":" 7pm"}],"vName":"Memo Music Hall"},"type":"Feature"},{"geometry":{"coordinates":[144.9712356,-37.812902],"type":"Point"},"properties":{"events":[{"categories":["Comedy"],"eDate":"2025-12-12","eName":"Jokes In Progress","genre":null,"price":"$15.00","supports":[],"ticketUrl":null,"time":" 6:15pm"}],"vName":"Morris House"},"type":"Feature"},{"geometry":{"coordinates":[144.9833121,-37.8062477],"type":"Point"},"properties":{"events":[{"categories":["Music"],"eDate":"2025-12-12","eName":"Hyde Park Hi-Fi","genre":"Electronic","price":"$15.00","supports":[],"ticketUrl":null,"time":"10pm"},{"categories":["Music","Other \"Wrestling\""],"eDate":"2025-12-12","eName":"Rumble Queer Party! With Jelly Wrestling Tournament","genre":"Electronic","price":"$15.00","supports":["Orion Stone"," Gia Saphique"],"ticketUrl":null,"time":"10pm"},{"categories":["Free","Music"],"eDate":"2025-12-12","eName":"A Rave Night by Future Phase","genre":"Electronic","price":"$13.50","supports":[],"ticketUrl":null,"time":"10pm"}],"vName":"New Guernica"},"type":"Feature"},{"geometry":{"coordinates":[144.9982706,-37.7737068],"type":"Point"},"properties":{"events":[{"categories":["Music"],"eDate":"2025-12-12","eName":"Dying Fetus","genre":"Metal","price":"$88.94","supports":["200 Stab Wounds"," Ashen"],"ticketUrl":null,"time":" 7:30pm"}],"vName":"Northcote Theatre"},"type":"Feature"},{"geometry":{"coordinates":[144.97711,-37.79833],"type":"Point"},"properties":{"events":[{"categories":["Music"],"eDate":"2025-12-12","eName":"Book Runner","genre":"Rock","price":"$11.25","supports":["Amsterdamage"," Benni Hedgers"],"ticketUrl":null,"time":" 8pm"}],"vName":"Old Bar"},"type":"Feature"},{"geometry":{"coordinates":[144.965405,-37.8117457],"type":"Point"},"properties":{"events":[{"categories":["Music"],"eDate":"2025-12-12","eName":"Soju Gang & Friends","genre":"Electronic","price":"Free","supports":[],"ticketUrl":null,"time":" 6pm"}],"vName":"Section 8"},"type":"Feature"},{"geometry":{"coordinates":[144.9770425,-37.8588717],"type":"Point"},"properties":{"events":[{"categories":["Music"],"eDate":"2025-12-12","eName":"MD Duo","genre":"Indie","price":"Free","supports":["DJ Boujie Koala"],"ticketUrl":null,"time":" 9pm"}],"vName":"The Fifth Province"},"type":"Feature"},{"geometry":{"coordinates":[144.9840598,-37.7827901],"type":"Point"},"properties":{"events":[{"categories":["Music"],"eDate":"2025-12-12","eName":"celltowers","genre":"Rock","price":"$15.00","supports":["Turge"," Fake Stanley"," The 1980s"],"ticketUrl":null,"time":" 8pm"}],"vName":"The Fitzroy Pinnacle"},"type":"Feature"},{"geometry":{"coordinates":[144.9794553,-37.7982653],"type":"Point"},"properties":{"events":[{"categories":["Music"],"eDate":"2025-12-12","eName":"Bumpy","genre":"Soul/Funk","price":"$34.59","supports":[],"ticketUrl":null,"time":" 8pm"}],"vName":"The Night Cat"},"type":"Feature"},{"geometry":{"coordinates":[144.9651425,-37.8119429],"type":"Point"},"properties":{"events":[{"categories":["Music"],"eDate":"2025-12-12","eName":"TRIBE: 12.12.2025","genre":"Electronic","price":"$28.56 - 38.76","supports":[],"ticketUrl":null,"time":"11pm"}],"vName":"The Toff In Town"},"type":"Feature"},{"geometry":{"coordinates":[144.9984324,-37.7729134],"type":"Point"},"properties":{"events":[{"categories":["Music"],"eDate":"2025-12-12","eName":"Wave Jazz Trio","genre":"Jazz","price":"Free","supports":[],"ticketUrl":null,"time":" 6pm"}],"vName":"Wesley Anne"},"type":"Feature"},{"geometry":{"coordinates":[144.9618781,-37.8126316],"type":"Point"},"properties":{"events":[{"categories":["Free","Music"],"eDate":"2025-12-12","eName":"Smokey Bubblin’ B","genre":"Electronic","price":"Free","supports":["Naliita"," Tuff Trax"," Coldpast"],"ticketUrl":null,"time":"12pm"}],"vName":"Whitehart Bar"},"type":"Feature"}],"type":"FeatureCollection"}