{"features":[{"geometry":{"coordinates":[144.9763781,-37.7983136],"type":"Point"},"properties":{"events":[{"categories":["Music"],"eDate":"2024-05-23","eName":"Battle Of The Bands: Heat 4","genre":"Rock","price":"$11.36","supports":[],"ticketUrl":null,"time":" 8pm"}],"vName":"Bad Decisions Bar"},"type":"Feature"},{"geometry":{"coordinates":[144.9607158,-37.776327],"type":"Point"},"properties":{"events":[{"categories":["Music"],"eDate":"2024-05-23","eName":"Motionblur.","genre":"Rock","price":"$15.85","supports":["Dead Ed"," Unspoken Rule"],"ticketUrl":null,"time":" 7pm"}],"vName":"Bergy Bandroom"},"type":"Feature"},{"geometry":{"coordinates":[144.9945274,-37.8001115],"type":"Point"},"properties":{"events":[{"categories":["Free","Music","Other \"Food & Drink\""],"eDate":"2024-05-23","eName":"Uncomfortable Science + Tell Mama","genre":null,"price":"Free","supports":[],"ticketUrl":null,"time":" 6:30pm"}],"vName":"Bodriggy Brewing Company"},"type":"Feature"},{"geometry":{"coordinates":[144.9617018,-37.7704566],"type":"Point"},"properties":{"events":[{"categories":["Other \"Spoken Word\"","Other \"Poetry & Forums\""],"eDate":"2024-05-23","eName":"Thin Red Lines","genre":null,"price":"$18.97","supports":[],"ticketUrl":null,"time":" 7pm"}],"vName":"Brunswick Artists' Bar"},"type":"Feature"},{"geometry":{"coordinates":[144.9617018,-37.7704566],"type":"Point"},"properties":{"events":[{"categories":["Music","Comedy","Other \"Spoken Word\"","Other \"Poetry & Forums\""],"eDate":"2024-05-23","eName":"Ben Lee & Ione Skye's Weirder Together","genre":"Indie","price":"$35.00","supports":["Screen Saver"],"ticketUrl":null,"time":" 8pm"}],"vName":"Brunswick Ballroom"},"type":"Feature"},{"geometry":{"coordinates":[144.99266639479475,-37.82488935],"type":"Point"},"properties":{"events":[{"categories":["Comedy","Other \"Spoken Word\"","Other \"Poetry & Forums\""],"eDate":"2024-05-23","eName":"The Past Times Podcast","genre":null,"price":"$40.00","supports":[],"ticketUrl":null,"time":" 7pm"}],"vName":"Corner Hotel"},"type":"Feature"},{"geometry":{"coordinates":[144.9875917,-37.7963837],"type":"Point"},"properties":{"events":[{"categories":["Free","Music"],"eDate":"2024-05-23","eName":"Freya Josephine Hollick + Billy Charles","genre":"Country/Folk","price":"Free","supports":[],"ticketUrl":null,"time":" 8pm"}],"vName":"Gem Bar"},"type":"Feature"},{"geometry":{"coordinates":[144.959768,-37.831777],"type":"Point"},"properties":{"events":[{"categories":["Music"],"eDate":"2024-05-23","eName":"Anastasia Aspeling + John Montesante Quintet","genre":"Jazz","price":"$18.00","supports":[],"ticketUrl":null,"time":" 7pm"}],"vName":"Golden Gate Hotel"},"type":"Feature"},{"geometry":{"coordinates":[144.97711,-37.79833],"type":"Point"},"properties":{"events":[{"categories":["Free","Music"],"eDate":"2024-05-23","eName":"Killing Leaders","genre":"Punk","price":"Free","supports":["Baz Ravish"," SMiLA"],"ticketUrl":null,"time":" 7:30pm"}],"vName":"Old Bar"},"type":"Feature"},{"geometry":{"coordinates":[144.97609011199125,-37.867583041643705],"type":"Point"},"properties":{"events":[{"categories":["Music"],"eDate":"2024-05-23","eName":"Forever Young: The Songs of Bob Dylan","genre":"Rock","price":"$89.90","supports":["Adalita"," Shane Howard"," Brian Nankervis"],"ticketUrl":null,"time":" 8pm"}],"vName":"Palais Theatre"},"type":"Feature"},{"geometry":{"coordinates":[144.9605705,-37.8132486],"type":"Point"},"properties":{"events":[{"categories":["Music"],"eDate":"2024-05-23","eName":"King Blakey: The Jazz Messengers","genre":"Jazz","price":"$45.00","supports":[],"ticketUrl":null,"time":" 7:30pm"}],"vName":"Paris Cat Jazz Club"},"type":"Feature"},{"geometry":{"coordinates":[144.9615882,-37.7711432],"type":"Point"},"properties":{"events":[{"categories":["Music"],"eDate":"2024-05-23","eName":"Carb on Carb","genre":null,"price":"$12.00 - 20.00","supports":["Gil Cerrone"," Sylvia"],"ticketUrl":null,"time":" 7:30pm"}],"vName":"Retreat Hotel"},"type":"Feature"},{"geometry":{"coordinates":[144.9631913,-37.7617818],"type":"Point"},"properties":{"events":[{"categories":["Free","Music"],"eDate":"2024-05-23","eName":"Inkrewsive EP Launch Party","genre":"Hip Hop","price":"Free","supports":[],"ticketUrl":null,"time":" 7pm"}],"vName":"Ringo Barr"},"type":"Feature"},{"geometry":{"coordinates":[144.9585654,-37.8059962],"type":"Point"},"properties":{"events":[{"categories":["Music"],"eDate":"2024-05-23","eName":"VILLAINS","genre":"Punk","price":"$11.25","supports":["Westall 66"," Bonespace"," New Collision"],"ticketUrl":null,"time":" 7:30pm"}],"vName":"The Last Chance Rock & Roll Bar"},"type":"Feature"},{"geometry":{"coordinates":[144.9968036,-37.7794807],"type":"Point"},"properties":{"events":[{"categories":["Music"],"eDate":"2024-05-23","eName":"Vital Sparks","genre":"Indie","price":"$10.00","supports":["Malibu Spacey"],"ticketUrl":null,"time":" 8pm"}],"vName":"The Merri Creek Tavern"},"type":"Feature"},{"geometry":{"coordinates":[144.9651425,-37.8119429],"type":"Point"},"properties":{"events":[{"categories":["Free","Music"],"eDate":"2024-05-23","eName":"Jazz & Jaffles","genre":"Jazz","price":"Free","supports":[],"ticketUrl":null,"time":" 7pm"}],"vName":"The Toff In Town"},"type":"Feature"},{"geometry":{"coordinates":[144.9985126,-37.7588241],"type":"Point"},"properties":{"events":[{"categories":["Free","Music"],"eDate":"2024-05-23","eName":"Hume Blues Club","genre":"Blues","price":"Free","supports":["Shake Shack Jammers"],"ticketUrl":null,"time":" 6pm"},{"categories":["Free","Music"],"eDate":"2024-05-23","eName":"Hume Blues Club","genre":"Blues","price":"Free","supports":["Shake Shack Jammers"],"ticketUrl":null,"time":" 6pm"}],"vName":"Thornbury Bowls Club"},"type":"Feature"}],"type":"FeatureCollection"}