{"features":[{"geometry":{"coordinates":[144.9679369,-37.8120109],"type":"Point"},"properties":{"events":[{"categories":["Music"],"eDate":"2024-12-13","eName":"Glitterbox Melbourne 2024","genre":"Electronic","price":"$64.36 - 102.00","supports":["more"],"ticketUrl":null,"time":" 9pm"}],"vName":"170 Russell"},"type":"Feature"},{"geometry":{"coordinates":[144.978425,-37.79773],"type":"Point"},"properties":{"events":[{"categories":["Free","Music"],"eDate":"2024-12-13","eName":"Three Base Hit","genre":"Jazz","price":"Free","supports":[],"ticketUrl":null,"time":" 6:30pm"}],"vName":"Bar Open"},"type":"Feature"},{"geometry":{"coordinates":[144.978682,-37.7981225],"type":"Point"},"properties":{"events":[{"categories":["Free","Music"],"eDate":"2024-12-13","eName":"Lewis C","genre":null,"price":"Free","supports":[],"ticketUrl":null,"time":" 9pm"},{"categories":["Music"],"eDate":"2024-12-13","eName":"DJ Gerry Murphy","genre":"Electronic","price":"Free","supports":[],"ticketUrl":null,"time":"10pm"}],"vName":"Baxter's Lot"},"type":"Feature"},{"geometry":{"coordinates":[144.98911674151407,-37.79964875],"type":"Point"},"properties":{"events":[{"categories":["Music"],"eDate":"2024-12-13","eName":"AWOL","genre":"Metal","price":"$28.05","supports":["Outsiders Code"," Dizdain"," Tarnished"],"ticketUrl":null,"time":" 8:30pm"}],"vName":"Bendigo Hotel"},"type":"Feature"},{"geometry":{"coordinates":[144.9567859,-37.8111049],"type":"Point"},"properties":{"events":[{"categories":["Music"],"eDate":"2024-12-13","eName":"Yacht Rock Revival","genre":"Soul/Funk","price":"$50.00","supports":[],"ticketUrl":null,"time":" 6pm"}],"vName":"Bird's Basement"},"type":"Feature"},{"geometry":{"coordinates":[144.9617018,-37.7704566],"type":"Point"},"properties":{"events":[{"categories":["Dance"],"eDate":"2024-12-13","eName":"Maison Burlesque: Unwrapped","genre":null,"price":"$59.77","supports":["Cora Noire"," Bella De Jac"," Domino de Jour"," Egson Ham"," Iva Grande"," Ivana Showoff"," Joanna Belly Dance"," Juniper Fox"," Maple Rose"," Ruby Slippers"," Valerie \"VaVa\" Valentine"," Velma Vouloir"," Whisky Falls"," Winter Greene"],"ticketUrl":null,"time":" 6:30pm"}],"vName":"Brunswick Ballroom"},"type":"Feature"},{"geometry":{"coordinates":[145.00041662186553,-37.76125825],"type":"Point"},"properties":{"events":[{"categories":["Music"],"eDate":"2024-12-13","eName":"Spooky Friday","genre":"Indie","price":"$22.00","supports":["Penny Ikinger's Marbles"," Esse & Nilstock"],"ticketUrl":null,"time":" 8pm"}],"vName":"Cactus Room"},"type":"Feature"},{"geometry":{"coordinates":[144.9713425,-37.8128595],"type":"Point"},"properties":{"events":[{"categories":["Music"],"eDate":"2024-12-13","eName":"Acoustikiss: Final Show","genre":"Acoustic","price":"$27.70","supports":[],"ticketUrl":null,"time":" 8pm"}],"vName":"Cherry Bar"},"type":"Feature"},{"geometry":{"coordinates":[144.99266639479475,-37.82488935],"type":"Point"},"properties":{"events":[{"categories":["Music"],"eDate":"2024-12-13","eName":"TEK TEK","genre":"Rock","price":"$40.40","supports":["Sugar Fed Leopards"," Don't Thank Me"," Spank Me"],"ticketUrl":null,"time":" 8:30pm"}],"vName":"Corner Hotel"},"type":"Feature"},{"geometry":{"coordinates":[144.950359,-37.8100202],"type":"Point"},"properties":{"events":[{"categories":["Music","Other \"Cabaret\""],"eDate":"2024-12-13","eName":"Kandy Carnival","genre":"Electronic","price":"$152.81 - 163.01","supports":[],"ticketUrl":null,"time":" 6pm"}],"vName":"Festival Hall"},"type":"Feature"},{"geometry":{"coordinates":[144.9875917,-37.7963837],"type":"Point"},"properties":{"events":[{"categories":["Free","Music"],"eDate":"2024-12-13","eName":"Honky Tonk Town: A Country & Western Dance Party - Christmas Special","genre":"Country/Folk","price":"Free","supports":[],"ticketUrl":null,"time":" 8pm"},{"categories":["Music"],"eDate":"2024-12-13","eName":"Honky Tonk Town #11","genre":"Country/Folk","price":"Free","supports":[],"ticketUrl":null,"time":" 8pm"}],"vName":"Gem Bar"},"type":"Feature"},{"geometry":{"coordinates":[144.9787445,-37.7967357],"type":"Point"},"properties":{"events":[{"categories":["Music"],"eDate":"2024-12-13","eName":"Interval x Transition x TNT: Entasia + Pat De Ruiter","genre":"Electronic","price":"$15.00 - 25.00","supports":[],"ticketUrl":null,"time":"10pm"}],"vName":"Glamorama"},"type":"Feature"},{"geometry":{"coordinates":[144.9679835243618,-37.8201575],"type":"Point"},"properties":{"events":[{"categories":["Comedy"],"eDate":"2024-12-13","eName":"The War on 2024 Annual Comedy Gala","genre":null,"price":"$39.00 - 79.00","supports":[],"ticketUrl":null,"time":" 7:30pm"}],"vName":"Hamer Hall (Arts Centre Melbourne)"},"type":"Feature"},{"geometry":{"coordinates":[145.03588565533943,-37.8230335],"type":"Point"},"properties":{"events":[{"categories":["Music","Other \"Cabaret\""],"eDate":"2024-12-13","eName":"The Jack Earle Big Band: Christmas Spectacle!","genre":null,"price":"$34.00 - 42.00","supports":[],"ticketUrl":null,"time":" 8pm"}],"vName":"Hawthorn Arts Centre"},"type":"Feature"},{"geometry":{"coordinates":[144.973013,-37.8640582],"type":"Point"},"properties":{"events":[{"categories":["Music"],"eDate":"2024-12-13","eName":"Jaded State","genre":"Rock","price":"$10.00","supports":["Seven Pound Halo"," Astral High"],"ticketUrl":null,"time":"12pm"},{"categories":["Music"],"eDate":"2024-12-13","eName":"Bars & Melody","genre":"R&B","price":"$49.50","supports":[],"ticketUrl":null,"time":" 7pm"}],"vName":"Hotel Esplanade (aka The Espy)"},"type":"Feature"},{"geometry":{"coordinates":[144.9596527,-37.7720304],"type":"Point"},"properties":{"events":[{"categories":["Music"],"eDate":"2024-12-13","eName":"Civic","genre":"Punk","price":"$33.66","supports":["Wet Kiss"," Frenzee"," Bitumen"],"ticketUrl":null,"time":" 8pm"}],"vName":"Howler"},"type":"Feature"},{"geometry":{"coordinates":[144.8971518,-37.8054274],"type":"Point"},"properties":{"events":[{"categories":["Music"],"eDate":"2024-12-13","eName":"Trip to Paris","genre":null,"price":"$15.00 - 20.00","supports":["GetJaxxed"," Grevillea"],"ticketUrl":null,"time":" 7:30pm"}],"vName":"Mamma Chen's"},"type":"Feature"},{"geometry":{"coordinates":[144.9659879,-37.8147557],"type":"Point"},"properties":{"events":[{"categories":["Music"],"eDate":"2024-12-13","eName":"Batushka: Final Show Ever","genre":"Metal","price":"$81.10","supports":[],"ticketUrl":null,"time":" 7:30pm"}],"vName":"Max Watt's (Melbourne)"},"type":"Feature"},{"geometry":{"coordinates":[144.9786817,-37.8671902],"type":"Point"},"properties":{"events":[{"categories":["Music"],"eDate":"2024-12-13","eName":"The Sharp: 31st Anniversary of “This Is The Sharp”","genre":"Rock","price":"$30.00 - 50.00","supports":[],"ticketUrl":null,"time":" 7pm"}],"vName":"Memo Music Hall"},"type":"Feature"},{"geometry":{"coordinates":[144.9712356,-37.812902],"type":"Point"},"properties":{"events":[{"categories":["Comedy"],"eDate":"2024-12-13","eName":"Basement Comedy Club","genre":null,"price":"$24.00","supports":["more"],"ticketUrl":null,"time":" 8pm"}],"vName":"Morris House"},"type":"Feature"},{"geometry":{"coordinates":[144.9988348,-37.8525949],"type":"Point"},"properties":{"events":[{"categories":["Music"],"eDate":"2024-12-13","eName":"DéSaint + Greg Sara","genre":"Electronic","price":"$15.00","supports":["Danni B"," Amber Ferraro"," Jay Ramon"," Adam Trace"," Benny S"],"ticketUrl":null,"time":" 9pm"}],"vName":"OneSixOne"},"type":"Feature"},{"geometry":{"coordinates":[144.9981771,-37.7742773],"type":"Point"},"properties":{"events":[{"categories":["Music"],"eDate":"2024-12-13","eName":"Tania Bosak & Friends","genre":"Jazz","price":"$22.00","supports":["Jon Hunt"," Sam O'Halloran"],"ticketUrl":null,"time":" 7pm"}],"vName":"Open Studio"},"type":"Feature"},{"geometry":{"coordinates":[144.9605705,-37.8132486],"type":"Point"},"properties":{"events":[{"categories":["Music"],"eDate":"2024-12-13","eName":"Panorama Brasil featuring Dany Maia","genre":"Jazz","price":"$45.00","supports":[],"ticketUrl":null,"time":" 6pm"},{"categories":["Music"],"eDate":"2024-12-13","eName":"Jules Boult: New Orleans to the Mississippi","genre":"Jazz","price":"$45.00","supports":[],"ticketUrl":null,"time":" 6:30pm"},{"categories":["Music"],"eDate":"2024-12-13","eName":"Joys Njambi Presents: Queens of Soul","genre":"Soul/Funk","price":"$45.00","supports":[],"ticketUrl":null,"time":" 9pm"},{"categories":["Music"],"eDate":"2024-12-13","eName":"Sophisticated Lady Christmas Special: A Tribute to Jazz’s First Ladies of Song","genre":"Jazz","price":"$45.00","supports":[],"ticketUrl":null,"time":" 9:30pm"}],"vName":"Paris Cat Jazz Club"},"type":"Feature"},{"geometry":{"coordinates":[144.90239079583333,-37.79990865],"type":"Point"},"properties":{"events":[{"categories":["Music","Other \"Cabaret\""],"eDate":"2024-12-13","eName":"Aubrey Haive Yourself A Merry Christmas","genre":"Jazz","price":"$22.00","supports":[],"ticketUrl":null,"time":" 7:30pm"}],"vName":"Pride Of Our Footscray Community Bar"},"type":"Feature"},{"geometry":{"coordinates":[144.9615882,-37.7711432],"type":"Point"},"properties":{"events":[{"categories":["Music"],"eDate":"2024-12-13","eName":"The Bands Explode: Bigger Boot","genre":"Rock","price":"$20.00","supports":["Mondo Cane"," Shirkher"],"ticketUrl":null,"time":" 7:30pm"}],"vName":"Retreat Hotel"},"type":"Feature"},{"geometry":{"coordinates":[144.9631913,-37.7617818],"type":"Point"},"properties":{"events":[{"categories":["Free","Music"],"eDate":"2024-12-13","eName":"Ringo’s Open Decks","genre":null,"price":"Free","supports":[],"ticketUrl":null,"time":" 7pm"}],"vName":"Ringo Barr"},"type":"Feature"},{"geometry":{"coordinates":[145.35345070507591,-37.9100746],"type":"Point"},"properties":{"events":[{"categories":["Music"],"eDate":"2024-12-13","eName":"Loonee Tunes","genre":"Punk","price":"$36.75","supports":["Middle Age Fanclub"],"ticketUrl":null,"time":" 7pm"}],"vName":"Sooki Lounge"},"type":"Feature"},{"geometry":{"coordinates":[144.9657057,-37.8061581],"type":"Point"},"properties":{"events":[{"categories":["Music"],"eDate":"2024-12-13","eName":"Think About You","genre":"Indie","price":"$17.75","supports":["The Pinstripes"," ALP"," Alek Vult"],"ticketUrl":null,"time":" 8pm"}],"vName":"The Curtin"},"type":"Feature"},{"geometry":{"coordinates":[144.9555612,-37.8066759],"type":"Point"},"properties":{"events":[{"categories":["Music"],"eDate":"2024-12-13","eName":"Traditional Irish Music Session","genre":"Country/Folk","price":"Free","supports":[],"ticketUrl":null,"time":" 6pm"}],"vName":"The Drunken Poet"},"type":"Feature"},{"geometry":{"coordinates":[144.958676,-37.7669571],"type":"Point"},"properties":{"events":[{"categories":["Music"],"eDate":"2024-12-13","eName":"Lucy Clifford + Kennedy Snow","genre":"Jazz","price":"$35.00 - 40.00","supports":[],"ticketUrl":null,"time":" 8pm"}],"vName":"The Jazzlab"},"type":"Feature"},{"geometry":{"coordinates":[144.9968036,-37.7794807],"type":"Point"},"properties":{"events":[{"categories":["Music"],"eDate":"2024-12-13","eName":"Henn + Stella Dunai","genre":"Indie","price":"$10.75","supports":[],"ticketUrl":null,"time":" 8:30pm"}],"vName":"The Merri Creek Tavern"},"type":"Feature"},{"geometry":{"coordinates":[144.9708437,-37.7973184],"type":"Point"},"properties":{"events":[{"categories":["Music","Comedy"],"eDate":"2024-12-13","eName":"Mediocre","genre":"Pop","price":"$25.33","supports":[],"ticketUrl":null,"time":" 7:30pm"}],"vName":"The Motley Bauhaus"},"type":"Feature"},{"geometry":{"coordinates":[144.9830837,-37.7988316],"type":"Point"},"properties":{"events":[{"categories":["Music"],"eDate":"2024-12-13","eName":"Cumbia Clash","genre":"Soul/Funk","price":"$23.45 - 34.66","supports":[],"ticketUrl":null,"time":" 9pm"}],"vName":"The Night Cat"},"type":"Feature"},{"geometry":{"coordinates":[144.9830837,-37.7988316],"type":"Point"},"properties":{"events":[{"categories":["Music"],"eDate":"2024-12-13","eName":"Willem","genre":"Electronic","price":"$20.00","supports":[],"ticketUrl":null,"time":"11pm"},{"categories":["Music"],"eDate":"2024-12-13","eName":"Willem","genre":"Electronic","price":"$20.00","supports":[],"ticketUrl":null,"time":"11pm"}],"vName":"The Rochester"},"type":"Feature"},{"geometry":{"coordinates":[144.9651425,-37.8119429],"type":"Point"},"properties":{"events":[{"categories":["Free","Music"],"eDate":"2024-12-13","eName":"Hyper Toff","genre":"Pop","price":"Free","supports":[],"ticketUrl":null,"time":"11pm"}],"vName":"The Toff In Town"},"type":"Feature"},{"geometry":{"coordinates":[144.9846126,-37.7989941],"type":"Point"},"properties":{"events":[{"categories":["Music"],"eDate":"2024-12-13","eName":"Box Thorn","genre":"Rock","price":"$16.35","supports":["Coffins"," Lost Canoe"," Ymago"," Dirt Road Wave"],"ticketUrl":null,"time":" 8pm"}],"vName":"The Tote Hotel"},"type":"Feature"},{"geometry":{"coordinates":[144.9769450659087,-37.8055776],"type":"Point"},"properties":{"events":[{"categories":["Music"],"eDate":"2024-12-13","eName":"Dellacoma","genre":"Rock","price":"$17.85","supports":["Karly Jewell"," XCalibre"],"ticketUrl":null,"time":" 8pm"}],"vName":"The Workers Club"},"type":"Feature"},{"geometry":{"coordinates":[144.9618426,-37.8125531],"type":"Point"},"properties":{"events":[{"categories":["Free","Music"],"eDate":"2024-12-13","eName":"Fridays With Mike Gurrieri","genre":null,"price":"Free","supports":[],"ticketUrl":null,"time":" 4pm"}],"vName":"Whitehart Bar"},"type":"Feature"}],"type":"FeatureCollection"}