{"features":[{"geometry":{"coordinates":[144.99828116650363,-37.7713296],"type":"Point"},"properties":{"events":[{"categories":["Music"],"eDate":"2023-12-11","eName":"Monday JassHub","genre":"Jazz","price":"$5.00","supports":["Factory House Band"," more"],"ticketUrl":null,"time":" 6pm"}],"vName":"Bar 303"},"type":"Feature"},{"geometry":{"coordinates":[144.9617018,-37.7704566],"type":"Point"},"properties":{"events":[{"categories":["Music"],"eDate":"2023-12-11","eName":"Andy Irvine","genre":"Country/Folk","price":"$43.96","supports":[],"ticketUrl":null,"time":" 8pm"}],"vName":"Brunswick Ballroom"},"type":"Feature"},{"geometry":{"coordinates":[144.99266639479475,-37.82488935],"type":"Point"},"properties":{"events":[{"categories":["Other \"Spoken Word\"","Other \"Poetry & Forums\""],"eDate":"2023-12-11","eName":"The Final Word Live (Cricket Podcast)","genre":null,"price":"$35.30","supports":[],"ticketUrl":null,"time":" 7pm"}],"vName":"Corner Hotel"},"type":"Feature"},{"geometry":{"coordinates":[144.973013,-37.8640582],"type":"Point"},"properties":{"events":[{"categories":["Free","Comedy"],"eDate":"2023-12-11","eName":"Espy Comedy Club","genre":null,"price":"Free","supports":[],"ticketUrl":null,"time":" 7:30pm"}],"vName":"Hotel Esplanade (aka The Espy)"},"type":"Feature"},{"geometry":{"coordinates":[144.9712356,-37.812902],"type":"Point"},"properties":{"events":[{"categories":["Comedy"],"eDate":"2023-12-11","eName":"Basement Comedy Club Mondays","genre":null,"price":"$12.00","supports":[],"ticketUrl":null,"time":" 8:30pm"}],"vName":"Morris House"},"type":"Feature"},{"geometry":{"coordinates":[144.998414,-37.771471],"type":"Point"},"properties":{"events":[{"categories":["Free","Music"],"eDate":"2023-12-11","eName":"Social Sanctuary: Human Noise","genre":"Indie","price":"Free","supports":["Gush"," Hannie Day"],"ticketUrl":null,"time":" 7pm"}],"vName":"Northcote Social Club"},"type":"Feature"},{"geometry":{"coordinates":[144.965405,-37.8117457],"type":"Point"},"properties":{"events":[{"categories":["Free","Music"],"eDate":"2023-12-11","eName":"Playaz Club: Laneway Hoop Shootout","genre":"R&B","price":"Free","supports":[],"ticketUrl":null,"time":" 5:30pm"}],"vName":"Section 8"},"type":"Feature"}],"type":"FeatureCollection"}