{"features":[{"geometry":{"coordinates":[144.9679369,-37.8120109],"type":"Point"},"properties":{"events":[{"categories":["Music"],"eDate":"2025-07-17","eName":"Touché Amoré","genre":"Metal","price":"$74.90","supports":["Militarie Gun"],"ticketUrl":null,"time":" 6pm"}],"vName":"170 Russell"},"type":"Feature"},{"geometry":{"coordinates":[144.9982812,-37.7713296],"type":"Point"},"properties":{"events":[{"categories":["Music"],"eDate":"2025-07-17","eName":"Jan Wisniewski","genre":"Country/Folk","price":"Free","supports":["98 Camry"," Emma Shields"],"ticketUrl":null,"time":" 8pm"}],"vName":"Bar 303"},"type":"Feature"},{"geometry":{"coordinates":[144.978682,-37.7981225],"type":"Point"},"properties":{"events":[{"categories":["Free","Music"],"eDate":"2025-07-17","eName":"Harrisen Hughes","genre":null,"price":"Free","supports":[],"ticketUrl":null,"time":" 9pm"}],"vName":"Baxter's Lot"},"type":"Feature"},{"geometry":{"coordinates":[144.9891167,-37.7996488],"type":"Point"},"properties":{"events":[{"categories":["Music"],"eDate":"2025-07-17","eName":"Buck Wild Thursdays: Rosaries","genre":"Rock","price":"$10.00","supports":["Funkytown Fish"," The Clever References"],"ticketUrl":null,"time":" 7:30pm"}],"vName":"Bendigo Hotel"},"type":"Feature"},{"geometry":{"coordinates":[144.9568039,-37.8111442],"type":"Point"},"properties":{"events":[{"categories":["Music"],"eDate":"2025-07-17","eName":"Amadou Suso & Friends","genre":"Jazz","price":"$38.00","supports":[],"ticketUrl":null,"time":" 7:30pm"}],"vName":"Bird's Basement"},"type":"Feature"},{"geometry":{"coordinates":[144.9945274,-37.8001115],"type":"Point"},"properties":{"events":[{"categories":["Free","Music","Other \"Art \"","Other \"Food \""],"eDate":"2025-07-17","eName":"Mini Waters","genre":null,"price":"Free","supports":[],"ticketUrl":null,"time":" 7:30pm"}],"vName":"Bodriggy Brewing Company"},"type":"Feature"},{"geometry":{"coordinates":[144.959768,-37.831777],"type":"Point"},"properties":{"events":[{"categories":["Music"],"eDate":"2025-07-17","eName":"JMQ Jazz Ensemble’s Thursday Jazz","genre":"Jazz","price":"$20.00","supports":[],"ticketUrl":null,"time":" 6:30pm"},{"categories":["Music"],"eDate":"2025-07-17","eName":"Anastasia Aspeling + John Montesante Quintet","genre":"Jazz","price":"$20.00","supports":[],"ticketUrl":null,"time":" 6:30pm"}],"vName":"Golden Gate Hotel"},"type":"Feature"},{"geometry":{"coordinates":[144.9679835,-37.8201575],"type":"Point"},"properties":{"events":[{"categories":["Music"],"eDate":"2025-07-17","eName":"Journey to the Americas","genre":"Classical","price":"$51.00","supports":[],"ticketUrl":null,"time":" 7:30pm"}],"vName":"Hamer Hall (Arts Centre Melbourne)"},"type":"Feature"},{"geometry":{"coordinates":[144.973013,-37.8640582],"type":"Point"},"properties":{"events":[{"categories":["Free","Music"],"eDate":"2025-07-17","eName":"Gazal","genre":"Indie","price":"Free","supports":[],"ticketUrl":null,"time":" 7:30pm"}],"vName":"Hotel Esplanade (aka The Espy)"},"type":"Feature"},{"geometry":{"coordinates":[145.0314658,-37.8067273],"type":"Point"},"properties":{"events":[{"categories":["Music"],"eDate":"2025-07-17","eName":"Kew Court House Live: Ed Moon","genre":null,"price":"$20.00","supports":[],"ticketUrl":null,"time":" 7:30pm"}],"vName":"Kew Court House"},"type":"Feature"},{"geometry":{"coordinates":[144.998414,-37.771471],"type":"Point"},"properties":{"events":[{"categories":["Music"],"eDate":"2025-07-17","eName":"Famili Presents: Bloodfire","genre":"Hip Hop","price":"$20.00 - 35.30","supports":[],"ticketUrl":null,"time":" 8pm"}],"vName":"Northcote Social Club"},"type":"Feature"},{"geometry":{"coordinates":[144.97711,-37.79833],"type":"Point"},"properties":{"events":[{"categories":["Music"],"eDate":"2025-07-17","eName":"Good Music Night","genre":"Rock","price":"Free","supports":[],"ticketUrl":null,"time":" 7:30pm"}],"vName":"Old Bar"},"type":"Feature"},{"geometry":{"coordinates":[144.96084,-37.813514],"type":"Point"},"properties":{"events":[{"categories":["Music"],"eDate":"2025-07-17","eName":"Mare (Sister) with Rebecca Mendoza & Angela Librandi","genre":"Jazz","price":"$45.00","supports":[],"ticketUrl":null,"time":" 7:30pm"},{"categories":["Music"],"eDate":"2025-07-17","eName":"Pierre Jaquinot Quartet play The Music of The Great Art Farmer/Jim Hall Quartet","genre":"Jazz","price":"$45.00","supports":[],"ticketUrl":null,"time":" 8pm"}],"vName":"Paris Cat Jazz Club"},"type":"Feature"},{"geometry":{"coordinates":[144.965405,-37.8117457],"type":"Point"},"properties":{"events":[{"categories":["Music"],"eDate":"2025-07-17","eName":"100% Phat: Forth & Back","genre":null,"price":"Free","supports":[],"ticketUrl":null,"time":" 6pm"}],"vName":"Section 8"},"type":"Feature"},{"geometry":{"coordinates":[145.0013923,-37.7559265],"type":"Point"},"properties":{"events":[{"categories":["Music"],"eDate":"2025-07-17","eName":"ARIE ROSE","genre":"Metal","price":"$15.00","supports":["Veronica Greene"," Better Than Sex"],"ticketUrl":null,"time":" 7:30pm"}],"vName":"Shotkickers"},"type":"Feature"},{"geometry":{"coordinates":[144.9607404,-37.7743469],"type":"Point"},"properties":{"events":[{"categories":["Music"],"eDate":"2025-07-17","eName":"Bands N’ Fans & Floravera Bookings Residency Night 2","genre":"Rock","price":"$19.99","supports":[],"ticketUrl":null,"time":" 7pm"}],"vName":"Stay Gold"},"type":"Feature"},{"geometry":{"coordinates":[144.9708437,-37.7973184],"type":"Point"},"properties":{"events":[{"categories":["Free","Comedy"],"eDate":"2025-07-17","eName":"Script Jam","genre":null,"price":"Free","supports":[],"ticketUrl":null,"time":" 6:30pm"},{"categories":["Free","Music","Comedy"],"eDate":"2025-07-17","eName":"The ‘WHAM, BAM, THANK YOU’ Jam","genre":"Jazz","price":"Free","supports":[],"ticketUrl":null,"time":" 7:30pm"}],"vName":"The Motley Bauhaus"},"type":"Feature"},{"geometry":{"coordinates":[144.9651425,-37.8119429],"type":"Point"},"properties":{"events":[{"categories":["Free","Music"],"eDate":"2025-07-17","eName":"Toff Live Presents: Selenic + Stevie Jean","genre":"Electronic","price":"Free","supports":[],"ticketUrl":null,"time":" 8pm"}],"vName":"The Toff In Town"},"type":"Feature"},{"geometry":{"coordinates":[144.9984324,-37.7729134],"type":"Point"},"properties":{"events":[{"categories":["Music"],"eDate":"2025-07-17","eName":"Greta O’Leary","genre":"Country/Folk","price":"$17.35","supports":[],"ticketUrl":null,"time":" 8pm"}],"vName":"Wesley Anne"},"type":"Feature"}],"type":"FeatureCollection"}