{"features":[{"geometry":{"coordinates":[144.978425,-37.79773],"type":"Point"},"properties":{"events":[{"categories":["Music"],"eDate":"2025-09-04","eName":"‘Shiver’ Single Launch: Thom Johnston & April","genre":null,"price":"$22.50","supports":["Gardiner"," Star Jock"],"ticketUrl":null,"time":" 8pm"}],"vName":"Bar Open"},"type":"Feature"},{"geometry":{"coordinates":[144.9628753,-37.7618155],"type":"Point"},"properties":{"events":[{"categories":["Music"],"eDate":"2025-09-04","eName":"Wybie","genre":"Indie","price":"$15.00","supports":["Ruby Milner"],"ticketUrl":null,"time":" 8:30pm"}],"vName":"Bar Oussou"},"type":"Feature"},{"geometry":{"coordinates":[144.978682,-37.7981225],"type":"Point"},"properties":{"events":[{"categories":["Music","Free"],"eDate":"2025-09-04","eName":"Jack Milligan","genre":null,"price":"Free","supports":[],"ticketUrl":null,"time":" 9pm"}],"vName":"Baxter's Lot"},"type":"Feature"},{"geometry":{"coordinates":[144.9945274,-37.8001115],"type":"Point"},"properties":{"events":[{"categories":["Other \"Food \"","Free","Music"],"eDate":"2025-09-04","eName":"Hasta Pronto!: C69","genre":null,"price":"Free","supports":[],"ticketUrl":null,"time":" 7pm"},{"categories":["Comedy","Other \"Food \""],"eDate":"2025-09-04","eName":"On The Gags Weekly Comedy Night","genre":null,"price":"$22.00","supports":[],"ticketUrl":null,"time":" 7:30pm"}],"vName":"Bodriggy Brewing Company"},"type":"Feature"},{"geometry":{"coordinates":[144.9980448484126,-37.74553004870929],"type":"Point"},"properties":{"events":[{"categories":["Music"],"eDate":"2025-09-04","eName":"Rock-A-Bye Baby with Wrong Way Up","genre":null,"price":"$10.00","supports":[],"ticketUrl":null,"time":"11am"}],"vName":"Darebin Arts & Entertainment Centre"},"type":"Feature"},{"geometry":{"coordinates":[144.9777885,-37.8597831],"type":"Point"},"properties":{"events":[{"categories":["Music"],"eDate":"2025-09-04","eName":"Jamie MacDowell","genre":"Acoustic","price":"Free","supports":[],"ticketUrl":null,"time":" 7pm"}],"vName":"Freddie Wimpoles"},"type":"Feature"},{"geometry":{"coordinates":[144.9675876,-37.8240849],"type":"Point"},"properties":{"events":[{"categories":["Music"],"eDate":"2025-09-04","eName":"Iaki Vallejo – Relaxed Performance (Early Session)","genre":null,"price":"$10.00","supports":[],"ticketUrl":null,"time":"10:30am"},{"categories":["Music"],"eDate":"2025-09-04","eName":"Iaki Vallejo – Relaxed Performance","genre":null,"price":"$10.00","supports":[],"ticketUrl":null,"time":"12pm"}],"vName":"Melbourne Recital Centre"},"type":"Feature"},{"geometry":{"coordinates":[144.965405,-37.8117457],"type":"Point"},"properties":{"events":[{"categories":["Free","Music"],"eDate":"2025-09-04","eName":"Bubble","genre":"Electronic","price":"Free","supports":[],"ticketUrl":null,"time":" 6pm"}],"vName":"Section 8"},"type":"Feature"},{"geometry":{"coordinates":[144.9706211,-37.778276],"type":"Point"},"properties":{"events":[{"categories":["Other \"Trivia \"","Other \"Cabaret\""],"eDate":"2025-09-04","eName":"Drag Bingo","genre":null,"price":"Free","supports":[],"ticketUrl":null,"time":" 8pm"}],"vName":"The Beast"},"type":"Feature"},{"geometry":{"coordinates":[144.9770425,-37.8588717],"type":"Point"},"properties":{"events":[{"categories":["Music"],"eDate":"2025-09-04","eName":"Dan & Cyril","genre":"Acoustic","price":"Free","supports":[],"ticketUrl":null,"time":" 8pm"}],"vName":"The Fifth Province"},"type":"Feature"},{"geometry":{"coordinates":[144.9870814,-37.799406],"type":"Point"},"properties":{"events":[{"categories":["Music"],"eDate":"2025-09-04","eName":"Maddy Jane","genre":"Indie","price":"$29.90","supports":[],"ticketUrl":null,"time":" 7pm"}],"vName":"The Tote Hotel"},"type":"Feature"}],"type":"FeatureCollection"}