{"features":[{"geometry":{"coordinates":[144.9982614,-37.7691418],"type":"Point"},"properties":{"events":[{"categories":["Music"],"eDate":"2026-03-20","eName":"Concordia Presents","genre":"Electronic","price":"$21.95 - 32.90","supports":["Yabai Hifi"," Nicholas Marriot"],"ticketUrl":null,"time":" 8pm"}],"vName":"24 Moons"},"type":"Feature"},{"geometry":{"coordinates":[144.9784379,-37.7975956],"type":"Point"},"properties":{"events":[{"categories":["Music"],"eDate":"2026-03-20","eName":"Hybernators","genre":"Rock","price":"$15.00 - 20.00","supports":["The Earthquakes"," Gold Coast Leathers"],"ticketUrl":null,"time":" 8pm"}],"vName":"Creatures of Habit Bar & Bandroom"},"type":"Feature"},{"geometry":{"coordinates":[144.9627513,-37.760963],"type":"Point"},"properties":{"events":[{"categories":["Free","Music"],"eDate":"2026-03-20","eName":"Suzie So Blue","genre":"Blues","price":"Free","supports":[],"ticketUrl":null,"time":" 8pm"}],"vName":"Edinburgh Castle Hotel"},"type":"Feature"},{"geometry":{"coordinates":[144.9571785,-37.8188809],"type":"Point"},"properties":{"events":[{"categories":["Music"],"eDate":"2026-03-20","eName":"Carnival Ov Carnage","genre":"Electronic","price":"$25.00 - 35.00","supports":["Rock Bottom"," Chenas"," DJ Hellraiser"," Doc Ross"," Mixc"],"ticketUrl":null,"time":"10pm"}],"vName":"Inflation Entertainment Complex"},"type":"Feature"},{"geometry":{"coordinates":[144.8975289,-37.8022392],"type":"Point"},"properties":{"events":[{"categories":["Music"],"eDate":"2026-03-20","eName":"Palien + Tommy Moom$: ‘VERCETTI’ Album Launch","genre":null,"price":"Free","supports":["A.V.I"," Protege"," DJ Wasteman"],"ticketUrl":null,"time":" 7:30pm"}],"vName":"Mamma Chen's"},"type":"Feature"},{"geometry":{"coordinates":[144.9675876,-37.8240849],"type":"Point"},"properties":{"events":[{"categories":["Music"],"eDate":"2026-03-20","eName":"What Was Left Reimagined: Clare Bowditch","genre":"Indie","price":"$65.00","supports":[],"ticketUrl":null,"time":" 7:30pm"}],"vName":"Melbourne Recital Centre"},"type":"Feature"},{"geometry":{"coordinates":[144.97609011199125,-37.867583041643705],"type":"Point"},"properties":{"events":[{"categories":["Other \"Spoken Word, Poetry \""],"eDate":"2026-03-20","eName":"Chris Williamson: Mostly Wise Tour","genre":null,"price":"$124.90","supports":[],"ticketUrl":null,"time":" 7pm"}],"vName":"Palais Theatre"},"type":"Feature"},{"geometry":{"coordinates":[144.9708437,-37.7973184],"type":"Point"},"properties":{"events":[{"categories":["Comedy"],"eDate":"2026-03-20","eName":"Who Is The Asshole?","genre":null,"price":"$32.92","supports":[],"ticketUrl":null,"time":" 7pm"}],"vName":"The Motley Bauhaus"},"type":"Feature"},{"geometry":{"coordinates":[144.9794553,-37.7982653],"type":"Point"},"properties":{"events":[{"categories":["Music"],"eDate":"2026-03-20","eName":"Gyroscope","genre":"Rock","price":"$54.98","supports":[],"ticketUrl":null,"time":" 7:30pm"}],"vName":"The Night Cat"},"type":"Feature"},{"geometry":{"coordinates":[144.9870814,-37.799406],"type":"Point"},"properties":{"events":[{"categories":["Music"],"eDate":"2026-03-20","eName":"Institute","genre":"Punk","price":"$35.00 - 45.00","supports":["Rapid Dye"," Station Model Violence"," MK Naomi"," Body Maintenance"],"ticketUrl":null,"time":" 7pm"}],"vName":"The Tote Hotel"},"type":"Feature"},{"geometry":{"coordinates":[144.9769451,-37.8055776],"type":"Point"},"properties":{"events":[{"categories":["Music"],"eDate":"2026-03-20","eName":"XLC PRESENTS… The Humane Method","genre":"Rock","price":"$15.00","supports":["Sydney Water"," DJ Dos"," Westall 66"],"ticketUrl":null,"time":" 8pm"}],"vName":"The Workers Club"},"type":"Feature"},{"geometry":{"coordinates":[144.9984324,-37.7729134],"type":"Point"},"properties":{"events":[{"categories":["Music"],"eDate":"2026-03-20","eName":"Rowan Pattison Trio","genre":"Jazz","price":"Free","supports":[],"ticketUrl":null,"time":" 6pm"},{"categories":["Music"],"eDate":"2026-03-20","eName":"FJ Steele","genre":"Acoustic","price":"$23.20","supports":[],"ticketUrl":null,"time":" 8pm"}],"vName":"Wesley Anne"},"type":"Feature"}],"type":"FeatureCollection"}