{"features":[{"geometry":{"coordinates":[144.99828116650363,-37.7713296],"type":"Point"},"properties":{"events":[{"categories":["Music"],"eDate":"2025-03-20","eName":"CRXSH + Billie & Matthew","genre":null,"price":"$20.00","supports":[],"ticketUrl":null,"time":" 8pm"}],"vName":"Bar 303"},"type":"Feature"},{"geometry":{"coordinates":[144.978425,-37.79773],"type":"Point"},"properties":{"events":[{"categories":["Free","Music"],"eDate":"2025-03-20","eName":"The Sweet Souls","genre":"Soul/Funk","price":"Free","supports":[],"ticketUrl":null,"time":" 6:30pm"},{"categories":["Music"],"eDate":"2025-03-20","eName":"Michael’s Cane","genre":"Indie","price":"$15.00","supports":["Midnight Violet"," Bird Girl"],"ticketUrl":null,"time":" 8pm"}],"vName":"Bar Open"},"type":"Feature"},{"geometry":{"coordinates":[144.9607158,-37.776327],"type":"Point"},"properties":{"events":[{"categories":["Music"],"eDate":"2025-03-20","eName":"Noah Tate","genre":"Indie","price":"$16.85","supports":["Vulpix"," No Questions"],"ticketUrl":null,"time":" 7:30pm"}],"vName":"Bergy Bandroom"},"type":"Feature"},{"geometry":{"coordinates":[144.9567859,-37.8111049],"type":"Point"},"properties":{"events":[{"categories":["Music"],"eDate":"2025-03-20","eName":"Rai Thistlethwayte","genre":"Acoustic","price":"$35.00","supports":[],"ticketUrl":null,"time":" 6pm"}],"vName":"Bird's Basement"},"type":"Feature"},{"geometry":{"coordinates":[144.9945274,-37.8001115],"type":"Point"},"properties":{"events":[{"categories":["Free","Music","Other \"Food & Drink\""],"eDate":"2025-03-20","eName":"Mr Alford","genre":null,"price":"Free","supports":[],"ticketUrl":null,"time":" 7pm"}],"vName":"Bodriggy Brewing Company"},"type":"Feature"},{"geometry":{"coordinates":[144.9617018,-37.7704566],"type":"Point"},"properties":{"events":[{"categories":["Music"],"eDate":"2025-03-20","eName":"Dean Owens & The Sinners","genre":"Rock","price":"$43.96","supports":[],"ticketUrl":null,"time":" 8pm"}],"vName":"Brunswick Ballroom"},"type":"Feature"},{"geometry":{"coordinates":[145.0006024,-37.8837941],"type":"Point"},"properties":{"events":[{"categories":["Music"],"eDate":"2025-03-20","eName":"The Edward York Quintet","genre":"Jazz","price":"$30.00","supports":[],"ticketUrl":null,"time":" 8pm"}],"vName":"Classic Southside"},"type":"Feature"},{"geometry":{"coordinates":[144.9248037207342,-37.7656716],"type":"Point"},"properties":{"events":[{"categories":["Comedy","Theatre"],"eDate":"2025-03-20","eName":"Motorboat","genre":null,"price":"$30.00","supports":[],"ticketUrl":null,"time":" 8pm"}],"vName":"Clocktower Centre"},"type":"Feature"},{"geometry":{"coordinates":[144.9668096,-37.8133834],"type":"Point"},"properties":{"events":[{"categories":["Comedy"],"eDate":"2025-03-20","eName":"Class Clowns Vic State Final","genre":null,"price":"$15.00","supports":[],"ticketUrl":null,"time":" 5:30pm"}],"vName":"Comedy Republic"},"type":"Feature"},{"geometry":{"coordinates":[144.950359,-37.8100202],"type":"Point"},"properties":{"events":[{"categories":["Music"],"eDate":"2025-03-20","eName":"Fat Freddy's Drop","genre":"Global","price":"$99.90","supports":[],"ticketUrl":null,"time":" 7pm"}],"vName":"Festival Hall"},"type":"Feature"},{"geometry":{"coordinates":[144.96947,-37.816565],"type":"Point"},"properties":{"events":[{"categories":["Music"],"eDate":"2025-03-20","eName":"Honne","genre":"Pop","price":"$89.90","supports":[],"ticketUrl":null,"time":" 7pm"}],"vName":"Forum Melbourne"},"type":"Feature"},{"geometry":{"coordinates":[145.0008148,-37.8107158],"type":"Point"},"properties":{"events":[{"categories":["Music"],"eDate":"2025-03-20","eName":"The Rusted Heart Blues Band","genre":"Blues","price":"$12.75","supports":[],"ticketUrl":null,"time":" 8pm"}],"vName":"Leadbeater Hotel"},"type":"Feature"},{"geometry":{"coordinates":[144.8971518,-37.8054274],"type":"Point"},"properties":{"events":[{"categories":["Music"],"eDate":"2025-03-20","eName":"Blue Melon Trio","genre":null,"price":"$15.00 - 20.00","supports":["Primary Colours Trio"],"ticketUrl":null,"time":" 7:45pm"}],"vName":"Mamma Chen's"},"type":"Feature"},{"geometry":{"coordinates":[144.9786817,-37.8671902],"type":"Point"},"properties":{"events":[{"categories":["Music"],"eDate":"2025-03-20","eName":"Steve Romig","genre":"Rock","price":"$25.00 - 40.00","supports":[],"ticketUrl":null,"time":" 7pm"}],"vName":"Memo Music Hall"},"type":"Feature"},{"geometry":{"coordinates":[144.99295304614787,-37.80245],"type":"Point"},"properties":{"events":[{"categories":["Music"],"eDate":"2025-03-20","eName":"Gwyn Ashton","genre":"Rock","price":"Free","supports":[],"ticketUrl":null,"time":" 8pm"}],"vName":"Mr Boogie Man BAR"},"type":"Feature"},{"geometry":{"coordinates":[144.9977626,-37.7755001],"type":"Point"},"properties":{"events":[{"categories":["Music"],"eDate":"2025-03-20","eName":"BoyWithUke","genre":"Acoustic","price":"$69.90","supports":[],"ticketUrl":null,"time":" 7:30pm"}],"vName":"Northcote Theatre"},"type":"Feature"},{"geometry":{"coordinates":[144.9605705,-37.8132486],"type":"Point"},"properties":{"events":[{"categories":["Music"],"eDate":"2025-03-20","eName":"Blue Note ‘58","genre":"Jazz","price":"$45.00","supports":[],"ticketUrl":null,"time":" 7:30pm"},{"categories":["Music"],"eDate":"2025-03-20","eName":"Pierre Jaquinot Quartet","genre":"Jazz","price":"$45.00","supports":[],"ticketUrl":null,"time":" 8pm"}],"vName":"Paris Cat Jazz Club"},"type":"Feature"},{"geometry":{"coordinates":[145.0142411,-37.7310367],"type":"Point"},"properties":{"events":[{"categories":["Free","Music"],"eDate":"2025-03-20","eName":"Open Mic @ Ragtime Tavern","genre":"Acoustic","price":"Free","supports":[],"ticketUrl":null,"time":" 7pm"}],"vName":"Ragtime Tavern"},"type":"Feature"},{"geometry":{"coordinates":[145.35345070507591,-37.9100746],"type":"Point"},"properties":{"events":[{"categories":["Music"],"eDate":"2025-03-20","eName":"Hayley Jensen","genre":"Country/Folk","price":"$45.40","supports":[],"ticketUrl":null,"time":" 7pm"}],"vName":"Sooki Lounge"},"type":"Feature"},{"geometry":{"coordinates":[144.9607404,-37.7743469],"type":"Point"},"properties":{"events":[{"categories":["Free","Music"],"eDate":"2025-03-20","eName":"Stay Gold Battle Of The Bands: Heat 1","genre":"Rock","price":"Free","supports":[],"ticketUrl":null,"time":" 7pm"}],"vName":"Stay Gold"},"type":"Feature"},{"geometry":{"coordinates":[144.9706095,-37.7783326],"type":"Point"},"properties":{"events":[{"categories":["Free","Music"],"eDate":"2025-03-20","eName":"Outlaws & Troubadours: Adam Hattaway","genre":"Country/Folk","price":"Free","supports":[],"ticketUrl":null,"time":" 8pm"}],"vName":"The Beast"},"type":"Feature"},{"geometry":{"coordinates":[144.958676,-37.7669571],"type":"Point"},"properties":{"events":[{"categories":["Music"],"eDate":"2025-03-20","eName":"Loreto Jazz Night 2025","genre":"Jazz","price":"$25.00 - 30.00","supports":[],"ticketUrl":null,"time":" 7pm"}],"vName":"The Jazzlab"},"type":"Feature"},{"geometry":{"coordinates":[144.9651425,-37.8119429],"type":"Point"},"properties":{"events":[{"categories":["Free","Music"],"eDate":"2025-03-20","eName":"Jazz & Jaffles Presents: Narciso + Kurt Rainbow","genre":"Jazz","price":"Free","supports":[],"ticketUrl":null,"time":" 8pm"}],"vName":"The Toff In Town"},"type":"Feature"},{"geometry":{"coordinates":[144.9846126,-37.7989941],"type":"Point"},"properties":{"events":[{"categories":["Music"],"eDate":"2025-03-20","eName":"My Dog, Satellite","genre":"Rock","price":"$11.25","supports":[],"ticketUrl":null,"time":" 7:30pm"}],"vName":"The Tote Hotel"},"type":"Feature"},{"geometry":{"coordinates":[144.2195296,-37.0651041],"type":"Point"},"properties":{"events":[{"categories":["Music"],"eDate":"2025-03-20","eName":"Barry Adamson","genre":"Rock","price":"$54.00","supports":[],"ticketUrl":null,"time":" 7pm"},{"categories":["Music"],"eDate":"2025-03-20","eName":"Barry Adamson","genre":"Rock","price":"$54.00","supports":["Hugo Race"],"ticketUrl":null,"time":" 7pm"}],"vName":"Theatre Royal Castlemaine"},"type":"Feature"},{"geometry":{"coordinates":[144.9983987,-37.7729204],"type":"Point"},"properties":{"events":[{"categories":["Free","Music"],"eDate":"2025-03-20","eName":"Nature in the City","genre":null,"price":"Free","supports":[],"ticketUrl":null,"time":" 6pm"}],"vName":"Wesley Anne"},"type":"Feature"},{"geometry":{"coordinates":[144.9618426,-37.8125531],"type":"Point"},"properties":{"events":[{"categories":["Free","Music"],"eDate":"2025-03-20","eName":"Inner Sanctuary FEAT: DJ JNETT + Jimmy James","genre":null,"price":"Free","supports":[],"ticketUrl":null,"time":" 3pm"}],"vName":"Whitehart Bar"},"type":"Feature"}],"type":"FeatureCollection"}