{"features":[{"geometry":{"coordinates":[144.99828116650363,-37.7713296],"type":"Point"},"properties":{"events":[{"categories":["Music"],"eDate":"2023-12-21","eName":"Buttered Loaf","genre":"Soul/Funk","price":"$20.00","supports":[],"ticketUrl":null,"time":" 8pm"}],"vName":"Bar 303"},"type":"Feature"},{"geometry":{"coordinates":[144.978425,-37.79773],"type":"Point"},"properties":{"events":[{"categories":["Music"],"eDate":"2023-12-21","eName":"Winnie & The Wraiths","genre":"Rock","price":"$17.35","supports":["Calvin Clone"," Detsi"],"ticketUrl":null,"time":" 8pm"}],"vName":"Bar Open"},"type":"Feature"},{"geometry":{"coordinates":[144.9607158,-37.776327],"type":"Point"},"properties":{"events":[{"categories":["Music"],"eDate":"2023-12-21","eName":"Calico Sunday","genre":"Rock","price":"$16.85","supports":["Peak Park"," Pepper Le Floyd"," Xandri"],"ticketUrl":null,"time":" 7:30pm"}],"vName":"Bergy Bandroom"},"type":"Feature"},{"geometry":{"coordinates":[144.9945274,-37.8001115],"type":"Point"},"properties":{"events":[{"categories":["Free","Music","Other \"Food & Drink\""],"eDate":"2023-12-21","eName":"Elon Bust Trio","genre":null,"price":"Free","supports":["Flimsey Lohan"],"ticketUrl":null,"time":" 7:30pm"}],"vName":"Bodriggy Brewing Company"},"type":"Feature"},{"geometry":{"coordinates":[145.00041662186553,-37.76125825],"type":"Point"},"properties":{"events":[{"categories":["Free","Music"],"eDate":"2023-12-21","eName":"Phoebe's Dream","genre":null,"price":"Free","supports":["Transient Blue"," Ollie"],"ticketUrl":null,"time":" 6pm"}],"vName":"Cactus Room"},"type":"Feature"},{"geometry":{"coordinates":[144.9875917,-37.7963837],"type":"Point"},"properties":{"events":[{"categories":["Free","Music"],"eDate":"2023-12-21","eName":"Kahlua Breeze: A Yacht Rock Christmas!","genre":null,"price":"Free","supports":[],"ticketUrl":null,"time":" 8pm"}],"vName":"Gem Bar"},"type":"Feature"},{"geometry":{"coordinates":[144.9936498,-37.8000264],"type":"Point"},"properties":{"events":[{"categories":["Free","Music"],"eDate":"2023-12-21","eName":"The 6v6s","genre":"Blues","price":"Free","supports":[],"ticketUrl":null,"time":"10pm"}],"vName":"Lulie Tavern"},"type":"Feature"},{"geometry":{"coordinates":[144.8971518,-37.8054274],"type":"Point"},"properties":{"events":[{"categories":["Music"],"eDate":"2023-12-21","eName":"Wilma Sights","genre":null,"price":"$15.00 - 20.00","supports":["Thespian"," Mr Muk"],"ticketUrl":null,"time":" 7pm"}],"vName":"Mamma Chen's"},"type":"Feature"},{"geometry":{"coordinates":[144.97711,-37.79833],"type":"Point"},"properties":{"events":[{"categories":["Music"],"eDate":"2023-12-21","eName":"Davo (Devo Cover Band)","genre":null,"price":"$15.00","supports":["K5"," Electric Self"],"ticketUrl":null,"time":" 8pm"}],"vName":"Old Bar"},"type":"Feature"},{"geometry":{"coordinates":[145.0142411,-37.7310367],"type":"Point"},"properties":{"events":[{"categories":["Free","Music"],"eDate":"2023-12-21","eName":"Ragtime Tavern Open Piano","genre":"Acoustic","price":"Free","supports":[],"ticketUrl":null,"time":" 6pm"}],"vName":"Ragtime Tavern"},"type":"Feature"},{"geometry":{"coordinates":[144.9715321,-37.8098002],"type":"Point"},"properties":{"events":[{"categories":["Comedy"],"eDate":"2023-12-21","eName":"Raise the Bar Comedy: Standup Comedy Female All-Stars End of Year Gala!","genre":null,"price":"$15.00","supports":["Nicky Barry"," Rose Bishop"," Urvi Majumdar"," Sonia Di Iorio"," Robyn Reynolds"," Sam Serna"," Diana Nguyen"," Amna Bee"],"ticketUrl":null,"time":" 7pm"}],"vName":"StoryVille"},"type":"Feature"},{"geometry":{"coordinates":[144.9846126,-37.7989941],"type":"Point"},"properties":{"events":[{"categories":["Music"],"eDate":"2023-12-21","eName":"Crushed Lavender","genre":"Rock","price":"$11.25","supports":["The Pedestrians"," thirdwheeltheband"],"ticketUrl":null,"time":" 7pm"},{"categories":["Free","Music"],"eDate":"2023-12-21","eName":"A Christmas Gig With... The Lazy Susans","genre":"Indie","price":"$11.25","supports":["Baby Shower"," Foley"],"ticketUrl":null,"time":" 7pm"}],"vName":"The Tote Hotel"},"type":"Feature"}],"type":"FeatureCollection"}