{"features":[{"geometry":{"coordinates":[144.9679369,-37.8120109],"type":"Point"},"properties":{"events":[{"categories":["Music"],"eDate":"2025-05-22","eName":"Fame On Fire","genre":"Rock","price":"$59.90","supports":["Alt"," Tapestry"],"ticketUrl":null,"time":" 7pm"}],"vName":"170 Russell"},"type":"Feature"},{"geometry":{"coordinates":[144.9982812,-37.7713296],"type":"Point"},"properties":{"events":[{"categories":["Music"],"eDate":"2025-05-22","eName":"Pia Nesvara","genre":"Country/Folk","price":"Free","supports":[],"ticketUrl":null,"time":" 8pm"}],"vName":"Bar 303"},"type":"Feature"},{"geometry":{"coordinates":[144.978682,-37.7981225],"type":"Point"},"properties":{"events":[{"categories":["Free","Music"],"eDate":"2025-05-22","eName":"Tejo D’Cruz","genre":null,"price":"Free","supports":[],"ticketUrl":null,"time":" 9pm"}],"vName":"Baxter's Lot"},"type":"Feature"},{"geometry":{"coordinates":[144.9568039,-37.8111442],"type":"Point"},"properties":{"events":[{"categories":["Music"],"eDate":"2025-05-22","eName":"Spirit presents: The Santana Experience","genre":"Jazz","price":"$40.00","supports":[],"ticketUrl":null,"time":" 7:30pm"}],"vName":"Bird's Basement"},"type":"Feature"},{"geometry":{"coordinates":[144.9945274,-37.8001115],"type":"Point"},"properties":{"events":[{"categories":["Free","Music","Other \"Food \""],"eDate":"2025-05-22","eName":"XPRESS POINT","genre":null,"price":"Free","supports":[],"ticketUrl":null,"time":" 7:30pm"}],"vName":"Bodriggy Brewing Company"},"type":"Feature"},{"geometry":{"coordinates":[144.9617083,-37.7704205],"type":"Point"},"properties":{"events":[{"categories":["Music"],"eDate":"2025-05-22","eName":"Marina Allen","genre":"Country/Folk","price":"$28.15","supports":["more"],"ticketUrl":null,"time":" 8:30pm"}],"vName":"Brunswick Ballroom"},"type":"Feature"},{"geometry":{"coordinates":[144.9489214,-37.8106039],"type":"Point"},"properties":{"events":[{"categories":["Music"],"eDate":"2025-05-22","eName":"Red Clay Strays","genre":"Country/Folk","price":"$76.32","supports":["Sweet Talk"],"ticketUrl":null,"time":" 7:30pm"}],"vName":"Festival Hall"},"type":"Feature"},{"geometry":{"coordinates":[144.9679835,-37.8201575],"type":"Point"},"properties":{"events":[{"categories":["Music"],"eDate":"2025-05-22","eName":"Star Wars: The Force Awakens in Concert","genre":"Classical","price":"$86.00 - 150.00","supports":[],"ticketUrl":null,"time":" 7:30pm"}],"vName":"Hamer Hall (Arts Centre Melbourne)"},"type":"Feature"},{"geometry":{"coordinates":[144.9982831,-37.7736456],"type":"Point"},"properties":{"events":[{"categories":["Free","Music"],"eDate":"2025-05-22","eName":"Melbourne Album Club: Pink Floyd’s Dark Side of the Moon","genre":"Rock","price":"Free","supports":[],"ticketUrl":null,"time":" 7:30pm"}],"vName":"High Note"},"type":"Feature"},{"geometry":{"coordinates":[144.9761619,-37.8230506],"type":"Point"},"properties":{"events":[{"categories":["Music"],"eDate":"2025-05-22","eName":"Train","genre":"Rock","price":"$129.90 - 149.90","supports":["KT Tunstall"," Jason Wade"],"ticketUrl":null,"time":" 7:15pm"}],"vName":"John Cain Arena"},"type":"Feature"},{"geometry":{"coordinates":[145.0314658,-37.8067273],"type":"Point"},"properties":{"events":[{"categories":["Music"],"eDate":"2025-05-22","eName":"Global Music Thursdays: Saltanah","genre":"Global","price":"$20.00","supports":[],"ticketUrl":null,"time":" 7:30pm"}],"vName":"Kew Court House"},"type":"Feature"},{"geometry":{"coordinates":[144.8975289,-37.8022392],"type":"Point"},"properties":{"events":[{"categories":["Free","Music"],"eDate":"2025-05-22","eName":"Salt The Earth","genre":null,"price":"Free","supports":["Wasteman"," The J's"],"ticketUrl":null,"time":" 6:45pm"}],"vName":"Mamma Chen's"},"type":"Feature"},{"geometry":{"coordinates":[144.9675876,-37.8240849],"type":"Point"},"properties":{"events":[{"categories":["Music"],"eDate":"2025-05-22","eName":"Australian String Quartet: Rapture","genre":"Classical","price":"$95.00","supports":[],"ticketUrl":null,"time":" 7pm"}],"vName":"Melbourne Recital Centre"},"type":"Feature"},{"geometry":{"coordinates":[144.96084,-37.813514],"type":"Point"},"properties":{"events":[{"categories":["Music"],"eDate":"2025-05-22","eName":"The Music of Herbie Hancock with Ryley Duncan","genre":"Jazz","price":"$40.00","supports":[],"ticketUrl":null,"time":" 7:30pm"},{"categories":["Music"],"eDate":"2025-05-22","eName":"Linda Taylor: Lexicon Live","genre":"Jazz","price":"$40.00","supports":[],"ticketUrl":null,"time":" 8pm"}],"vName":"Paris Cat Jazz Club"},"type":"Feature"},{"geometry":{"coordinates":[144.9741326,-37.8619943],"type":"Point"},"properties":{"events":[{"categories":["Music"],"eDate":"2025-05-22","eName":"Parents Battle Of The Bands: Southside 2","genre":"Rock","price":"$36.75","supports":[],"ticketUrl":null,"time":" 7pm"}],"vName":"Prince Bandroom"},"type":"Feature"},{"geometry":{"coordinates":[144.9583409,-37.7664168],"type":"Point"},"properties":{"events":[{"categories":["Music","Other \"Dance \""],"eDate":"2025-05-22","eName":"Country Struts – Brunswick Thursdays","genre":"Country/Folk","price":"$16.50","supports":[],"ticketUrl":null,"time":" 6pm"}],"vName":"Quadraphonic Club"},"type":"Feature"},{"geometry":{"coordinates":[145.0142411,-37.7310367],"type":"Point"},"properties":{"events":[{"categories":["Free","Music"],"eDate":"2025-05-22","eName":"Open Mic @ Ragtime Tavern","genre":"Acoustic","price":"Free","supports":[],"ticketUrl":null,"time":" 7pm"}],"vName":"Ragtime Tavern"},"type":"Feature"},{"geometry":{"coordinates":[145.0013923,-37.7559265],"type":"Point"},"properties":{"events":[{"categories":["Music","Festival"],"eDate":"2025-05-22","eName":"OH! Daisy","genre":null,"price":"$15.00","supports":["Baby Shower"," Elkie Kershaw"],"ticketUrl":null,"time":" 5:30pm"}],"vName":"Shotkickers"},"type":"Feature"},{"geometry":{"coordinates":[145.3534507,-37.9100746],"type":"Point"},"properties":{"events":[{"categories":["Music"],"eDate":"2025-05-22","eName":"Nathan Cavaleri","genre":"Blues","price":"$45.90","supports":[],"ticketUrl":null,"time":" 7pm"}],"vName":"Sooki Lounge"},"type":"Feature"},{"geometry":{"coordinates":[144.9607404,-37.7743469],"type":"Point"},"properties":{"events":[{"categories":["Music","Comedy","Theatre","Other \"Dance \"","Other \"Cabaret\""],"eDate":"2025-05-22","eName":"altimate.SHOWDOWN: Naarm – Heat Four","genre":"Electronic","price":"$16.35","supports":[],"ticketUrl":null,"time":" 6pm"}],"vName":"Stay Gold"},"type":"Feature"},{"geometry":{"coordinates":[144.9586498,-37.766903],"type":"Point"},"properties":{"events":[{"categories":["Music"],"eDate":"2025-05-22","eName":"Yunior Terry’s Undercurrents","genre":"Jazz","price":"$25.00 - 30.00","supports":[],"ticketUrl":null,"time":" 7:30pm"}],"vName":"The Jazzlab"},"type":"Feature"}],"type":"FeatureCollection"}