{"features":[{"geometry":{"coordinates":[144.9679835,-37.8201575],"type":"Point"},"properties":{"events":[{"categories":["Comedy"],"eDate":"2026-06-19","eName":"Up Next","genre":null,"price":"$20.00","supports":[],"ticketUrl":null,"time":" 7pm"},{"categories":["Comedy"],"eDate":"2026-06-19","eName":"Up Next Comedy","genre":null,"price":"$20.00","supports":[],"ticketUrl":null,"time":" 7pm"}],"vName":"Arts Centre Melbourne"},"type":"Feature"},{"geometry":{"coordinates":[144.9982812,-37.7713296],"type":"Point"},"properties":{"events":[{"categories":["Music"],"eDate":"2026-06-19","eName":"Roda de Samba","genre":"Global","price":"$15.00","supports":[],"ticketUrl":null,"time":" 7pm"}],"vName":"Bar 303"},"type":"Feature"},{"geometry":{"coordinates":[144.978682,-37.7981225],"type":"Point"},"properties":{"events":[{"categories":["Free","Music"],"eDate":"2026-06-19","eName":"Xander Cuming","genre":null,"price":"Free","supports":[],"ticketUrl":null,"time":" 9pm"}],"vName":"Baxter's Lot"},"type":"Feature"},{"geometry":{"coordinates":[144.9568039,-37.8111442],"type":"Point"},"properties":{"events":[{"categories":["Music"],"eDate":"2026-06-19","eName":"Julius Rodriguez","genre":"Jazz","price":"$38.00","supports":[],"ticketUrl":null,"time":" 7:30pm"}],"vName":"Bird's Basement"},"type":"Feature"},{"geometry":{"coordinates":[144.9248037,-37.7656716],"type":"Point"},"properties":{"events":[{"categories":["Music"],"eDate":"2026-06-19","eName":"The Australian Eagles Show: 50 Years of Hotel California","genre":"Rock","price":"$89.50","supports":[],"ticketUrl":null,"time":" 7:30pm"}],"vName":"Clocktower Centre"},"type":"Feature"},{"geometry":{"coordinates":[144.9926664,-37.8248893],"type":"Point"},"properties":{"events":[{"categories":["Music"],"eDate":"2026-06-19","eName":"Blackwater Holylight","genre":"Rock","price":"$77.20","supports":["Solkyri"," Treebeard"],"ticketUrl":null,"time":" 7:30pm"}],"vName":"Corner Hotel"},"type":"Feature"},{"geometry":{"coordinates":[144.9779203,-37.8663225],"type":"Point"},"properties":{"events":[{"categories":["Free","Music"],"eDate":"2026-06-19","eName":"Operation Big Jake Bosstone","genre":null,"price":"Free","supports":[],"ticketUrl":null,"time":" 7pm"}],"vName":"Dogs Bar"},"type":"Feature"},{"geometry":{"coordinates":[144.9777885,-37.8597831],"type":"Point"},"properties":{"events":[{"categories":["Music"],"eDate":"2026-06-19","eName":"Lewis Toms","genre":"Rock","price":"Free","supports":[],"ticketUrl":null,"time":" 8pm"},{"categories":["Music"],"eDate":"2026-06-19","eName":"DJ Rodney Guzman","genre":"Rock","price":"Free","supports":[],"ticketUrl":null,"time":"11pm"}],"vName":"Freddie Wimpoles"},"type":"Feature"},{"geometry":{"coordinates":[144.9679835,-37.8201575],"type":"Point"},"properties":{"events":[{"categories":["Music"],"eDate":"2026-06-19","eName":"ABC Classic 100 in Concert","genre":"Classical","price":"$54.00 - 109.00","supports":[],"ticketUrl":null,"time":" 7:30pm"}],"vName":"Hamer Hall (Arts Centre Melbourne)"},"type":"Feature"},{"geometry":{"coordinates":[144.973013,-37.8640582],"type":"Point"},"properties":{"events":[{"categories":["Music"],"eDate":"2026-06-19","eName":"ALT-REVOLT: The Filthiest Heavy Tribute Gathering","genre":null,"price":"$25.00","supports":["Cuckoo For Caca"," Killing In The Dame - Rage Against the Machine Tribute"],"ticketUrl":null,"time":" 8pm"}],"vName":"Hotel Esplanade (aka The Espy)"},"type":"Feature"},{"geometry":{"coordinates":[144.9675876,-37.8240849],"type":"Point"},"properties":{"events":[{"categories":["Music"],"eDate":"2026-06-19","eName":"James Ehnes with Orion Weiss","genre":"Classical","price":"$49.00 - 139.00","supports":[],"ticketUrl":null,"time":" 7:30pm"}],"vName":"Melbourne Recital Centre"},"type":"Feature"},{"geometry":{"coordinates":[144.9689204,-37.8226599],"type":"Point"},"properties":{"events":[{"categories":["Music","Other \"Art \""],"eDate":"2026-06-19","eName":"NGV Friday Nights- CARTIER: Annalisa + 10tendo","genre":null,"price":"$24.00 - 50.00","supports":[],"ticketUrl":null,"time":" 7pm"},{"categories":["Music","Other \"Art \""],"eDate":"2026-06-19","eName":"NGV Friday Nights- CARTIER: Myles Mac","genre":"Electronic","price":"$24.00 - 50.00","supports":[],"ticketUrl":null,"time":" 8:30pm"}],"vName":"NGV - National Gallery of Victoria"},"type":"Feature"},{"geometry":{"coordinates":[144.998414,-37.771471],"type":"Point"},"properties":{"events":[{"categories":["Music"],"eDate":"2026-06-19","eName":"John Splithoff","genre":"Indie","price":"Free","supports":["Wild Gloriosa"],"ticketUrl":null,"time":" 8:30pm"}],"vName":"Northcote Social Club"},"type":"Feature"},{"geometry":{"coordinates":[145.0015248,-37.8258878],"type":"Point"},"properties":{"events":[{"categories":["Music"],"eDate":"2026-06-19","eName":"Phil Manning & Shannon Bourne","genre":"Acoustic","price":"$35.00 - 90.00","supports":[],"ticketUrl":null,"time":" 7pm"}],"vName":"Odeon Richmond"},"type":"Feature"},{"geometry":{"coordinates":[144.96084,-37.813514],"type":"Point"},"properties":{"events":[{"categories":["Music"],"eDate":"2026-06-19","eName":"Kind of Blue Deluxe","genre":"Jazz","price":"$45.00","supports":[],"ticketUrl":null,"time":" 6pm"},{"categories":["Music"],"eDate":"2026-06-19","eName":"Sevil Sabah Brings Jazz with a Twist","genre":"Jazz","price":"$45.00","supports":[],"ticketUrl":null,"time":" 6:30pm"},{"categories":["Music"],"eDate":"2026-06-19","eName":"All I Ask: Elly Poletti Sings Adele","genre":"Jazz","price":"$48.00","supports":[],"ticketUrl":null,"time":" 9pm"},{"categories":["Music"],"eDate":"2026-06-19","eName":"The Story of The Stones: Andrew Swann & The Impressionists","genre":"Blues","price":"$45.00","supports":[],"ticketUrl":null,"time":" 9:30pm"}],"vName":"Paris Cat Jazz Club"},"type":"Feature"},{"geometry":{"coordinates":[144.9837213,-37.8048409],"type":"Point"},"properties":{"events":[{"categories":["Music"],"eDate":"2026-06-19","eName":"Solstice Sound System Session","genre":"Global","price":"$15.00","supports":[],"ticketUrl":null,"time":" 7pm"}],"vName":"QQQ ST. Park"},"type":"Feature"},{"geometry":{"coordinates":[145.0142411,-37.7310367],"type":"Point"},"properties":{"events":[{"categories":["Music"],"eDate":"2026-06-19","eName":"High Rotation Festival","genre":"Country/Folk","price":"Free","supports":[],"ticketUrl":null,"time":" 7pm"}],"vName":"Ragtime Tavern"},"type":"Feature"},{"geometry":{"coordinates":[144.9607404,-37.7743469],"type":"Point"},"properties":{"events":[{"categories":["Music"],"eDate":"2026-06-19","eName":"Antiskeptic","genre":"Punk","price":"Free","supports":["Wishful Thinking"," Drastic Park"],"ticketUrl":null,"time":" 7pm"}],"vName":"Stay Gold"},"type":"Feature"},{"geometry":{"coordinates":[144.9751557,-37.8057885],"type":"Point"},"properties":{"events":[{"categories":["Music"],"eDate":"2026-06-19","eName":"A Night Of Rock Music At The Catfish","genre":"Rock","price":"$10.00","supports":["The Moops"," The Koi Fish"],"ticketUrl":null,"time":" 8pm"}],"vName":"The Catfish"},"type":"Feature"},{"geometry":{"coordinates":[144.9770425,-37.8588717],"type":"Point"},"properties":{"events":[{"categories":["Music"],"eDate":"2026-06-19","eName":"Look Sharp Trio + DJ Matty J","genre":null,"price":"Free","supports":[],"ticketUrl":null,"time":" 9pm"}],"vName":"The Fifth Province"},"type":"Feature"},{"geometry":{"coordinates":[144.9720579,-37.8121675],"type":"Point"},"properties":{"events":[{"categories":["Comedy","Theatre"],"eDate":"2026-06-19","eName":"F#*k This, I Quit: Comedy Based on YOUR Work Stories","genre":null,"price":"$24.00","supports":[],"ticketUrl":null,"time":" 7pm"},{"categories":["Comedy","Theatre"],"eDate":"2026-06-19","eName":"The Remix: Live Improv Comedy From A Guest’s True Stories","genre":null,"price":"$24.00","supports":[],"ticketUrl":null,"time":" 8:15pm"}],"vName":"The Improv Conspiracy"},"type":"Feature"},{"geometry":{"coordinates":[144.9463641,-37.8047757],"type":"Point"},"properties":{"events":[{"categories":["Music"],"eDate":"2026-06-19","eName":"The Clones","genre":"Rock","price":"$11.25","supports":["Mansplainers"," Charger"],"ticketUrl":null,"time":" 9pm"}],"vName":"The Last Chance Rock & Roll Bar"},"type":"Feature"},{"geometry":{"coordinates":[144.9708437,-37.7973184],"type":"Point"},"properties":{"events":[{"categories":["Music","Comedy"],"eDate":"2026-06-19","eName":"Tunes & Tumbles Showcase","genre":"Pop","price":"$18.73","supports":[],"ticketUrl":null,"time":" 7:30pm"}],"vName":"The Motley Bauhaus"},"type":"Feature"},{"geometry":{"coordinates":[144.9661635,-37.8176298],"type":"Point"},"properties":{"events":[{"categories":["Music"],"eDate":"2026-06-19","eName":"Bionic Boogie","genre":"Electronic","price":"Free","supports":["more"],"ticketUrl":null,"time":" 9pm"}],"vName":"Wax Music Lounge"},"type":"Feature"},{"geometry":{"coordinates":[144.9984324,-37.7729134],"type":"Point"},"properties":{"events":[{"categories":["Music"],"eDate":"2026-06-19","eName":"Nash Lee Trio","genre":"Jazz","price":"Free","supports":["Ron Romero"],"ticketUrl":null,"time":" 6pm"},{"categories":["Music"],"eDate":"2026-06-19","eName":"Kaytlyn Johnson","genre":"Country/Folk","price":"$27.50","supports":[],"ticketUrl":null,"time":" 8pm"}],"vName":"Wesley Anne"},"type":"Feature"}],"type":"FeatureCollection"}