{"features":[{"geometry":{"coordinates":[144.9679835243618,-37.8201575],"type":"Point"},"properties":{"events":[{"categories":["Other \"Cabaret\""],"eDate":"2024-09-25","eName":"Bite Club: 2nd Serve","genre":null,"price":"$59.00 - 79.00","supports":[],"ticketUrl":null,"time":" 8pm"}],"vName":"Arts Centre Melbourne"},"type":"Feature"},{"geometry":{"coordinates":[144.978425,-37.79773],"type":"Point"},"properties":{"events":[{"categories":["Music"],"eDate":"2024-09-25","eName":"Bella Vita Fest","genre":"Rock","price":"$17.35","supports":[],"ticketUrl":null,"time":" 8pm"}],"vName":"Bar Open"},"type":"Feature"},{"geometry":{"coordinates":[144.978682,-37.7981225],"type":"Point"},"properties":{"events":[{"categories":["Free","Music"],"eDate":"2024-09-25","eName":"Jack Milligan","genre":null,"price":"Free","supports":[],"ticketUrl":null,"time":" 9:30pm"}],"vName":"Baxter's Lot"},"type":"Feature"},{"geometry":{"coordinates":[144.9607158,-37.776327],"type":"Point"},"properties":{"events":[{"categories":["Music"],"eDate":"2024-09-25","eName":"Alyssa Drago: Single Launch / Birthday Bash","genre":"Soul/Funk","price":"$16.85","supports":["Dan Vogl"," YEGI"],"ticketUrl":null,"time":" 7:30pm"}],"vName":"Bergy Bandroom"},"type":"Feature"},{"geometry":{"coordinates":[144.9615882,-37.7711432],"type":"Point"},"properties":{"events":[{"categories":["Music"],"eDate":"2024-09-25","eName":"Select All","genre":"Rock","price":"$10.00 - 15.00","supports":["Left At The Avenue"," Kent Street Radio"],"ticketUrl":null,"time":" 7pm"}],"vName":"Retreat Hotel"},"type":"Feature"},{"geometry":{"coordinates":[145.001392343033,-37.75592655],"type":"Point"},"properties":{"events":[{"categories":["Music"],"eDate":"2024-09-25","eName":"Jimmy The Saint & The Sinners","genre":null,"price":"$15.00","supports":["Jessie Jane"," Leo Francis & The Galahs"],"ticketUrl":null,"time":" 7pm"}],"vName":"Shotkickers"},"type":"Feature"},{"geometry":{"coordinates":[144.9555612,-37.8066759],"type":"Point"},"properties":{"events":[{"categories":["Free","Music","Other \"Food & Drink\""],"eDate":"2024-09-25","eName":"Suzie So Blue @ Wine, Women & Whiskey","genre":null,"price":"Free","supports":[],"ticketUrl":null,"time":" 9pm"}],"vName":"The Drunken Poet"},"type":"Feature"},{"geometry":{"coordinates":[144.9830837,-37.7988316],"type":"Point"},"properties":{"events":[{"categories":["Music"],"eDate":"2024-09-25","eName":"YBN NAHMIR","genre":"Hip Hop","price":"$64.23","supports":[],"ticketUrl":null,"time":" 7pm"}],"vName":"The Night Cat"},"type":"Feature"},{"geometry":{"coordinates":[144.9983987,-37.7729204],"type":"Point"},"properties":{"events":[{"categories":["Trivia"],"eDate":"2024-09-25","eName":"Trivia With Sparx","genre":null,"price":"Free","supports":[],"ticketUrl":null,"time":" 7:30pm"}],"vName":"Wesley Anne"},"type":"Feature"}],"type":"FeatureCollection"}