{"features":[{"geometry":{"coordinates":[144.978682,-37.7981225],"type":"Point"},"properties":{"events":[{"categories":["Music","Free"],"eDate":"2025-11-30","eName":"Mya Rogers","genre":null,"price":"Free","supports":[],"ticketUrl":null,"time":" 9pm"}],"vName":"Baxter's Lot"},"type":"Feature"},{"geometry":{"coordinates":[144.9945274,-37.8001115],"type":"Point"},"properties":{"events":[{"categories":["Other \"Food \"","Other \"Dance \"","Music","Free"],"eDate":"2025-11-30","eName":"Bootscootin’ + James Ellis Band","genre":null,"price":"Free","supports":[],"ticketUrl":null,"time":" 1:30pm"}],"vName":"Bodriggy Brewing Company"},"type":"Feature"},{"geometry":{"coordinates":[145.0002585,-37.7592368],"type":"Point"},"properties":{"events":[{"categories":["Music"],"eDate":"2025-11-30","eName":"Twostar","genre":null,"price":"$15.00","supports":["Broadcasting"],"ticketUrl":null,"time":" 8pm"}],"vName":"Cafe Gummo"},"type":"Feature"},{"geometry":{"coordinates":[144.9655685,-37.7459437],"type":"Point"},"properties":{"events":[{"categories":["Music","Free"],"eDate":"2025-11-30","eName":"The ‘Johnny Can’t Dance’ Cajun Band","genre":"Country/Folk","price":"Free","supports":[],"ticketUrl":null,"time":" 3pm"}],"vName":"Coburg RSL Club"},"type":"Feature"},{"geometry":{"coordinates":[144.9784379,-37.7975956],"type":"Point"},"properties":{"events":[{"categories":["Music"],"eDate":"2025-11-30","eName":"Joshua Rognoni","genre":null,"price":"$12.00","supports":["Jimmy Smyth"," Letícia Keane"],"ticketUrl":null,"time":" 4pm"}],"vName":"Creatures of Habit Bar & Bandroom"},"type":"Feature"},{"geometry":{"coordinates":[144.9941396,-37.799833],"type":"Point"},"properties":{"events":[{"categories":["Music","Free","Other \"Food \""],"eDate":"2025-11-30","eName":"Birdsnake","genre":null,"price":"Free","supports":["Emelyne"," Cooper Dodge"," Lloyd Briggs"," Spin Diesel"," Loz"],"ticketUrl":null,"time":" 2pm"}],"vName":"Dr Morse"},"type":"Feature"},{"geometry":{"coordinates":[144.9777885,-37.8597831],"type":"Point"},"properties":{"events":[{"categories":["Music"],"eDate":"2025-11-30","eName":"Bad Bitch Rodeo","genre":"Country/Folk","price":"Free","supports":[],"ticketUrl":null,"time":" 6pm"}],"vName":"Freddie Wimpoles"},"type":"Feature"},{"geometry":{"coordinates":[144.9679835,-37.8201575],"type":"Point"},"properties":{"events":[{"categories":["Comedy"],"eDate":"2025-11-30","eName":"John Bishop: 25 Years Of Stand-Up","genre":null,"price":"$89.90","supports":[],"ticketUrl":null,"time":" 8pm"}],"vName":"Hamer Hall (Arts Centre Melbourne)"},"type":"Feature"},{"geometry":{"coordinates":[144.9583409,-37.7664168],"type":"Point"},"properties":{"events":[{"categories":["Music"],"eDate":"2025-11-30","eName":"Vox Chops: 90’s Smash Hits","genre":"Pop","price":"$28.30","supports":["David & Laura"],"ticketUrl":null,"time":" 2pm"}],"vName":"Quadraphonic Club"},"type":"Feature"},{"geometry":{"coordinates":[144.9770425,-37.8588717],"type":"Point"},"properties":{"events":[{"categories":["Music"],"eDate":"2025-11-30","eName":"Soul Obsession Duo","genre":"Soul/Funk","price":"Free","supports":[],"ticketUrl":null,"time":" 5pm"},{"categories":["Music"],"eDate":"2025-11-30","eName":"Milly Joel","genre":"Indie","price":"Free","supports":["DJ Obliveus"],"ticketUrl":null,"time":" 9pm"}],"vName":"The Fifth Province"},"type":"Feature"},{"geometry":{"coordinates":[144.996838,-37.7794356],"type":"Point"},"properties":{"events":[{"categories":["Music"],"eDate":"2025-11-30","eName":"Richie Weed","genre":"Rock","price":"$20.00","supports":["Darren Middleton"],"ticketUrl":null,"time":" 7pm"}],"vName":"The Merri Creek Tavern"},"type":"Feature"},{"geometry":{"coordinates":[144.9870814,-37.799406],"type":"Point"},"properties":{"events":[{"categories":["Music"],"eDate":"2025-11-30","eName":"Kim Salmon’s Smoked Salmon + Richie Weed (Tumbleweed)","genre":"Rock","price":"$34.20","supports":[],"ticketUrl":null,"time":" 2pm"}],"vName":"The Tote Hotel"},"type":"Feature"}],"type":"FeatureCollection"}