{"features":[{"geometry":{"coordinates":[144.99828116650363,-37.7713296],"type":"Point"},"properties":{"events":[{"categories":["Music"],"eDate":"2024-06-09","eName":"Sonia Serin - Single Launch","genre":"Rock","price":"$15.00","supports":[],"ticketUrl":null,"time":" 8pm"}],"vName":"Bar 303"},"type":"Feature"},{"geometry":{"coordinates":[144.9945274,-37.8001115],"type":"Point"},"properties":{"events":[{"categories":["Free","Music","Other \"Food & Drink\""],"eDate":"2024-06-09","eName":"Kings Bday Eve At Bodriggy","genre":null,"price":"Free","supports":["Papa Rich"," Sarita"," Liv Vicariously"," Elliot Ofmarco"],"ticketUrl":null,"time":" 4pm"}],"vName":"Bodriggy Brewing Company"},"type":"Feature"},{"geometry":{"coordinates":[144.9248037207342,-37.7656716],"type":"Point"},"properties":{"events":[{"categories":["Music"],"eDate":"2024-06-09","eName":"Spirit of the Orient Choir: From the Land of Jasmine","genre":"Global","price":"$50.00","supports":[],"ticketUrl":null,"time":" 3pm"}],"vName":"Clocktower Centre"},"type":"Feature"},{"geometry":{"coordinates":[144.9936498,-37.8000264],"type":"Point"},"properties":{"events":[{"categories":["Music"],"eDate":"2024-06-09","eName":"Kandalini","genre":"Rock","price":"Free","supports":["Kill Bell"],"ticketUrl":null,"time":" 9pm"}],"vName":"Lulie Tavern"},"type":"Feature"},{"geometry":{"coordinates":[144.8971518,-37.8054274],"type":"Point"},"properties":{"events":[{"categories":["Free","Music"],"eDate":"2024-06-09","eName":"Free KARAOKE: 1 Year Anniversary","genre":null,"price":"Free","supports":[],"ticketUrl":null,"time":" 6pm"}],"vName":"Mamma Chen's"},"type":"Feature"},{"geometry":{"coordinates":[145.3553553,-37.9078552],"type":"Point"},"properties":{"events":[{"categories":["Free","Music"],"eDate":"2024-06-09","eName":"Pure Logic","genre":"Pop","price":"Free","supports":[],"ticketUrl":null,"time":" 6pm"}],"vName":"Micawber Tavern"},"type":"Feature"},{"geometry":{"coordinates":[144.9977626,-37.7755001],"type":"Point"},"properties":{"events":[{"categories":["Music"],"eDate":"2024-06-09","eName":"UNTITLED. Presents Indo Warehouse","genre":"Electronic","price":"$64.90","supports":["Kahani"," Kunal Merchant"],"ticketUrl":null,"time":" 6:30pm"},{"categories":["Other \"Wrestling\""],"eDate":"2024-06-09","eName":"Renegades of Wrestling: God Save The Renegades","genre":null,"price":"$46.00","supports":[],"ticketUrl":null,"time":" 6:30pm"}],"vName":"Northcote Theatre"},"type":"Feature"},{"geometry":{"coordinates":[144.993413,-37.8506652],"type":"Point"},"properties":{"events":[{"categories":["Music"],"eDate":"2024-06-09","eName":"Thick as Thieves presents Winter Series: Pretty Pink + Lunar Disco","genre":"Electronic","price":"$27.53 - 42.82","supports":[],"ticketUrl":null,"time":" 7am"}],"vName":"Revolver Upstairs"},"type":"Feature"},{"geometry":{"coordinates":[144.9607404,-37.7743469],"type":"Point"},"properties":{"events":[{"categories":["Music"],"eDate":"2024-06-09","eName":"Cave In","genre":"Metal","price":"$54.90","supports":["ISUA"," Post Heaven"],"ticketUrl":null,"time":" 7pm"}],"vName":"Stay Gold"},"type":"Feature"},{"geometry":{"coordinates":[144.9706095,-37.7783326],"type":"Point"},"properties":{"events":[{"categories":["Free","Music"],"eDate":"2024-06-09","eName":"Dole Manchild","genre":"Rock","price":"Free","supports":["Chloe Booth"," Unhale"],"ticketUrl":null,"time":" 9pm"}],"vName":"The Beast"},"type":"Feature"},{"geometry":{"coordinates":[144.9651425,-37.8119429],"type":"Point"},"properties":{"events":[{"categories":["Music","Dance"],"eDate":"2024-06-09","eName":"DOSA DOPA NAARM VOL. 01","genre":null,"price":"$23.46 - 28.56","supports":[],"ticketUrl":null,"time":" 7:30pm"},{"categories":["Free","Music"],"eDate":"2024-06-09","eName":"Cypher Theory: Mothafunk + Luna + Lewa","genre":"Electronic","price":"Free","supports":[],"ticketUrl":null,"time":" 9pm"}],"vName":"The Toff In Town"},"type":"Feature"},{"geometry":{"coordinates":[144.9846126,-37.7989941],"type":"Point"},"properties":{"events":[{"categories":["Music"],"eDate":"2024-06-09","eName":"The Tubs","genre":"Punk","price":"$23.50","supports":[],"ticketUrl":null,"time":" 7pm"},{"categories":["Music"],"eDate":"2024-06-09","eName":"Lincoln Le Fevre & The Insiders","genre":"Rock","price":"$23.50","supports":["Pinch Hitter"," Great Australian Bank"],"ticketUrl":null,"time":" 7pm"}],"vName":"The Tote Hotel"},"type":"Feature"},{"geometry":{"coordinates":[144.9807148,-37.7801461],"type":"Point"},"properties":{"events":[{"categories":["Free","Music"],"eDate":"2024-06-09","eName":"The Tommys","genre":"Rock","price":"Free","supports":[],"ticketUrl":null,"time":" 4pm"}],"vName":"Tramway Hotel"},"type":"Feature"},{"geometry":{"coordinates":[144.9618426,-37.8125531],"type":"Point"},"properties":{"events":[{"categories":["Free","Music"],"eDate":"2024-06-09","eName":"Jonra","genre":null,"price":"Free","supports":[],"ticketUrl":null,"time":" 3pm"}],"vName":"Whitehart Bar"},"type":"Feature"}],"type":"FeatureCollection"}