{"features":[{"geometry":{"coordinates":[144.978425,-37.79773],"type":"Point"},"properties":{"events":[{"categories":["Music"],"eDate":"2026-05-15","eName":"Santa Ana Rodeo","genre":null,"price":"$13.30","supports":["Munchy Dolphin"," Bollard"," Red Camelia"],"ticketUrl":null,"time":" 8:30pm"}],"vName":"Bar Open"},"type":"Feature"},{"geometry":{"coordinates":[144.978682,-37.7981225],"type":"Point"},"properties":{"events":[{"categories":["Free","Music"],"eDate":"2026-05-15","eName":"Luna The Moon","genre":null,"price":"Free","supports":[],"ticketUrl":null,"time":" 9pm"}],"vName":"Baxter's Lot"},"type":"Feature"},{"geometry":{"coordinates":[144.9891167,-37.7996488],"type":"Point"},"properties":{"events":[{"categories":["Music"],"eDate":"2026-05-15","eName":"Freya & The Vikings","genre":"Rock","price":"$10.00","supports":["Double Pumper"," Cranky Pants the Alchemist"],"ticketUrl":null,"time":" 8:30pm"}],"vName":"Bendigo Hotel"},"type":"Feature"},{"geometry":{"coordinates":[144.9607158,-37.776327],"type":"Point"},"properties":{"events":[{"categories":["Music"],"eDate":"2026-05-15","eName":"Joey Silveira","genre":"Rock","price":"$22.95","supports":["Ruby Dattner"," Paradise Valley"],"ticketUrl":null,"time":" 7:30pm"}],"vName":"Bergy Bandroom"},"type":"Feature"},{"geometry":{"coordinates":[144.9617083,-37.7704205],"type":"Point"},"properties":{"events":[{"categories":["Free","Music"],"eDate":"2026-05-15","eName":"Trago Amargo","genre":"Rock","price":"Free","supports":["Sam Brown"],"ticketUrl":null,"time":" 8:30pm"}],"vName":"Brunswick Artists' Bar"},"type":"Feature"},{"geometry":{"coordinates":[144.9617083,-37.7704205],"type":"Point"},"properties":{"events":[{"categories":["Music"],"eDate":"2026-05-15","eName":"Winter Blues At The Ballroom","genre":"Blues","price":"$56.10","supports":[],"ticketUrl":null,"time":" 8:30pm"}],"vName":"Brunswick Ballroom"},"type":"Feature"},{"geometry":{"coordinates":[145.0002585,-37.7592368],"type":"Point"},"properties":{"events":[{"categories":["Music"],"eDate":"2026-05-15","eName":"The Rartel Rock Gummo","genre":null,"price":"$10.00","supports":["Dead Ed"," Coolabah Kings"],"ticketUrl":null,"time":" 8pm"}],"vName":"Cafe Gummo"},"type":"Feature"},{"geometry":{"coordinates":[144.9248037,-37.7656716],"type":"Point"},"properties":{"events":[{"categories":["Music"],"eDate":"2026-05-15","eName":"Jack Gatto & Charlie Gaylard: Elvis Spectacular","genre":"Rock","price":"$49.90","supports":[],"ticketUrl":null,"time":" 7:45pm"}],"vName":"Clocktower Centre"},"type":"Feature"},{"geometry":{"coordinates":[144.9926664,-37.8248893],"type":"Point"},"properties":{"events":[{"categories":["Music"],"eDate":"2026-05-15","eName":"Eskimo Joe: Black Fingernails Red Wine 20th Anniversary Tour","genre":"Rock","price":"Free","supports":["Alex Lloyd"],"ticketUrl":null,"time":" 8:30pm"}],"vName":"Corner Hotel"},"type":"Feature"},{"geometry":{"coordinates":[144.9627513,-37.760963],"type":"Point"},"properties":{"events":[{"categories":["Music"],"eDate":"2026-05-15","eName":"Georgia Rodgers","genre":"Blues","price":"Free","supports":[],"ticketUrl":null,"time":" 8pm"}],"vName":"Edinburgh Castle Hotel"},"type":"Feature"},{"geometry":{"coordinates":[144.983442,-37.804851],"type":"Point"},"properties":{"events":[{"categories":["Music"],"eDate":"2026-05-15","eName":"Goblin Sound System presents Anti-Nuclear Anti-Militarisation Fundraiser for CANAM","genre":"Indie","price":"$10.00 - 15.00","supports":[],"ticketUrl":null,"time":" 7:30pm"}],"vName":"Grace Darling Hotel"},"type":"Feature"},{"geometry":{"coordinates":[144.9679835,-37.8201575],"type":"Point"},"properties":{"events":[{"categories":["Music"],"eDate":"2026-05-15","eName":"Boy & Bear","genre":"Indie","price":"$89.90","supports":["Bear's Den"],"ticketUrl":null,"time":" 7:30pm"}],"vName":"Hamer Hall (Arts Centre Melbourne)"},"type":"Feature"},{"geometry":{"coordinates":[144.973013,-37.8640582],"type":"Point"},"properties":{"events":[{"categories":["Music"],"eDate":"2026-05-15","eName":"Don’t Change: Ultimate INXS","genre":"Rock","price":"$45.00","supports":[],"ticketUrl":null,"time":" 7:30pm"},{"categories":["Music"],"eDate":"2026-05-15","eName":"Project Mayhem","genre":"Rock","price":"$10.75","supports":[],"ticketUrl":null,"time":" 7:30pm"}],"vName":"Hotel Esplanade (aka The Espy)"},"type":"Feature"},{"geometry":{"coordinates":[145.0358258,-37.9334203],"type":"Point"},"properties":{"events":[{"categories":["Music"],"eDate":"2026-05-15","eName":"UNDERSCORE","genre":"Electronic","price":"$30.00","supports":[],"ticketUrl":null,"time":" 7:30pm"}],"vName":"Kingston City Hall"},"type":"Feature"},{"geometry":{"coordinates":[144.9675876,-37.8240849],"type":"Point"},"properties":{"events":[{"categories":["Music"],"eDate":"2026-05-15","eName":"CzechMate: Meeting at the Crossroads","genre":"Classical","price":"$55.00","supports":[],"ticketUrl":null,"time":" 6pm"},{"categories":["Free","Music"],"eDate":"2026-05-15","eName":"Brahms Symphony No. 4","genre":"Classical","price":"Free","supports":[],"ticketUrl":null,"time":" 7:30pm"}],"vName":"Melbourne Recital Centre"},"type":"Feature"},{"geometry":{"coordinates":[144.9895284,-37.7993224],"type":"Point"},"properties":{"events":[{"categories":["Music"],"eDate":"2026-05-15","eName":"Vinted Vineer","genre":"Indie","price":"$18.40","supports":["Waist"," Red Moon Cowboy",""],"ticketUrl":null,"time":" 8pm"}],"vName":"Nighthawks"},"type":"Feature"},{"geometry":{"coordinates":[144.998414,-37.771471],"type":"Point"},"properties":{"events":[{"categories":["Music"],"eDate":"2026-05-15","eName":"Chris Cavill","genre":"Country/Folk","price":"$26.05","supports":["Paige Barnard"," DJ Ryan Meeking"],"ticketUrl":null,"time":" 8pm"}],"vName":"Northcote Social Club"},"type":"Feature"},{"geometry":{"coordinates":[144.9256335,-37.8296919],"type":"Point"},"properties":{"events":[{"categories":["Music"],"eDate":"2026-05-15","eName":"Thundercat","genre":"Jazz","price":"$99.90","supports":[],"ticketUrl":null,"time":" 7pm"}],"vName":"PICA (Port Melbourne Industrial Centre for the Arts)"},"type":"Feature"},{"geometry":{"coordinates":[144.96084,-37.813514],"type":"Point"},"properties":{"events":[{"categories":["Music"],"eDate":"2026-05-15","eName":"Ghibli Reimagined with Russell Tay Trio","genre":"Jazz","price":"Free","supports":[],"ticketUrl":null,"time":" 6pm"},{"categories":["Music"],"eDate":"2026-05-15","eName":"Mel Searle: An Ella Fitzgerald Tribute with Louis & Ella Duets","genre":"Jazz","price":"$45.00","supports":[],"ticketUrl":null,"time":" 6:30pm"},{"categories":["Music"],"eDate":"2026-05-15","eName":"CBG Presents: The Music of Snarky Puppy","genre":"Jazz","price":"$48.00","supports":[],"ticketUrl":null,"time":" 9pm"},{"categories":["Music"],"eDate":"2026-05-15","eName":"The Mile High Club with Pat Thiele & Chantal Mitvalsky","genre":"Jazz","price":"$45.00","supports":[],"ticketUrl":null,"time":" 9:30pm"}],"vName":"Paris Cat Jazz Club"},"type":"Feature"},{"geometry":{"coordinates":[144.993413,-37.8506652],"type":"Point"},"properties":{"events":[{"categories":["Music"],"eDate":"2026-05-15","eName":"Tiptoes","genre":"Electronic","price":"$21.42","supports":["Mara"," Charles-Eddy"," Oscar de Lima"],"ticketUrl":null,"time":"11:45pm"}],"vName":"Revolver Upstairs"},"type":"Feature"},{"geometry":{"coordinates":[144.9607404,-37.7743469],"type":"Point"},"properties":{"events":[{"categories":["Music"],"eDate":"2026-05-15","eName":"Y Fest","genre":null,"price":"Free","supports":["Buried Feather"," Hollie Joyce"," Grevillea"," T-Models"," Pong"],"ticketUrl":null,"time":" 6pm"}],"vName":"Stay Gold"},"type":"Feature"},{"geometry":{"coordinates":[144.9657057,-37.8061581],"type":"Point"},"properties":{"events":[{"categories":["Music"],"eDate":"2026-05-15","eName":"West End Gap","genre":null,"price":"$17.75","supports":["Sjay"," Banksia"],"ticketUrl":null,"time":" 8pm"}],"vName":"The Curtin"},"type":"Feature"},{"geometry":{"coordinates":[144.9463641,-37.8047757],"type":"Point"},"properties":{"events":[{"categories":["Music"],"eDate":"2026-05-15","eName":"Nancy & The Jam Fancys","genre":"Punk","price":"Free","supports":["The Mods"," Bovine"],"ticketUrl":null,"time":" 8:30pm"}],"vName":"The Last Chance Rock & Roll Bar"},"type":"Feature"},{"geometry":{"coordinates":[144.9708437,-37.7973184],"type":"Point"},"properties":{"events":[{"categories":["Comedy"],"eDate":"2026-05-15","eName":"The Big HOO-HAA!","genre":null,"price":"$30.00","supports":[],"ticketUrl":null,"time":" 8:30pm"}],"vName":"The Motley Bauhaus"},"type":"Feature"},{"geometry":{"coordinates":[144.9794553,-37.7982653],"type":"Point"},"properties":{"events":[{"categories":["Music"],"eDate":"2026-05-15","eName":"WILSN","genre":null,"price":"$39.69","supports":[],"ticketUrl":null,"time":" 7:30pm"},{"categories":["Music"],"eDate":"2026-05-15","eName":"WILSN","genre":null,"price":"$39.69","supports":[],"ticketUrl":null,"time":" 7:30pm"}],"vName":"The Night Cat"},"type":"Feature"},{"geometry":{"coordinates":[145.1818891,-37.8163371],"type":"Point"},"properties":{"events":[{"categories":["Music","Other \"Spoken Word, Poetry \""],"eDate":"2026-05-15","eName":"An Evening with Steve Kilbey","genre":"Indie","price":"$62.90","supports":[],"ticketUrl":null,"time":" 8pm"}],"vName":"The Round"},"type":"Feature"},{"geometry":{"coordinates":[144.9651425,-37.8119429],"type":"Point"},"properties":{"events":[{"categories":["Free","Music"],"eDate":"2026-05-15","eName":"Rewired Rhythms","genre":"Electronic","price":"Free","supports":[],"ticketUrl":null,"time":"11pm"}],"vName":"The Toff In Town"},"type":"Feature"},{"geometry":{"coordinates":[144.9870814,-37.799406],"type":"Point"},"properties":{"events":[{"categories":["Music"],"eDate":"2026-05-15","eName":"The Ironbark Brothers","genre":"Country/Folk","price":"Free","supports":[],"ticketUrl":null,"time":" 6pm"},{"categories":["Music"],"eDate":"2026-05-15","eName":"Lockjaw","genre":"Punk","price":"Free","supports":["Lay Low"," Knifepoint"," Rile"," No Truce"],"ticketUrl":null,"time":" 7:30pm"},{"categories":["Music"],"eDate":"2026-05-15","eName":"Murphy’s Law","genre":"Punk","price":"$50.50","supports":["Vicious Circle"," Rat Bait"," Implode"," Combat Rock"],"ticketUrl":null,"time":" 8pm"}],"vName":"The Tote Hotel"},"type":"Feature"},{"geometry":{"coordinates":[144.9661635,-37.8176298],"type":"Point"},"properties":{"events":[{"categories":["Free","Music"],"eDate":"2026-05-15","eName":"The Desi Rascalz","genre":"Electronic","price":"Free","supports":[],"ticketUrl":null,"time":" 9pm"}],"vName":"Wax Music Lounge"},"type":"Feature"},{"geometry":{"coordinates":[144.9984324,-37.7729134],"type":"Point"},"properties":{"events":[{"categories":["Music"],"eDate":"2026-05-15","eName":"LCO Trio","genre":"Jazz","price":"Free","supports":[],"ticketUrl":null,"time":" 6pm"}],"vName":"Wesley Anne"},"type":"Feature"}],"type":"FeatureCollection"}