{"features":[{"geometry":{"coordinates":[144.978682,-37.7981225],"type":"Point"},"properties":{"events":[{"categories":["Free","Music"],"eDate":"2024-09-08","eName":"Lewis C","genre":null,"price":"Free","supports":[],"ticketUrl":null,"time":" 9:30pm"}],"vName":"Baxter's Lot"},"type":"Feature"},{"geometry":{"coordinates":[144.9607158,-37.776327],"type":"Point"},"properties":{"events":[{"categories":["Music"],"eDate":"2024-09-08","eName":"Bergy Bandroom's Sunday School","genre":"Punk","price":"$16.85","supports":["Dolls"," Unscored"],"ticketUrl":null,"time":" 4pm"}],"vName":"Bergy Bandroom"},"type":"Feature"},{"geometry":{"coordinates":[144.9945274,-37.8001115],"type":"Point"},"properties":{"events":[{"categories":["Free","Music","Festival","Dance","Other \"Food & Drink\""],"eDate":"2024-09-08","eName":"Hasta Pronto!: Son Quba","genre":null,"price":"Free","supports":["DJ Alcalde"],"ticketUrl":null,"time":" 4pm"}],"vName":"Bodriggy Brewing Company"},"type":"Feature"},{"geometry":{"coordinates":[144.9936498,-37.8000264],"type":"Point"},"properties":{"events":[{"categories":["Free","Music"],"eDate":"2024-09-08","eName":"Rhiz & the Sugar Plums","genre":"Rock","price":"Free","supports":["DJ Jimbob Swills"],"ticketUrl":null,"time":" 3pm"},{"categories":["Comedy"],"eDate":"2024-09-08","eName":"Lulie Comedy Club","genre":null,"price":"$15.00","supports":[],"ticketUrl":null,"time":" 7pm"}],"vName":"Lulie Tavern"},"type":"Feature"},{"geometry":{"coordinates":[144.8971518,-37.8054274],"type":"Point"},"properties":{"events":[{"categories":["Music"],"eDate":"2024-09-08","eName":"Sally Ford & The Idiomatics","genre":"Electronic","price":"$15.00 - 20.00","supports":["Synthotronica"],"ticketUrl":null,"time":" 2:30pm"}],"vName":"Mamma Chen's"},"type":"Feature"},{"geometry":{"coordinates":[144.9786817,-37.8671902],"type":"Point"},"properties":{"events":[{"categories":["Music"],"eDate":"2024-09-08","eName":"25 Years Of Big & Horny","genre":"Jazz","price":"$55.00 - 65.00","supports":[],"ticketUrl":null,"time":" 3pm"}],"vName":"Memo Music Hall"},"type":"Feature"},{"geometry":{"coordinates":[145.3553553,-37.9078552],"type":"Point"},"properties":{"events":[{"categories":["Free","Music"],"eDate":"2024-09-08","eName":"James Harvey","genre":null,"price":"Free","supports":[],"ticketUrl":null,"time":"12pm"}],"vName":"Micawber Tavern"},"type":"Feature"},{"geometry":{"coordinates":[144.9631913,-37.7617818],"type":"Point"},"properties":{"events":[{"categories":["Music"],"eDate":"2024-09-08","eName":"Iseula + LhÄ“on","genre":"Indie","price":"$10.00","supports":[],"ticketUrl":null,"time":" 8pm"}],"vName":"Ringo Barr"},"type":"Feature"},{"geometry":{"coordinates":[144.9983987,-37.7729204],"type":"Point"},"properties":{"events":[{"categories":["Music"],"eDate":"2024-09-08","eName":"Blue Windows","genre":null,"price":"$20.00","supports":[],"ticketUrl":null,"time":" 3pm"}],"vName":"Wesley Anne"},"type":"Feature"}],"type":"FeatureCollection"}