{"features":[{"geometry":{"coordinates":[144.9763781,-37.7983136],"type":"Point"},"properties":{"events":[{"categories":["Music"],"eDate":"2024-03-03","eName":"The Nothing To Something Show","genre":"Hip Hop","price":"$16.53","supports":["RealiTAY"," Bowman"," Agius"," RX.RRI"," KRP095"," LB"],"ticketUrl":null,"time":" 8pm"}],"vName":"Bad Decisions Bar"},"type":"Feature"},{"geometry":{"coordinates":[144.978425,-37.79773],"type":"Point"},"properties":{"events":[{"categories":["Free","Music"],"eDate":"2024-03-03","eName":"Steamboat Whistlers","genre":"Jazz","price":"Free","supports":[],"ticketUrl":null,"time":" 5:30pm"}],"vName":"Bar Open"},"type":"Feature"},{"geometry":{"coordinates":[144.9617018,-37.7704566],"type":"Point"},"properties":{"events":[{"categories":["Free","Music"],"eDate":"2024-03-03","eName":"Shaky Stills: Sydney Road Street Party","genre":"Country/Folk","price":"Free","supports":[],"ticketUrl":null,"time":" 2pm"}],"vName":"Brunswick Artists' Bar"},"type":"Feature"},{"geometry":{"coordinates":[144.9947908,-37.8491931],"type":"Point"},"properties":{"events":[{"categories":["Theatre"],"eDate":"2024-03-03","eName":"7 Captiva Road","genre":null,"price":"$52.00","supports":[],"ticketUrl":null,"time":" 2:30pm"}],"vName":"Chapel Off Chapel"},"type":"Feature"},{"geometry":{"coordinates":[144.96741062735794,-37.82454855],"type":"Point"},"properties":{"events":[{"categories":["Music"],"eDate":"2024-03-03","eName":"Melbourne Chamber Orchestra 2024: Music Speaks","genre":"Classical","price":"$70.00","supports":[],"ticketUrl":null,"time":" 2:30pm"}],"vName":"Melbourne Recital Centre"},"type":"Feature"},{"geometry":{"coordinates":[145.3553553,-37.9078552],"type":"Point"},"properties":{"events":[{"categories":["Free","Music"],"eDate":"2024-03-03","eName":"Pure Logic","genre":null,"price":"Free","supports":[],"ticketUrl":null,"time":" 2pm"}],"vName":"Micawber Tavern"},"type":"Feature"},{"geometry":{"coordinates":[144.9631913,-37.7617818],"type":"Point"},"properties":{"events":[{"categories":["Music"],"eDate":"2024-03-03","eName":"Sidney","genre":"Indie","price":"$25.00","supports":[],"ticketUrl":null,"time":" 2pm"},{"categories":["Free","Music"],"eDate":"2024-03-03","eName":"Wobbygong","genre":"Indie","price":"Free","supports":[],"ticketUrl":null,"time":" 8pm"}],"vName":"Ringo Barr"},"type":"Feature"},{"geometry":{"coordinates":[145.35345070507591,-37.9100746],"type":"Point"},"properties":{"events":[{"categories":["Music"],"eDate":"2024-03-03","eName":"Boo Seeka","genre":"Electronic","price":"$40.00","supports":[],"ticketUrl":null,"time":" 6pm"}],"vName":"Sooki Lounge"},"type":"Feature"},{"geometry":{"coordinates":[144.9555612,-37.8066759],"type":"Point"},"properties":{"events":[{"categories":["Music"],"eDate":"2024-03-03","eName":"Burning Bridges (with Jim Taylor)","genre":"Country/Folk","price":"Free","supports":[],"ticketUrl":null,"time":" 4pm"}],"vName":"The Drunken Poet"},"type":"Feature"}],"type":"FeatureCollection"}