{"features":[{"geometry":{"coordinates":[144.9982614,-37.7691418],"type":"Point"},"properties":{"events":[{"categories":["Music"],"eDate":"2023-12-15","eName":"Curva.ture Fundraiser for Palestine and Strathbogie Forest + Raffle","genre":null,"price":"$20.00","supports":[],"ticketUrl":null,"time":" 8pm"}],"vName":"24 Moons"},"type":"Feature"},{"geometry":{"coordinates":[144.99828116650363,-37.7713296],"type":"Point"},"properties":{"events":[{"categories":["Music"],"eDate":"2023-12-15","eName":"Folk Punk Night","genre":null,"price":"$10.00","supports":[],"ticketUrl":null,"time":" 7pm"}],"vName":"Bar 303"},"type":"Feature"},{"geometry":{"coordinates":[144.978425,-37.79773],"type":"Point"},"properties":{"events":[{"categories":["Free","Music"],"eDate":"2023-12-15","eName":"The Chilli Pickers","genre":"Country/Folk","price":"Free","supports":[],"ticketUrl":null,"time":" 6pm"},{"categories":["Music"],"eDate":"2023-12-15","eName":"SoSo","genre":"Punk","price":"$17.35","supports":[],"ticketUrl":null,"time":" 8:30pm"}],"vName":"Bar Open"},"type":"Feature"},{"geometry":{"coordinates":[144.9607158,-37.776327],"type":"Point"},"properties":{"events":[{"categories":["Music"],"eDate":"2023-12-15","eName":"Feverdreams","genre":"Rock","price":"$16.85","supports":["Eastbound Buzz"," The Jives"],"ticketUrl":null,"time":" 8pm"}],"vName":"Bergy Bandroom"},"type":"Feature"},{"geometry":{"coordinates":[144.9617018,-37.7704566],"type":"Point"},"properties":{"events":[{"categories":["Other \"Cabaret\""],"eDate":"2023-12-15","eName":"Maison Burlesque: Unwrapped","genre":null,"price":"$60.00","supports":[],"ticketUrl":null,"time":" 8pm"}],"vName":"Brunswick Ballroom"},"type":"Feature"},{"geometry":{"coordinates":[144.9713425,-37.8128595],"type":"Point"},"properties":{"events":[{"categories":["Music"],"eDate":"2023-12-15","eName":"Buried Feather + Heavy Amber","genre":"Rock","price":"$17.48","supports":[],"ticketUrl":null,"time":" 8pm"}],"vName":"Cherry Bar"},"type":"Feature"},{"geometry":{"coordinates":[144.9628440552175,-37.76100605],"type":"Point"},"properties":{"events":[{"categories":["Free","Music","Trivia"],"eDate":"2023-12-15","eName":"Bingo & Disco","genre":null,"price":"Free","supports":[],"ticketUrl":null,"time":" 8pm"}],"vName":"Edinburgh Castle Hotel"},"type":"Feature"},{"geometry":{"coordinates":[144.9875917,-37.7963837],"type":"Point"},"properties":{"events":[{"categories":["Music"],"eDate":"2023-12-15","eName":"Honky Tonk Town #6","genre":"Country/Folk","price":"Free","supports":[],"ticketUrl":null,"time":" 8pm"}],"vName":"Gem Bar"},"type":"Feature"},{"geometry":{"coordinates":[144.9764962,-37.7983139],"type":"Point"},"properties":{"events":[{"categories":["Music"],"eDate":"2023-12-15","eName":"indigomerkaba","genre":"Hip Hop","price":"$35.00","supports":["Lil Sknow"," Ringwood Records"," Kussin"," Ash the Realist"," Duge"],"ticketUrl":null,"time":" 7pm"}],"vName":"Laundry Bar"},"type":"Feature"},{"geometry":{"coordinates":[145.0008148,-37.8107158],"type":"Point"},"properties":{"events":[{"categories":["Music"],"eDate":"2023-12-15","eName":"Merry Causemas: A Worthy Benefit Concert","genre":"Rock","price":"$34.90","supports":[],"ticketUrl":null,"time":" 7pm"}],"vName":"Leadbeater Hotel"},"type":"Feature"},{"geometry":{"coordinates":[144.8971518,-37.8054274],"type":"Point"},"properties":{"events":[{"categories":["Music"],"eDate":"2023-12-15","eName":"Trip To Paris","genre":null,"price":"$15.00 - 20.00","supports":["Wasteman"," Romcom"],"ticketUrl":null,"time":" 6pm"}],"vName":"Mamma Chen's"},"type":"Feature"},{"geometry":{"coordinates":[144.96741062735794,-37.82454855],"type":"Point"},"properties":{"events":[{"categories":["Music"],"eDate":"2023-12-15","eName":"Ros Bandt with Alana Blackburn: Sounding Spaces","genre":"Experimental","price":"$25.00","supports":[],"ticketUrl":null,"time":" 6pm"}],"vName":"Melbourne Recital Centre"},"type":"Feature"},{"geometry":{"coordinates":[145.3553553,-37.9078552],"type":"Point"},"properties":{"events":[{"categories":["Free","Music"],"eDate":"2023-12-15","eName":"John Crosbie","genre":"Blues","price":"Free","supports":[],"ticketUrl":null,"time":" 7pm"}],"vName":"Micawber Tavern"},"type":"Feature"},{"geometry":{"coordinates":[144.9712356,-37.812902],"type":"Point"},"properties":{"events":[{"categories":["Comedy"],"eDate":"2023-12-15","eName":"Basement Comedy Club Fridays","genre":null,"price":"$25.00","supports":[],"ticketUrl":null,"time":" 8pm"}],"vName":"Morris House"},"type":"Feature"},{"geometry":{"coordinates":[144.9846126,-37.7989941],"type":"Point"},"properties":{"events":[{"categories":["Music"],"eDate":"2023-12-15","eName":"Dolls","genre":null,"price":"Free","supports":["Kill Bell"," Licklash"],"ticketUrl":null,"time":" 6pm"}],"vName":"Nighthawks"},"type":"Feature"},{"geometry":{"coordinates":[144.998414,-37.771471],"type":"Point"},"properties":{"events":[{"categories":["Music"],"eDate":"2023-12-15","eName":"Darren Hanlon (Xmas Show)","genre":"Country/Folk","price":"$40.40","supports":[],"ticketUrl":null,"time":" 8pm"}],"vName":"Northcote Social Club"},"type":"Feature"},{"geometry":{"coordinates":[144.97711,-37.79833],"type":"Point"},"properties":{"events":[{"categories":["Music"],"eDate":"2023-12-15","eName":"Munchy Dolphin","genre":"Rock","price":"$11.25","supports":["Creature Fear"," Norwood"],"ticketUrl":null,"time":" 8pm"},{"categories":["Music"],"eDate":"2023-12-15","eName":"Munchy Dolphin","genre":"Indie","price":"$11.25","supports":["Norwood"," Creature Fear"],"ticketUrl":null,"time":" 8pm"}],"vName":"Old Bar"},"type":"Feature"},{"geometry":{"coordinates":[144.90239079583333,-37.79990865],"type":"Point"},"properties":{"events":[{"categories":["Trivia"],"eDate":"2023-12-15","eName":"Markus's Top Surgery Fundraiser Bingo","genre":null,"price":"$10.00","supports":[],"ticketUrl":null,"time":" 7pm"}],"vName":"Pride Of Our Footscray Community Bar"},"type":"Feature"},{"geometry":{"coordinates":[144.9631913,-37.7617818],"type":"Point"},"properties":{"events":[{"categories":["Free","Music"],"eDate":"2023-12-15","eName":"Hidden Indie Vol. 1","genre":"Indie","price":"Free","supports":[],"ticketUrl":null,"time":" 8pm"}],"vName":"Ringo Barr"},"type":"Feature"},{"geometry":{"coordinates":[144.9706095,-37.7783326],"type":"Point"},"properties":{"events":[{"categories":["Free","Music"],"eDate":"2023-12-15","eName":"Gusto Gusto + Astrovillain","genre":"Rock","price":"Free","supports":[],"ticketUrl":null,"time":" 9pm"}],"vName":"The Beast"},"type":"Feature"},{"geometry":{"coordinates":[144.9555612,-37.8066759],"type":"Point"},"properties":{"events":[{"categories":["Free","Music"],"eDate":"2023-12-15","eName":"Friday Night Live at The Poet: O. Gibson Bluegrass","genre":null,"price":"Free","supports":[],"ticketUrl":null,"time":" 8:30pm"},{"categories":["Free","Music"],"eDate":"2023-12-15","eName":"Duncan Stephens & Jim Taylor","genre":null,"price":"Free","supports":[],"ticketUrl":null,"time":" 8:30pm"}],"vName":"The Drunken Poet"},"type":"Feature"},{"geometry":{"coordinates":[144.9708437,-37.7973184],"type":"Point"},"properties":{"events":[{"categories":["Music"],"eDate":"2023-12-15","eName":"Nitida + Party Pest","genre":null,"price":"$15.00","supports":[],"ticketUrl":null,"time":" 8:30pm"}],"vName":"The Motley Bauhaus"},"type":"Feature"},{"geometry":{"coordinates":[144.9830837,-37.7988316],"type":"Point"},"properties":{"events":[{"categories":["Music"],"eDate":"2023-12-15","eName":"WAAX","genre":"Rock","price":"$39.66","supports":[],"ticketUrl":null,"time":" 7:30pm"},{"categories":["Free","Music"],"eDate":"2023-12-15","eName":"Four To The Floor: Merve","genre":"Electronic","price":"Free","supports":[],"ticketUrl":null,"time":"11pm"}],"vName":"The Night Cat"},"type":"Feature"},{"geometry":{"coordinates":[144.9846126,-37.7989941],"type":"Point"},"properties":{"events":[{"categories":["Music"],"eDate":"2023-12-15","eName":"SO.Crates","genre":"R&B","price":"$11.25","supports":[],"ticketUrl":null,"time":" 8pm"},{"categories":["Music"],"eDate":"2023-12-15","eName":"Dear Thieves + Cakes","genre":null,"price":"$15.30","supports":["Stone Witches"," Alex Elbery"],"ticketUrl":null,"time":" 8:30pm"}],"vName":"The Tote Hotel"},"type":"Feature"},{"geometry":{"coordinates":[144.9618426,-37.8125531],"type":"Point"},"properties":{"events":[{"categories":["Free","Music","Other \"Food & Drink\""],"eDate":"2023-12-15","eName":"Liquid Gold","genre":"Electronic","price":"Free","supports":["DJ RG"],"ticketUrl":null,"time":" 7pm"}],"vName":"Whitehart Bar"},"type":"Feature"}],"type":"FeatureCollection"}