{"features":[{"geometry":{"coordinates":[144.968386,-37.81843],"type":"Point"},"properties":{"events":[{"categories":["Music","Comedy"],"eDate":"2025-04-06","eName":"Cameron James: Broken Records","genre":"Indie","price":"$25.00 - 35.00","supports":[],"ticketUrl":null,"time":" 6:30pm"}],"vName":"ACMI"},"type":"Feature"},{"geometry":{"coordinates":[144.9679835243618,-37.8201575],"type":"Point"},"properties":{"events":[{"categories":["Music","Comedy","Other \"Cabaret\""],"eDate":"2025-04-06","eName":"Jude Perl: Jude Perl Tries To Finish A Sentence","genre":"Pop","price":"$32.00 - 35.00","supports":[],"ticketUrl":null,"time":" 5pm"},{"categories":["Comedy"],"eDate":"2025-04-06","eName":"Geraldine Hickey: Meander","genre":null,"price":"$38.00 - 42.00","supports":[],"ticketUrl":null,"time":" 5:15pm"},{"categories":["Comedy","Other \"Cabaret\""],"eDate":"2025-04-06","eName":"The Booth Variety Spectacular & Formal Apology Hour!","genre":null,"price":"$23.00 - 33.00","supports":[],"ticketUrl":null,"time":" 6:15pm"},{"categories":["Music","Comedy"],"eDate":"2025-04-06","eName":"Gillian Cosgriff: Fresh New Worries","genre":"Pop","price":"$30.00 - 39.00","supports":[],"ticketUrl":null,"time":" 6:20pm"},{"categories":["Music","Comedy","Other \"Cabaret\""],"eDate":"2025-04-06","eName":"One Man Musical By Flo & Joan","genre":"Classical","price":"$32.00 - 36.00","supports":[],"ticketUrl":null,"time":" 7pm"},{"categories":["Music","Comedy","Other \"Cabaret\""],"eDate":"2025-04-06","eName":"Ali McGregor's: Late-Nite Variety Nite Night","genre":"Pop","price":"$37.00 - 40.00","supports":[],"ticketUrl":null,"time":" 9pm"}],"vName":"Arts Centre Melbourne"},"type":"Feature"},{"geometry":{"coordinates":[144.978682,-37.7981225],"type":"Point"},"properties":{"events":[{"categories":["Free","Music"],"eDate":"2025-04-06","eName":"Harrisen Hughes","genre":null,"price":"Free","supports":[],"ticketUrl":null,"time":" 9pm"}],"vName":"Baxter's Lot"},"type":"Feature"},{"geometry":{"coordinates":[144.96918237308262,-37.817775499999996],"type":"Point"},"properties":{"events":[{"categories":["Comedy"],"eDate":"2025-04-06","eName":"Bron Lewis: Who’s Talking?","genre":null,"price":"$25.00 - 30.00","supports":[],"ticketUrl":null,"time":" 5:15pm"}],"vName":"Beer Deluxe"},"type":"Feature"},{"geometry":{"coordinates":[144.9607158,-37.776327],"type":"Point"},"properties":{"events":[{"categories":["Music"],"eDate":"2025-04-06","eName":"Kaiyah Mercedes","genre":"Indie","price":"$22.95","supports":["Local Sweetheart"," My Giddy Aunt"],"ticketUrl":null,"time":" 1pm"},{"categories":["Comedy","Trivia","Other \"Spoken Word\"","Other \"Poetry & Forums\""],"eDate":"2025-04-06","eName":"WrestleBrainia VII","genre":null,"price":"$30.00","supports":[],"ticketUrl":null,"time":" 7pm"}],"vName":"Bergy Bandroom"},"type":"Feature"},{"geometry":{"coordinates":[144.9945274,-37.8001115],"type":"Point"},"properties":{"events":[{"categories":["Festival","Comedy","Other \"Food & Drink\""],"eDate":"2025-04-06","eName":"On The Gags: Melbourne Comedy Festival","genre":null,"price":"$27.00","supports":[],"ticketUrl":null,"time":" 7:30pm"}],"vName":"Bodriggy Brewing Company"},"type":"Feature"},{"geometry":{"coordinates":[144.96947,-37.816565],"type":"Point"},"properties":{"events":[{"categories":["Music"],"eDate":"2025-04-06","eName":"Trentemøller","genre":"Electronic","price":"$89.90","supports":[],"ticketUrl":null,"time":" 7pm"}],"vName":"Forum Melbourne"},"type":"Feature"},{"geometry":{"coordinates":[145.0008148,-37.8107158],"type":"Point"},"properties":{"events":[{"categories":["Comedy"],"eDate":"2025-04-06","eName":"Nans Favourites: The Great Aussie Pub Crawl","genre":null,"price":"$51.00","supports":[],"ticketUrl":null,"time":" 6pm"}],"vName":"Leadbeater Hotel"},"type":"Feature"},{"geometry":{"coordinates":[144.8971518,-37.8054274],"type":"Point"},"properties":{"events":[{"categories":["Music"],"eDate":"2025-04-06","eName":"Scarlet Whine","genre":null,"price":"$15.00","supports":["Orphix"],"ticketUrl":null,"time":" 7:30pm"}],"vName":"Mamma Chen's"},"type":"Feature"},{"geometry":{"coordinates":[144.9659879,-37.8147557],"type":"Point"},"properties":{"events":[{"categories":["Comedy"],"eDate":"2025-04-06","eName":"Melanie Bracewell: A Little Treat","genre":null,"price":"$35.00 - 45.00","supports":[],"ticketUrl":null,"time":" 5:15pm"}],"vName":"Max Watt's (Melbourne)"},"type":"Feature"},{"geometry":{"coordinates":[144.96741062735794,-37.82454855],"type":"Point"},"properties":{"events":[{"categories":["Music"],"eDate":"2025-04-06","eName":"Bach's Orchestral Suites","genre":"Classical","price":"$30.00 - 175.00","supports":[],"ticketUrl":null,"time":" 5pm"}],"vName":"Melbourne Recital Centre"},"type":"Feature"},{"geometry":{"coordinates":[144.9627231,-37.8073581],"type":"Point"},"properties":{"events":[{"categories":["Comedy"],"eDate":"2025-04-06","eName":"Nazeem Hussain: You Paid For This","genre":null,"price":"$35.00 - 45.00","supports":[],"ticketUrl":null,"time":" 5pm"},{"categories":["Comedy"],"eDate":"2025-04-06","eName":"Tom Cashman: 2 Truths, 1 Lie & 17 Slight Exaggerations","genre":null,"price":"$25.00 - 35.00","supports":[],"ticketUrl":null,"time":" 6:40pm"}],"vName":"Melbourne Town Hall"},"type":"Feature"},{"geometry":{"coordinates":[144.9712356,-37.812902],"type":"Point"},"properties":{"events":[{"categories":["Comedy"],"eDate":"2025-04-06","eName":"Best of Melbourne Comedy","genre":null,"price":"$27.00","supports":[],"ticketUrl":null,"time":" 6:45pm"},{"categories":["Comedy"],"eDate":"2025-04-06","eName":"Guy Williams: If you midly criticise me I’ll say its cancel culture and turn to the alt right","genre":null,"price":"$25.00 - 35.00","supports":[],"ticketUrl":null,"time":" 7:50pm"}],"vName":"Morris House"},"type":"Feature"},{"geometry":{"coordinates":[144.9977626,-37.7755001],"type":"Point"},"properties":{"events":[{"categories":["Music"],"eDate":"2025-04-06","eName":"Crash Test Dummies","genre":"Rock","price":"$79.90","supports":["Hassall"],"ticketUrl":null,"time":" 7pm"}],"vName":"Northcote Theatre"},"type":"Feature"},{"geometry":{"coordinates":[145.08963741959553,-37.896857600000004],"type":"Point"},"properties":{"events":[{"categories":["Music"],"eDate":"2025-04-06","eName":"Sing: Olivia & Karen","genre":"Pop","price":"$45.00","supports":[],"ticketUrl":null,"time":" 4pm"}],"vName":"Oakleigh-Carnegie RSL"},"type":"Feature"},{"geometry":{"coordinates":[144.9952245,-37.8510689],"type":"Point"},"properties":{"events":[{"categories":["Comedy","Theatre","Other \"Spoken Word\"","Other \"Poetry & Forums\"","Other \"Cabaret\""],"eDate":"2025-04-06","eName":"Katie Reddin-Clancy: End Game","genre":"Jazz","price":"$25.00 - 35.00","supports":[],"ticketUrl":null,"time":" 2pm"}],"vName":"The MC Showroom"},"type":"Feature"},{"geometry":{"coordinates":[144.9830837,-37.7988316],"type":"Point"},"properties":{"events":[{"categories":["Music","Dance"],"eDate":"2025-04-06","eName":"Domingo Latino - Sazón","genre":"Jazz","price":"$29.57 - 39.76","supports":[],"ticketUrl":null,"time":" 6:45pm"}],"vName":"The Night Cat"},"type":"Feature"},{"geometry":{"coordinates":[144.9846126,-37.7989941],"type":"Point"},"properties":{"events":[{"categories":["Music"],"eDate":"2025-04-06","eName":"Idiom Flesh: Fleshamorphosis","genre":null,"price":"$23.50","supports":["Rowland & The Howards"],"ticketUrl":null,"time":" 4pm"},{"categories":["Music"],"eDate":"2025-04-06","eName":"Souls Of Ambience","genre":"Rock","price":"$11.25","supports":["Sweet Death Machine"," Split The Sun"],"ticketUrl":null,"time":" 7pm"}],"vName":"The Tote Hotel"},"type":"Feature"}],"type":"FeatureCollection"}