{"features":[{"geometry":{"coordinates":[144.9679835243618,-37.8201575],"type":"Point"},"properties":{"events":[{"categories":["Comedy"],"eDate":"2024-04-06","eName":"Kaboom!","genre":null,"price":"$25.00 - 115.00","supports":[],"ticketUrl":null,"time":" 2pm"},{"categories":["Comedy","Other \"Food & Drink\""],"eDate":"2024-04-06","eName":"Merrick Watts: An Idiot's Guide to Wine - Volume Two","genre":null,"price":"$60.00 - 70.00","supports":[],"ticketUrl":null,"time":" 6pm"}],"vName":"Arts Centre Melbourne"},"type":"Feature"},{"geometry":{"coordinates":[144.9500257,-37.8032773],"type":"Point"},"properties":{"events":[{"categories":["Free","Art"],"eDate":"2024-04-06","eName":"ನಿರೀಕ್ಷಣೆ nireekshane","genre":null,"price":"Free","supports":[],"ticketUrl":null,"time":"11am"},{"categories":["Free","Art"],"eDate":"2024-04-06","eName":"ಒಡಲಾಳ Odalala","genre":null,"price":"Free","supports":[],"ticketUrl":null,"time":"11am"}],"vName":"Arts House"},"type":"Feature"},{"geometry":{"coordinates":[144.9715791,-37.8140656],"type":"Point"},"properties":{"events":[{"categories":["Comedy"],"eDate":"2024-04-06","eName":"Multicultural Comedy Night","genre":null,"price":"$49.90 - 59.90","supports":["more"],"ticketUrl":null,"time":" 5pm"}],"vName":"Athenaeum Theatre"},"type":"Feature"},{"geometry":{"coordinates":[144.9763781,-37.7983136],"type":"Point"},"properties":{"events":[{"categories":["Music"],"eDate":"2024-04-06","eName":"Club Riot: LGBTQ Alternative Party","genre":"Punk","price":"$15.00","supports":["Loveboner"," Licklash"," Heterophobes"," Various DJs"],"ticketUrl":null,"time":" 6pm"},{"categories":["Music"],"eDate":"2024-04-06","eName":"Club Riot","genre":"Electronic","price":"$15.00","supports":[],"ticketUrl":null,"time":" 8pm"}],"vName":"Bad Decisions Bar"},"type":"Feature"},{"geometry":{"coordinates":[144.99828116650363,-37.7713296],"type":"Point"},"properties":{"events":[{"categories":["Free","Music"],"eDate":"2024-04-06","eName":"Rudi Soundsystem: Adrians Wall","genre":"Global","price":"Free","supports":[],"ticketUrl":null,"time":" 9pm"}],"vName":"Bar 303"},"type":"Feature"},{"geometry":{"coordinates":[144.978425,-37.79773],"type":"Point"},"properties":{"events":[{"categories":["Music"],"eDate":"2024-04-06","eName":"Admiral Ackbar's Dishonourable Discharge","genre":"Punk","price":"$17.35","supports":["One Square Mile"," Hamapple"," Westall 66"],"ticketUrl":null,"time":" 8:30pm"},{"categories":["Free","Music"],"eDate":"2024-04-06","eName":"Midnight Circuitry / Synaptic Dreams","genre":"Electronic","price":"Free","supports":[],"ticketUrl":null,"time":"11pm"}],"vName":"Bar Open"},"type":"Feature"},{"geometry":{"coordinates":[144.9607158,-37.776327],"type":"Point"},"properties":{"events":[{"categories":["Music"],"eDate":"2024-04-06","eName":"Little Red Trucks: Bergy Bandroom Takeover","genre":"Rock","price":"$16.85","supports":[],"ticketUrl":null,"time":" 8pm"}],"vName":"Bergy Bandroom"},"type":"Feature"},{"geometry":{"coordinates":[144.9617018,-37.7704566],"type":"Point"},"properties":{"events":[{"categories":["Music"],"eDate":"2024-04-06","eName":"Brunswick Big Band","genre":"Jazz","price":"$38.86","supports":[],"ticketUrl":null,"time":" 2pm"},{"categories":["Music"],"eDate":"2024-04-06","eName":"Zoë Fox & The Rocket Clocks","genre":"Rock","price":"$28.15","supports":["Druid Fluids"," Heavy Amber"],"ticketUrl":null,"time":" 7pm"}],"vName":"Brunswick Ballroom"},"type":"Feature"},{"geometry":{"coordinates":[144.9713425,-37.8128595],"type":"Point"},"properties":{"events":[{"categories":["Music"],"eDate":"2024-04-06","eName":"Murray Cook’s Soul Movers","genre":"Soul/Funk","price":"$22.59","supports":["Willie J & The Bad Books"],"ticketUrl":null,"time":" 8pm"}],"vName":"Cherry Bar"},"type":"Feature"},{"geometry":{"coordinates":[144.99266639479475,-37.82488935],"type":"Point"},"properties":{"events":[{"categories":["Music"],"eDate":"2024-04-06","eName":"Rolling Stones Kooyong Celebration FEAT: The Monkey Men","genre":"Rock","price":"$79.90","supports":[],"ticketUrl":null,"time":"12:30pm"},{"categories":["Music"],"eDate":"2024-04-06","eName":"Third Eye: Upon The Fault Line","genre":"Metal","price":"$40.00","supports":["Sonic 7emple"],"ticketUrl":null,"time":" 8pm"}],"vName":"Corner Hotel"},"type":"Feature"},{"geometry":{"coordinates":[144.9875917,-37.7963837],"type":"Point"},"properties":{"events":[{"categories":["Free","Music"],"eDate":"2024-04-06","eName":"Radium Dolls + The Halves","genre":"Rock","price":"Free","supports":[],"ticketUrl":null,"time":" 4pm"},{"categories":["Free","Music"],"eDate":"2024-04-06","eName":"Swinging Doors: A Celebration of Merle Haggard","genre":"Country/Folk","price":"Free","supports":[],"ticketUrl":null,"time":" 8pm"}],"vName":"Gem Bar"},"type":"Feature"},{"geometry":{"coordinates":[144.973013,-37.8640582],"type":"Point"},"properties":{"events":[{"categories":["Music"],"eDate":"2024-04-06","eName":"Augie March","genre":"Indie","price":"$49.50","supports":["Marty Frawley Trio"],"ticketUrl":null,"time":" 4pm"}],"vName":"Hotel Esplanade (aka The Espy)"},"type":"Feature"},{"geometry":{"coordinates":[144.9596527,-37.7720304],"type":"Point"},"properties":{"events":[{"categories":["Music"],"eDate":"2024-04-06","eName":"We Lost The Sea","genre":"Experimental","price":"$44.37","supports":[],"ticketUrl":null,"time":" 8pm"}],"vName":"Howler"},"type":"Feature"},{"geometry":{"coordinates":[144.9764962,-37.7983139],"type":"Point"},"properties":{"events":[{"categories":["Music"],"eDate":"2024-04-06","eName":"Pull Up Selector: Everything Dancehall","genre":null,"price":"$17.19","supports":["Daphne"," Gloria"," Chuby Dice"],"ticketUrl":null,"time":" 9pm"},{"categories":["Music"],"eDate":"2024-04-06","eName":"More Life","genre":null,"price":"$26.85","supports":["30SIDEACE"," MG30"],"ticketUrl":null,"time":" 9pm"},{"categories":["Music"],"eDate":"2024-04-06","eName":"LAUNDRY - Saturdays","genre":null,"price":"$16.53","supports":[],"ticketUrl":null,"time":"10pm"}],"vName":"Laundry Bar"},"type":"Feature"},{"geometry":{"coordinates":[144.96741062735794,-37.82454855],"type":"Point"},"properties":{"events":[{"categories":["Music"],"eDate":"2024-04-06","eName":"Blind Boys of Alabama","genre":"Blues","price":"$89.00","supports":[],"ticketUrl":null,"time":" 7:30pm"}],"vName":"Melbourne Recital Centre"},"type":"Feature"},{"geometry":{"coordinates":[145.1496717,-37.7125259],"type":"Point"},"properties":{"events":[{"categories":["Music"],"eDate":"2024-04-06","eName":"Million Dollar Riff (MDR)","genre":"Rock","price":"$25.00","supports":[],"ticketUrl":null,"time":" 9pm"}],"vName":"Missing Gorilla"},"type":"Feature"},{"geometry":{"coordinates":[144.9712356,-37.812902],"type":"Point"},"properties":{"events":[{"categories":["Comedy"],"eDate":"2024-04-06","eName":"Josh Earl: Don't You Know Who I Am? Live","genre":null,"price":"$20.50 - 65.50","supports":[],"ticketUrl":null,"time":" 3pm"}],"vName":"Morris House"},"type":"Feature"},{"geometry":{"coordinates":[144.998414,-37.771471],"type":"Point"},"properties":{"events":[{"categories":["Music"],"eDate":"2024-04-06","eName":"Stumps","genre":"Indie","price":"$29.10","supports":["The Tullamarines"],"ticketUrl":null,"time":" 8:30pm"}],"vName":"Northcote Social Club"},"type":"Feature"},{"geometry":{"coordinates":[144.9977626,-37.7755001],"type":"Point"},"properties":{"events":[{"categories":["Music"],"eDate":"2024-04-06","eName":"The Terrys","genre":"Punk","price":"$51.10","supports":["Le Shiv"," Underwurld Surfers"],"ticketUrl":null,"time":" 7pm"}],"vName":"Northcote Theatre"},"type":"Feature"},{"geometry":{"coordinates":[144.9631913,-37.7617818],"type":"Point"},"properties":{"events":[{"categories":["Music"],"eDate":"2024-04-06","eName":"Tuanss + REO","genre":"Hip Hop","price":"$13.00","supports":[],"ticketUrl":null,"time":" 8pm"}],"vName":"Ringo Barr"},"type":"Feature"},{"geometry":{"coordinates":[144.9706095,-37.7783326],"type":"Point"},"properties":{"events":[{"categories":["Music"],"eDate":"2024-04-06","eName":"Kandalini + Unscored","genre":"Rock","price":"Free","supports":[],"ticketUrl":null,"time":" 9pm"}],"vName":"The Beast"},"type":"Feature"},{"geometry":{"coordinates":[144.9585654,-37.8059962],"type":"Point"},"properties":{"events":[{"categories":["Music"],"eDate":"2024-04-06","eName":"Dear Matilda","genre":null,"price":"$13.30","supports":["The Dizzy Ducks"," Grass Stains"],"ticketUrl":null,"time":" 7pm"}],"vName":"The Last Chance Rock & Roll Bar"},"type":"Feature"},{"geometry":{"coordinates":[144.9846126,-37.7989941],"type":"Point"},"properties":{"events":[{"categories":["Music"],"eDate":"2024-04-06","eName":"Sin City","genre":null,"price":"$11.25","supports":["Foggy Notion"," Matt Bourke & The Delusional Drunks"],"ticketUrl":null,"time":" 7:30pm"},{"categories":["Music"],"eDate":"2024-04-06","eName":"Hooper Crescent","genre":"Rock","price":"$23.50","supports":["Vanessa Worm"," Brick Head"," DJ Meag"],"ticketUrl":null,"time":" 8pm"}],"vName":"The Tote Hotel"},"type":"Feature"},{"geometry":{"coordinates":[144.9769450659087,-37.8055776],"type":"Point"},"properties":{"events":[{"categories":["Music"],"eDate":"2024-04-06","eName":"Golden Turtle","genre":"Rock","price":"$13.00","supports":["Lucy's Disorder"," Medicated Love"],"ticketUrl":null,"time":" 1pm"},{"categories":["Music"],"eDate":"2024-04-06","eName":"Stepson","genre":"Metal","price":"$28.30","supports":["Heists"," Upsetter"," Day Saints"],"ticketUrl":null,"time":" 8pm"}],"vName":"The Workers Club"},"type":"Feature"},{"geometry":{"coordinates":[144.9618426,-37.8125531],"type":"Point"},"properties":{"events":[{"categories":["Free","Music","Other \"Food & Drink\""],"eDate":"2024-04-06","eName":"KOMBUCHA","genre":null,"price":"Free","supports":[],"ticketUrl":null,"time":" 5pm"}],"vName":"Whitehart Bar"},"type":"Feature"}],"type":"FeatureCollection"}