{"features":[{"geometry":{"coordinates":[144.9617018,-37.7704566],"type":"Point"},"properties":{"events":[{"categories":["Other \"Spoken Word\"","Other \"Poetry & Forums\""],"eDate":"2024-05-21","eName":"Slamalamadingdong","genre":null,"price":"$28.15","supports":[],"ticketUrl":null,"time":" 6:30pm"}],"vName":"Brunswick Ballroom"},"type":"Feature"},{"geometry":{"coordinates":[144.9596527,-37.7720304],"type":"Point"},"properties":{"events":[{"categories":["Music"],"eDate":"2024-05-21","eName":"Dylan J","genre":"Pop","price":"$32.64","supports":[],"ticketUrl":null,"time":" 8pm"}],"vName":"Howler"},"type":"Feature"},{"geometry":{"coordinates":[144.96741062735794,-37.82454855],"type":"Point"},"properties":{"events":[{"categories":["Music"],"eDate":"2024-05-21","eName":"Xani Kolac - Relaxed Performance (Early Session)","genre":"Classical","price":"$10.00","supports":[],"ticketUrl":null,"time":"10:30am"},{"categories":["Music"],"eDate":"2024-05-21","eName":"Xani Kolac - Relaxed Performance","genre":"Classical","price":"$10.00","supports":[],"ticketUrl":null,"time":"12pm"}],"vName":"Melbourne Recital Centre"},"type":"Feature"},{"geometry":{"coordinates":[144.9706095,-37.7783326],"type":"Point"},"properties":{"events":[{"categories":["Free","Trivia"],"eDate":"2024-05-21","eName":"Trivia Tuesdays","genre":null,"price":"Free","supports":[],"ticketUrl":null,"time":" 7:30pm"}],"vName":"The Beast"},"type":"Feature"},{"geometry":{"coordinates":[144.9651425,-37.8119429],"type":"Point"},"properties":{"events":[{"categories":["Free","Music"],"eDate":"2024-05-21","eName":"NOW.HERE.THIS. Live Jazz","genre":"Jazz","price":"Free","supports":["The Now Here This All-Star Band"],"ticketUrl":null,"time":" 7pm"}],"vName":"The Toff In Town"},"type":"Feature"}],"type":"FeatureCollection"}