{"features":[{"geometry":{"coordinates":[144.978682,-37.7981225],"type":"Point"},"properties":{"events":[{"categories":["Free","Music"],"eDate":"2025-06-11","eName":"Woody Samson","genre":null,"price":"Free","supports":[],"ticketUrl":null,"time":" 9pm"}],"vName":"Baxter's Lot"},"type":"Feature"},{"geometry":{"coordinates":[144.9945274,-37.8001115],"type":"Point"},"properties":{"events":[{"categories":["Free","Music","Other \"Food \""],"eDate":"2025-06-11","eName":"Deep Cuts Jam Session: Anita Baker Special","genre":null,"price":"Free","supports":[],"ticketUrl":null,"time":" 7:30pm"}],"vName":"Bodriggy Brewing Company"},"type":"Feature"},{"geometry":{"coordinates":[145.0314658,-37.8067273],"type":"Point"},"properties":{"events":[{"categories":["Music"],"eDate":"2025-06-11","eName":"Kew Court House Live: SKYE + Tyra Lewis","genre":"Indie","price":"$20.00","supports":[],"ticketUrl":null,"time":" 7:30pm"}],"vName":"Kew Court House"},"type":"Feature"},{"geometry":{"coordinates":[145.0358258,-37.9334203],"type":"Point"},"properties":{"events":[{"categories":["Music"],"eDate":"2025-06-11","eName":"Jazz-e-oke","genre":"Jazz","price":"$10.00","supports":[],"ticketUrl":null,"time":" 7:30pm"}],"vName":"Kingston City Hall"},"type":"Feature"},{"geometry":{"coordinates":[144.9256335,-37.8296919],"type":"Point"},"properties":{"events":[{"categories":["Music"],"eDate":"2025-06-11","eName":"Black Star (Yasiin Bey & Talib Kweli)","genre":"Hip Hop","price":"$101.00 - 111.00","supports":[],"ticketUrl":null,"time":" 6:30pm"}],"vName":"PICA (Port Melbourne Industrial Centre for the Arts)"},"type":"Feature"},{"geometry":{"coordinates":[145.1334272,-37.9135736],"type":"Point"},"properties":{"events":[{"categories":["Music"],"eDate":"2025-06-11","eName":"Blakout: Dr Christian Thompson","genre":"Classical","price":"$20.00 - 35.00","supports":[],"ticketUrl":null,"time":" 6:30pm"}],"vName":"The Ian Potter Centre for Performing Arts"},"type":"Feature"}],"type":"FeatureCollection"}