{"features":[{"geometry":{"coordinates":[144.9607158,-37.776327],"type":"Point"},"properties":{"events":[{"categories":["Music"],"eDate":"2024-02-21","eName":"The Holy Trinity","genre":"Punk","price":"$16.85","supports":["The Halves"," Jade Parade"],"ticketUrl":null,"time":" 7:30pm"}],"vName":"Bergy Bandroom"},"type":"Feature"},{"geometry":{"coordinates":[144.9945274,-37.8001115],"type":"Point"},"properties":{"events":[{"categories":["Free","Music","Other \"Food & Drink\""],"eDate":"2024-02-21","eName":"Callum Wylie & Eddie Boyd","genre":"Indie","price":"Free","supports":[],"ticketUrl":null,"time":" 7pm"},{"categories":["Free","Music","Other \"Food & Drink\""],"eDate":"2024-02-21","eName":"Callum Wylie & Eddie Boyd","genre":null,"price":"Free","supports":[],"ticketUrl":null,"time":" 7:30pm"}],"vName":"Bodriggy Brewing Company"},"type":"Feature"},{"geometry":{"coordinates":[144.9947908,-37.8491931],"type":"Point"},"properties":{"events":[{"categories":["Theatre"],"eDate":"2024-02-21","eName":"7 Captiva Road","genre":null,"price":"$52.00","supports":[],"ticketUrl":null,"time":" 7:30pm"}],"vName":"Chapel Off Chapel"},"type":"Feature"},{"geometry":{"coordinates":[144.9631913,-37.7617818],"type":"Point"},"properties":{"events":[{"categories":["Free","Music"],"eDate":"2024-02-21","eName":"Tom & the Cartoonists + Amy Flight","genre":"Rock","price":"Free","supports":[],"ticketUrl":null,"time":" 8pm"}],"vName":"Ringo Barr"},"type":"Feature"},{"geometry":{"coordinates":[145.13337431967784,-37.91372355],"type":"Point"},"properties":{"events":[{"categories":["Music"],"eDate":"2024-02-21","eName":"Live at The Counts: Nina Ferro + Joshua Moshe","genre":"Jazz","price":"$10.00 - 25.00","supports":[],"ticketUrl":null,"time":" 7:30pm"}],"vName":"The Ian Potter Centre for Performing Arts"},"type":"Feature"},{"geometry":{"coordinates":[144.9651425,-37.8119429],"type":"Point"},"properties":{"events":[{"categories":["Music"],"eDate":"2024-02-21","eName":"West Coast Wednesdays","genre":"Hip Hop","price":"$0.00 - 15.00","supports":[],"ticketUrl":null,"time":"10:30pm"}],"vName":"The Toff In Town"},"type":"Feature"}],"type":"FeatureCollection"}