{"features":[{"geometry":{"coordinates":[144.9679369,-37.8120109],"type":"Point"},"properties":{"events":[{"categories":["Music"],"eDate":"2025-06-06","eName":"Tyne-James Organ","genre":"Indie","price":"$54.06","supports":[],"ticketUrl":null,"time":" 8pm"}],"vName":"170 Russell"},"type":"Feature"},{"geometry":{"coordinates":[145.0192156,-37.7562323],"type":"Point"},"properties":{"events":[{"categories":["Music"],"eDate":"2025-06-06","eName":"An Evening with Suki Waterhouse","genre":"Pop","price":"$129.00 - 169.00","supports":[],"ticketUrl":null,"time":" 8pm"}],"vName":"Athenaeum Theatre"},"type":"Feature"},{"geometry":{"coordinates":[144.9982812,-37.7713296],"type":"Point"},"properties":{"events":[{"categories":["Free","Music"],"eDate":"2025-06-06","eName":"The Calabrians + The T-Bones","genre":"Rock","price":"Free","supports":[],"ticketUrl":null,"time":" 5pm"},{"categories":["Music"],"eDate":"2025-06-06","eName":"Tangled Orbits","genre":"Jazz","price":"Free","supports":[],"ticketUrl":null,"time":" 9:30pm"}],"vName":"Bar 303"},"type":"Feature"},{"geometry":{"coordinates":[144.978682,-37.7981225],"type":"Point"},"properties":{"events":[{"categories":["Free","Music"],"eDate":"2025-06-06","eName":"Lewis Toms","genre":null,"price":"Free","supports":[],"ticketUrl":null,"time":" 9pm"},{"categories":["Free","Music"],"eDate":"2025-06-06","eName":"DJ Avneet Basra","genre":null,"price":"Free","supports":[],"ticketUrl":null,"time":"10pm"}],"vName":"Baxter's Lot"},"type":"Feature"},{"geometry":{"coordinates":[144.609835,-38.1379811],"type":"Point"},"properties":{"events":[{"categories":["Other \"Trivia \"","Other \"Food \""],"eDate":"2025-06-06","eName":"Musical Trivia Night @ Bellarine Estate","genre":null,"price":"$10.00","supports":[],"ticketUrl":null,"time":" 6pm"}],"vName":"Bellarine Estate"},"type":"Feature"},{"geometry":{"coordinates":[144.9891167,-37.7996488],"type":"Point"},"properties":{"events":[{"categories":["Music"],"eDate":"2025-06-06","eName":"Snailgun","genre":"Rock","price":"$10.00","supports":["Low Monroe & The Fugitives"," Waxman"],"ticketUrl":null,"time":" 8pm"}],"vName":"Bendigo Hotel"},"type":"Feature"},{"geometry":{"coordinates":[144.9693768,-37.8164414],"type":"Point"},"properties":{"events":[{"categories":["Music"],"eDate":"2025-06-06","eName":"Tropical Fuck Storm","genre":"Rock","price":"$69.00","supports":[],"ticketUrl":null,"time":" 8pm"}],"vName":"Forum Melbourne"},"type":"Feature"},{"geometry":{"coordinates":[144.9780305,-37.8599731],"type":"Point"},"properties":{"events":[{"categories":["Music"],"eDate":"2025-06-06","eName":"Belle Phoenix","genre":"Rock","price":"$20.00 - 30.00","supports":[],"ticketUrl":null,"time":" 7pm"}],"vName":"George Lane"},"type":"Feature"},{"geometry":{"coordinates":[145.0314658,-37.8067273],"type":"Point"},"properties":{"events":[{"categories":["Music"],"eDate":"2025-06-06","eName":"Kew Court House Live: Remco Keijzer Quartet","genre":"Jazz","price":"$20.00","supports":[],"ticketUrl":null,"time":" 7:30pm"}],"vName":"Kew Court House"},"type":"Feature"},{"geometry":{"coordinates":[144.8975289,-37.8022392],"type":"Point"},"properties":{"events":[{"categories":["Music"],"eDate":"2025-06-06","eName":"Wolf Arrow Rain","genre":null,"price":"$15.00 - 20.00","supports":["Blood In The Champagne"," Nighteyes"],"ticketUrl":null,"time":" 7:30pm"}],"vName":"Mamma Chen's"},"type":"Feature"},{"geometry":{"coordinates":[144.9790251,-37.8675008],"type":"Point"},"properties":{"events":[{"categories":["Music"],"eDate":"2025-06-06","eName":"Three Pianos, Six Hands, Thirty Fingers: A Boogie Woogie Super Show!","genre":"Blues","price":"$35.00 - 50.00","supports":[],"ticketUrl":null,"time":" 7pm"}],"vName":"Memo Music Hall"},"type":"Feature"},{"geometry":{"coordinates":[144.96084,-37.813514],"type":"Point"},"properties":{"events":[{"categories":["Music"],"eDate":"2025-06-06","eName":"Russell Tay plays Bill Evans","genre":"Jazz","price":"$45.00","supports":[],"ticketUrl":null,"time":" 6pm"},{"categories":["Music"],"eDate":"2025-06-06","eName":"Joys Njambi Presents: “Queens of Soul”","genre":"Jazz","price":"$45.00","supports":[],"ticketUrl":null,"time":" 6:30pm"},{"categories":["Music"],"eDate":"2025-06-06","eName":"Friendly Fire: Williamson/Mackey Quintet","genre":"Jazz","price":"$45.00","supports":[],"ticketUrl":null,"time":" 9pm"},{"categories":["Music"],"eDate":"2025-06-06","eName":"Joys Njambi Presents: “Queens of Soul” (Later Session)","genre":"Jazz","price":"$45.00","supports":[],"ticketUrl":null,"time":" 9:30pm"}],"vName":"Paris Cat Jazz Club"},"type":"Feature"},{"geometry":{"coordinates":[145.0013923,-37.7559265],"type":"Point"},"properties":{"events":[{"categories":["Music"],"eDate":"2025-06-06","eName":"Wild Dog Mountains","genre":"Rock","price":"$18.35","supports":["K. Walsh & The Podium Babies"," Jess Parker"],"ticketUrl":null,"time":" 6:30pm"}],"vName":"Shotkickers"},"type":"Feature"},{"geometry":{"coordinates":[144.9586498,-37.766903],"type":"Point"},"properties":{"events":[{"categories":["Music"],"eDate":"2025-06-06","eName":"Fem Belling & The Joe Ruberto Trio","genre":"Jazz","price":"$35.00 - 40.00","supports":[],"ticketUrl":null,"time":" 8pm"}],"vName":"The Jazzlab"},"type":"Feature"},{"geometry":{"coordinates":[144.9800067,-37.76712],"type":"Point"},"properties":{"events":[{"categories":["Music"],"eDate":"2025-06-06","eName":"The Earthquakes + The Agents Of Reverb","genre":"Rock","price":"$15.00","supports":[],"ticketUrl":null,"time":" 8:30pm"}],"vName":"The Lomond Hotel"},"type":"Feature"},{"geometry":{"coordinates":[145.0011167,-37.754662],"type":"Point"},"properties":{"events":[{"categories":["Comedy"],"eDate":"2025-06-06","eName":"Jen Brister: Reactive (Early Session)","genre":null,"price":"Free","supports":[],"ticketUrl":null,"time":" 6:30pm"},{"categories":["Comedy"],"eDate":"2025-06-06","eName":"Jen Brister: Reactive","genre":null,"price":"Free","supports":[],"ticketUrl":null,"time":" 9pm"},{"categories":["Comedy"],"eDate":"2025-06-06","eName":"Jen Brister","genre":null,"price":"$55.00","supports":[],"ticketUrl":null,"time":" 9pm"}],"vName":"The Thornbury Theatre"},"type":"Feature"},{"geometry":{"coordinates":[144.9870814,-37.799406],"type":"Point"},"properties":{"events":[{"categories":["Music"],"eDate":"2025-06-06","eName":"Convenience Store","genre":"Rock","price":"$11.25","supports":["Claude"," Hot Glue"],"ticketUrl":null,"time":" 8pm"},{"categories":["Music"],"eDate":"2025-06-06","eName":"The Chats","genre":"Punk","price":"Free","supports":[],"ticketUrl":null,"time":" 8:30pm"}],"vName":"The Tote Hotel"},"type":"Feature"},{"geometry":{"coordinates":[144.9769451,-37.8055776],"type":"Point"},"properties":{"events":[{"categories":["Music"],"eDate":"2025-06-06","eName":"Method in the Madness","genre":"Metal","price":"$20.00","supports":["Monoliyth"," Escarion"," Kniver"," Rum Runners"],"ticketUrl":null,"time":" 7pm"}],"vName":"The Workers Club"},"type":"Feature"},{"geometry":{"coordinates":[144.9984324,-37.7729134],"type":"Point"},"properties":{"events":[{"categories":["Music"],"eDate":"2025-06-06","eName":"Coco & Tom","genre":"Jazz","price":"Free","supports":[],"ticketUrl":null,"time":" 6pm"},{"categories":["Music"],"eDate":"2025-06-06","eName":"Flynn Gurry","genre":"Blues","price":"Free","supports":[],"ticketUrl":null,"time":" 8pm"}],"vName":"Wesley Anne"},"type":"Feature"}],"type":"FeatureCollection"}