{"features":[{"geometry":{"coordinates":[144.9762881,-37.798246],"type":"Point"},"properties":{"events":[{"categories":["Music"],"eDate":"2026-06-12","eName":"Punchbowl","genre":"Rock","price":"$16.31","supports":["Duxie Franklin"," Smooth Brains"," WHERE IS HOME"],"ticketUrl":null,"time":" 8pm"}],"vName":"Bad Decisions Bar"},"type":"Feature"},{"geometry":{"coordinates":[144.9982812,-37.7713296],"type":"Point"},"properties":{"events":[{"categories":["Music"],"eDate":"2026-06-12","eName":"Pet Therapy","genre":"Punk","price":"$20.00 - 25.00","supports":["Another Rotting Corpse"," Pink Rock Salt"],"ticketUrl":null,"time":" 7:30pm"}],"vName":"Bar 303"},"type":"Feature"},{"geometry":{"coordinates":[144.978682,-37.7981225],"type":"Point"},"properties":{"events":[{"categories":["Free","Music"],"eDate":"2026-06-12","eName":"Xander Cuming","genre":null,"price":"Free","supports":[],"ticketUrl":null,"time":" 9pm"}],"vName":"Baxter's Lot"},"type":"Feature"},{"geometry":{"coordinates":[144.9891167,-37.7996488],"type":"Point"},"properties":{"events":[{"categories":["Music"],"eDate":"2026-06-12","eName":"Rare Phenomenon","genre":"Rock","price":"Free","supports":["Astrogate"," Valenta"],"ticketUrl":null,"time":" 7:30pm"}],"vName":"Bendigo Hotel"},"type":"Feature"},{"geometry":{"coordinates":[144.9607158,-37.776327],"type":"Point"},"properties":{"events":[{"categories":["Music"],"eDate":"2026-06-12","eName":"Letters to Lions","genre":"Rock","price":"Free","supports":["Alexis Remi"],"ticketUrl":null,"time":" 7pm"}],"vName":"Bergy Bandroom"},"type":"Feature"},{"geometry":{"coordinates":[144.9747815,-37.7689698],"type":"Point"},"properties":{"events":[{"categories":["Music"],"eDate":"2026-06-12","eName":"Wodan’s Oak: Live at Cross St","genre":"Jazz","price":"$25.00","supports":[],"ticketUrl":null,"time":" 7:30pm"}],"vName":"Cross Street Music Hall"},"type":"Feature"},{"geometry":{"coordinates":[144.9627513,-37.760963],"type":"Point"},"properties":{"events":[{"categories":["Music"],"eDate":"2026-06-12","eName":"CAROUSE","genre":"Pop","price":"Free","supports":[],"ticketUrl":null,"time":" 8pm"}],"vName":"Edinburgh Castle Hotel"},"type":"Feature"},{"geometry":{"coordinates":[144.9777885,-37.8597831],"type":"Point"},"properties":{"events":[{"categories":["Music"],"eDate":"2026-06-12","eName":"Cliff Raux","genre":"Acoustic","price":"Free","supports":[],"ticketUrl":null,"time":" 8pm"}],"vName":"Freddie Wimpoles"},"type":"Feature"},{"geometry":{"coordinates":[144.9787378,-37.7954205],"type":"Point"},"properties":{"events":[{"categories":["Music"],"eDate":"2026-06-12","eName":"Interval x HARDLINE: DJ Cosworth + Coldpast","genre":"Electronic","price":"$20.00 - 30.00","supports":["Champagnemuma"," JBN"," KJONES"," Syrup"," Vynes"],"ticketUrl":null,"time":"10pm"}],"vName":"Glamorama"},"type":"Feature"},{"geometry":{"coordinates":[144.983442,-37.804851],"type":"Point"},"properties":{"events":[{"categories":["Music"],"eDate":"2026-06-12","eName":"Kitsch Kitchen","genre":"Jazz","price":"$20.00 - 25.00","supports":["Finn Irregular"],"ticketUrl":null,"time":" 7:30pm"}],"vName":"Grace Darling Hotel"},"type":"Feature"},{"geometry":{"coordinates":[144.9679835,-37.8201575],"type":"Point"},"properties":{"events":[{"categories":["Music","Other \"Film\""],"eDate":"2026-06-12","eName":"Harry Potter and the Chamber of Secrets in Concert","genre":"Classical","price":"$81.00 - 161.00","supports":[],"ticketUrl":null,"time":" 7:30pm"}],"vName":"Hamer Hall (Arts Centre Melbourne)"},"type":"Feature"},{"geometry":{"coordinates":[144.973013,-37.8640582],"type":"Point"},"properties":{"events":[{"categories":["Music"],"eDate":"2026-06-12","eName":"You Seem Pretty Sad For A Girl So In Love Party","genre":"Pop","price":"$14.80 - 22.95","supports":[],"ticketUrl":null,"time":" 9pm"}],"vName":"Hotel Esplanade (aka The Espy)"},"type":"Feature"},{"geometry":{"coordinates":[144.9658499,-37.8147453],"type":"Point"},"properties":{"events":[{"categories":["Music"],"eDate":"2026-06-12","eName":"Chat Pile","genre":null,"price":"Free","supports":["Beastwars"," Bentham’s Head"],"ticketUrl":null,"time":" 7:45pm"}],"vName":"Max Watt's (Melbourne)"},"type":"Feature"},{"geometry":{"coordinates":[144.9790251,-37.8675008],"type":"Point"},"properties":{"events":[{"categories":["Music"],"eDate":"2026-06-12","eName":"Andrew De Silva’s Dedication to Prince: Birthday Celebration","genre":"Rock","price":"$40.00 - 60.00","supports":[],"ticketUrl":null,"time":" 7pm"}],"vName":"Memo Music Hall"},"type":"Feature"},{"geometry":{"coordinates":[144.9689204,-37.8226599],"type":"Point"},"properties":{"events":[{"categories":["Music","Other \"Art \""],"eDate":"2026-06-12","eName":"NGV Friday Nights- CARTIER: Alma Zygier","genre":"Jazz","price":"$24.00 - 50.00","supports":[],"ticketUrl":null,"time":" 7pm"}],"vName":"NGV - National Gallery of Victoria"},"type":"Feature"},{"geometry":{"coordinates":[144.998414,-37.771471],"type":"Point"},"properties":{"events":[{"categories":["Music"],"eDate":"2026-06-12","eName":"Rod Coote","genre":"Acoustic","price":"$25.00","supports":["ofthewild"," Abigail Grace"],"ticketUrl":null,"time":" 8pm"}],"vName":"Northcote Social Club"},"type":"Feature"},{"geometry":{"coordinates":[144.96084,-37.813514],"type":"Point"},"properties":{"events":[{"categories":["Music"],"eDate":"2026-06-12","eName":"Jessica Young Quintet","genre":"Jazz","price":"$45.00","supports":[],"ticketUrl":null,"time":" 6pm"},{"categories":["Music"],"eDate":"2026-06-12","eName":"A Celebration of BB King & Etta James: Iseula + Tommy Rando","genre":"Jazz","price":"$45.00","supports":[],"ticketUrl":null,"time":" 6:30pm"},{"categories":["Music"],"eDate":"2026-06-12","eName":"Free Parking & Jonathan Bufalino Presents: The Music Of James Brown","genre":"Soul/Funk","price":"$45.00","supports":[],"ticketUrl":null,"time":" 9pm"},{"categories":["Music"],"eDate":"2026-06-12","eName":"A Celebration of BB King & Etta James: Iseula + Tommy Rando (Later Session)","genre":"Jazz","price":"$45.00","supports":[],"ticketUrl":null,"time":" 9:30pm"}],"vName":"Paris Cat Jazz Club"},"type":"Feature"},{"geometry":{"coordinates":[144.9741326,-37.8619943],"type":"Point"},"properties":{"events":[{"categories":["Music"],"eDate":"2026-06-12","eName":"The Superjesus","genre":"Rock","price":"$55.00 - 99.00","supports":[],"ticketUrl":null,"time":" 7pm"},{"categories":["Music"],"eDate":"2026-06-12","eName":"The Superjesus","genre":"Rock","price":"$59.00","supports":["The Art"," The After"],"ticketUrl":null,"time":" 7pm"}],"vName":"Prince Bandroom"},"type":"Feature"},{"geometry":{"coordinates":[144.9583409,-37.7664168],"type":"Point"},"properties":{"events":[{"categories":["Music"],"eDate":"2026-06-12","eName":"Kier Stevens","genre":"Country/Folk","price":"Free","supports":[],"ticketUrl":null,"time":" 6pm"},{"categories":["Music"],"eDate":"2026-06-12","eName":"Josh Pyke","genre":null,"price":"$33.00","supports":[],"ticketUrl":null,"time":" 8pm"}],"vName":"Quadraphonic Club"},"type":"Feature"},{"geometry":{"coordinates":[145.0142411,-37.7310367],"type":"Point"},"properties":{"events":[{"categories":["Music"],"eDate":"2026-06-12","eName":"Matt Malone","genre":"Acoustic","price":"Free","supports":[],"ticketUrl":null,"time":" 6:30pm"},{"categories":["Music"],"eDate":"2026-06-12","eName":"Sophia Blackburn","genre":"Acoustic","price":"Free","supports":[],"ticketUrl":null,"time":" 8pm"}],"vName":"Ragtime Tavern"},"type":"Feature"},{"geometry":{"coordinates":[144.9615882,-37.7711432],"type":"Point"},"properties":{"events":[{"categories":["Free","Music"],"eDate":"2026-06-12","eName":"Anatreptix","genre":"Acoustic","price":"Free","supports":[],"ticketUrl":null,"time":" 2pm"},{"categories":["Music"],"eDate":"2026-06-12","eName":"Orphix","genre":"Rock","price":"$21.36","supports":["Violet Tendencies"," Black Wattle Witches"],"ticketUrl":null,"time":" 7:30pm"}],"vName":"Retreat Hotel"},"type":"Feature"},{"geometry":{"coordinates":[144.993413,-37.8506652],"type":"Point"},"properties":{"events":[{"categories":["Music"],"eDate":"2026-06-12","eName":"Got The Sauce x Revolver Fridays","genre":"Electronic","price":"$21.42","supports":["more"],"ticketUrl":null,"time":"10pm"}],"vName":"Revolver Upstairs"},"type":"Feature"},{"geometry":{"coordinates":[145.0013923,-37.7559265],"type":"Point"},"properties":{"events":[{"categories":["Music"],"eDate":"2026-06-12","eName":"Opa! Bato Balkan Brass","genre":"Jazz","price":"$29.25","supports":[],"ticketUrl":null,"time":" 8:30pm"}],"vName":"Shotkickers"},"type":"Feature"},{"geometry":{"coordinates":[144.9607404,-37.7743469],"type":"Point"},"properties":{"events":[{"categories":["Music"],"eDate":"2026-06-12","eName":"ORIGIN","genre":null,"price":"$65.80","supports":["Nembutolik"," Writhing"," SNAKE MOUNTAIN"],"ticketUrl":null,"time":" 7pm"}],"vName":"Stay Gold"},"type":"Feature"},{"geometry":{"coordinates":[144.9657057,-37.8061581],"type":"Point"},"properties":{"events":[{"categories":["Music"],"eDate":"2026-06-12","eName":"Charlotte Bridie & Band","genre":null,"price":"$17.75","supports":["Harriet Wraith"," Lalu"],"ticketUrl":null,"time":" 8pm"}],"vName":"The Curtin"},"type":"Feature"},{"geometry":{"coordinates":[144.9770425,-37.8588717],"type":"Point"},"properties":{"events":[{"categories":["Music"],"eDate":"2026-06-12","eName":"Rustic Sons + DJ Obliveus","genre":null,"price":"Free","supports":[],"ticketUrl":null,"time":" 9pm"}],"vName":"The Fifth Province"},"type":"Feature"},{"geometry":{"coordinates":[144.9720579,-37.8121675],"type":"Point"},"properties":{"events":[{"categories":["Comedy","Theatre"],"eDate":"2026-06-12","eName":"F#*k This, I Quit: Comedy Based on YOUR Work Stories","genre":null,"price":"$24.00","supports":[],"ticketUrl":null,"time":" 7pm"},{"categories":["Comedy","Theatre"],"eDate":"2026-06-12","eName":"The Remix: Live Improv Comedy From A Guest’s True Stories","genre":null,"price":"$24.00","supports":[],"ticketUrl":null,"time":" 8:15pm"}],"vName":"The Improv Conspiracy"},"type":"Feature"},{"geometry":{"coordinates":[144.9463641,-37.8047757],"type":"Point"},"properties":{"events":[{"categories":["Music"],"eDate":"2026-06-12","eName":"KRUL","genre":"Punk","price":"$11.25","supports":["Whip"," Cry Cyclops"],"ticketUrl":null,"time":" 8:30pm"}],"vName":"The Last Chance Rock & Roll Bar"},"type":"Feature"},{"geometry":{"coordinates":[145.1818891,-37.8163371],"type":"Point"},"properties":{"events":[{"categories":["Other \"Cabaret\"","Music"],"eDate":"2026-06-12","eName":"Galaxy Sonata: L. G Woodwind Place","genre":"Jazz","price":"$58.00","supports":[],"ticketUrl":null,"time":" 7pm"},{"categories":["Music","Theatre"],"eDate":"2026-06-12","eName":"Sea Wolves Howl","genre":"Pop","price":"$57.00","supports":[],"ticketUrl":null,"time":" 7:30pm"}],"vName":"The Round"},"type":"Feature"},{"geometry":{"coordinates":[144.9998797,-37.7616512],"type":"Point"},"properties":{"events":[{"categories":["Music"],"eDate":"2026-06-12","eName":"Sherri Perry","genre":"Indie","price":"Free","supports":[],"ticketUrl":null,"time":" 8pm"}],"vName":"The Thornbury Local"},"type":"Feature"},{"geometry":{"coordinates":[144.9651425,-37.8119429],"type":"Point"},"properties":{"events":[{"categories":["Music"],"eDate":"2026-06-12","eName":"aron!","genre":null,"price":"$54.90","supports":["FELIVAND"],"ticketUrl":null,"time":" 7:30pm"},{"categories":["Free","Music"],"eDate":"2026-06-12","eName":"Sleazy Little Thing Presents: Michael Badger","genre":"Indie","price":"Free","supports":["FELIVAND"],"ticketUrl":null,"time":"11pm"}],"vName":"The Toff In Town"},"type":"Feature"},{"geometry":{"coordinates":[144.9769451,-37.8055776],"type":"Point"},"properties":{"events":[{"categories":["Music"],"eDate":"2026-06-12","eName":"Mr. Doily","genre":"Rock","price":"$15.00","supports":["Strawbz"," Mudbath"],"ticketUrl":null,"time":" 8pm"}],"vName":"The Workers Club"},"type":"Feature"},{"geometry":{"coordinates":[144.9661635,-37.8176298],"type":"Point"},"properties":{"events":[{"categories":["Free","Music"],"eDate":"2026-06-12","eName":"Downstairs Disco","genre":"Electronic","price":"Free","supports":["DJ Steely Ann"," Mikey Goodfellow"],"ticketUrl":null,"time":" 9pm"}],"vName":"Wax Music Lounge"},"type":"Feature"},{"geometry":{"coordinates":[144.9984324,-37.7729134],"type":"Point"},"properties":{"events":[{"categories":["Music"],"eDate":"2026-06-12","eName":"Nash Lee Trio","genre":"Jazz","price":"Free","supports":["Toby Barrett"],"ticketUrl":null,"time":" 6pm"},{"categories":["Music"],"eDate":"2026-06-12","eName":"Dylan Wright","genre":"Acoustic","price":"$34.20","supports":["Cynta"],"ticketUrl":null,"time":" 8pm"}],"vName":"Wesley Anne"},"type":"Feature"},{"geometry":{"coordinates":[144.9618781,-37.8126316],"type":"Point"},"properties":{"events":[{"categories":["Music"],"eDate":"2026-06-12","eName":"Fridays: Mike Gurrieri + Zepherin Saint","genre":"Electronic","price":"Free","supports":[],"ticketUrl":null,"time":" 4pm"}],"vName":"Whitehart Bar"},"type":"Feature"}],"type":"FeatureCollection"}