{"features":[{"geometry":{"coordinates":[144.9763781,-37.7983136],"type":"Point"},"properties":{"events":[{"categories":["Music"],"eDate":"2024-02-23","eName":"NO SLEEP","genre":"Hip Hop","price":"$20.00","supports":[],"ticketUrl":null,"time":" 9pm"}],"vName":"Bad Decisions Bar"},"type":"Feature"},{"geometry":{"coordinates":[144.978425,-37.79773],"type":"Point"},"properties":{"events":[{"categories":["Free","Music"],"eDate":"2024-02-23","eName":"Standing Circle","genre":"Jazz","price":"Free","supports":[],"ticketUrl":null,"time":" 6pm"},{"categories":["Music"],"eDate":"2024-02-23","eName":"Ripcord","genre":"Rock","price":"$17.35","supports":["more"],"ticketUrl":null,"time":" 8:30pm"}],"vName":"Bar Open"},"type":"Feature"},{"geometry":{"coordinates":[144.9607158,-37.776327],"type":"Point"},"properties":{"events":[{"categories":["Music"],"eDate":"2024-02-23","eName":"VEHL","genre":"Soul/Funk","price":"$28.05","supports":["Marcel Borrack TD Band"," Sunday Darling"," DJ Friday"],"ticketUrl":null,"time":" 8pm"},{"categories":["Music"],"eDate":"2024-02-23","eName":"VEHL","genre":"Soul/Funk","price":"$28.05","supports":["Marcel Borrack TD Band"," DJ Friday"," Sunday Darling"],"ticketUrl":null,"time":" 8pm"}],"vName":"Bergy Bandroom"},"type":"Feature"},{"geometry":{"coordinates":[144.9945274,-37.8001115],"type":"Point"},"properties":{"events":[{"categories":["Free","Music","Other \"Food & Drink\""],"eDate":"2024-02-23","eName":"Milou Moon: Live In The Brewpub","genre":"Indie","price":"Free","supports":["The Bush Priest"," Lewy O"],"ticketUrl":null,"time":" 6pm"}],"vName":"Bodriggy Brewing Company"},"type":"Feature"},{"geometry":{"coordinates":[144.9617018,-37.7704566],"type":"Point"},"properties":{"events":[{"categories":["Music"],"eDate":"2024-02-23","eName":"Nice Biscuit","genre":"Rock","price":"$28.15","supports":["Sunfruits"," Zelkova"],"ticketUrl":null,"time":" 8:30pm"}],"vName":"Brunswick Ballroom"},"type":"Feature"},{"geometry":{"coordinates":[144.9947908,-37.8491931],"type":"Point"},"properties":{"events":[{"categories":["Music"],"eDate":"2024-02-23","eName":"Sahara Beck: Chapel Sessions","genre":"Indie","price":"$40.00","supports":[],"ticketUrl":null,"time":" 8pm"}],"vName":"Chapel Off Chapel"},"type":"Feature"},{"geometry":{"coordinates":[144.98535244416098,-37.79426315],"type":"Point"},"properties":{"events":[{"categories":["Music"],"eDate":"2024-02-23","eName":"Modern Day Martyrs","genre":null,"price":"$12.25","supports":["Munted Chunts"," The Rartel"],"ticketUrl":null,"time":" 6:30pm"},{"categories":["Music"],"eDate":"2024-02-23","eName":"Romanie","genre":null,"price":"$15.00","supports":["Tambourine Jesus"," Kit Genesis"],"ticketUrl":null,"time":" 8pm"}],"vName":"Gasometer Hotel"},"type":"Feature"},{"geometry":{"coordinates":[144.9679835243618,-37.8201575],"type":"Point"},"properties":{"events":[{"categories":["Music"],"eDate":"2024-02-23","eName":"Hiatus Kaiyote with The Dreamboat Orchestra","genre":"Jazz","price":"$79.90","supports":[],"ticketUrl":null,"time":" 8pm"}],"vName":"Hamer Hall (Arts Centre Melbourne)"},"type":"Feature"},{"geometry":{"coordinates":[144.973013,-37.8640582],"type":"Point"},"properties":{"events":[{"categories":["Music"],"eDate":"2024-02-23","eName":"Rum Jungle","genre":"Rock","price":"$28.05","supports":[],"ticketUrl":null,"time":" 7:30pm"},{"categories":["Music"],"eDate":"2024-02-23","eName":"Dana Gehrman","genre":"Soul/Funk","price":"$18.90","supports":["Jeb Cardwell"],"ticketUrl":null,"time":" 7:30pm"},{"categories":["Music"],"eDate":"2024-02-23","eName":"No Scrubs: 90s + Early 00s Party","genre":"Pop","price":"$10.75 - 20.00","supports":[],"ticketUrl":null,"time":"11:30pm"}],"vName":"Hotel Esplanade (aka The Espy)"},"type":"Feature"},{"geometry":{"coordinates":[144.9596527,-37.7720304],"type":"Point"},"properties":{"events":[{"categories":["Music"],"eDate":"2024-02-23","eName":"Jack Ladder & The Dreamlanders","genre":"Indie","price":"$54.57","supports":[],"ticketUrl":null,"time":" 8pm"}],"vName":"Howler"},"type":"Feature"},{"geometry":{"coordinates":[144.9764962,-37.7983139],"type":"Point"},"properties":{"events":[{"categories":["Music"],"eDate":"2024-02-23","eName":"Madchild","genre":"Hip Hop","price":"$59.99","supports":["Kogz"],"ticketUrl":null,"time":" 6pm"}],"vName":"Laundry Bar"},"type":"Feature"},{"geometry":{"coordinates":[145.0008148,-37.8107158],"type":"Point"},"properties":{"events":[{"categories":["Music"],"eDate":"2024-02-23","eName":"A Night of Death & Doom at The Leadbeater","genre":"Metal","price":"$17.85","supports":[],"ticketUrl":null,"time":" 8pm"}],"vName":"Leadbeater Hotel"},"type":"Feature"},{"geometry":{"coordinates":[144.9712356,-37.812902],"type":"Point"},"properties":{"events":[{"categories":["Comedy"],"eDate":"2024-02-23","eName":"Basement Comedy Club Fridays","genre":null,"price":"$22.00","supports":[],"ticketUrl":null,"time":" 8pm"}],"vName":"Morris House"},"type":"Feature"},{"geometry":{"coordinates":[144.998414,-37.771471],"type":"Point"},"properties":{"events":[{"categories":["Music"],"eDate":"2024-02-23","eName":"Georgia Gets By","genre":"Rock","price":"$29.10","supports":["Betty Taylor"],"ticketUrl":null,"time":" 8:30pm"}],"vName":"Northcote Social Club"},"type":"Feature"},{"geometry":{"coordinates":[144.9977626,-37.7755001],"type":"Point"},"properties":{"events":[{"categories":["Music"],"eDate":"2024-02-23","eName":"The Chats","genre":"Punk","price":"$56.20","supports":["Mean Jeans"," The Prize"," The Ghoulies"," Boondall Boys"," The Unknowns"],"ticketUrl":null,"time":" 7:30pm"}],"vName":"Northcote Theatre"},"type":"Feature"},{"geometry":{"coordinates":[144.9631913,-37.7617818],"type":"Point"},"properties":{"events":[{"categories":["Music"],"eDate":"2024-02-23","eName":"Astral Collective + Chaos Theory Orchestra","genre":"Rock","price":"$15.00 - 20.00","supports":[],"ticketUrl":null,"time":" 8pm"}],"vName":"Ringo Barr"},"type":"Feature"},{"geometry":{"coordinates":[144.99959550357977,-37.762376950000004],"type":"Point"},"properties":{"events":[{"categories":["Music"],"eDate":"2024-02-23","eName":"Crossfaith","genre":"Metal","price":"$74.90","supports":["Paledusk"," more"],"ticketUrl":null,"time":" 7:30pm"}],"vName":"The Croxton"},"type":"Feature"},{"geometry":{"coordinates":[144.9657057,-37.8061581],"type":"Point"},"properties":{"events":[{"categories":["Music"],"eDate":"2024-02-23","eName":"Kiwat Kennell","genre":"Rock","price":"$17.75","supports":["Candice Lorrae"," Charlie Needs Braces"],"ticketUrl":null,"time":" 8pm"}],"vName":"The Curtin"},"type":"Feature"},{"geometry":{"coordinates":[144.9651425,-37.8119429],"type":"Point"},"properties":{"events":[{"categories":["Music"],"eDate":"2024-02-23","eName":"Ana","genre":"Metal","price":"$17.34","supports":["Altria"," The Sun Is A Deadly Laser"," Animelodies"],"ticketUrl":null,"time":" 7:30pm"},{"categories":["Music"],"eDate":"2024-02-23","eName":"Hyper Toff","genre":"Pop","price":"$12.24 - 17.34","supports":[],"ticketUrl":null,"time":"10pm"}],"vName":"The Toff In Town"},"type":"Feature"},{"geometry":{"coordinates":[144.9846126,-37.7989941],"type":"Point"},"properties":{"events":[{"categories":["Music"],"eDate":"2024-02-23","eName":"The Opals","genre":"Rock","price":"$11.25","supports":["Krackers & Koolaid"," Get Jaxxed"," Lucid Aux"],"ticketUrl":null,"time":" 8pm"}],"vName":"The Tote Hotel"},"type":"Feature"},{"geometry":{"coordinates":[144.2195296,-37.0651041],"type":"Point"},"properties":{"events":[{"categories":["Music"],"eDate":"2024-02-23","eName":"The Wreckery","genre":"Blues","price":"$44.90","supports":[],"ticketUrl":null,"time":" 8pm"}],"vName":"Theatre Royal Castlemaine"},"type":"Feature"},{"geometry":{"coordinates":[144.9618426,-37.8125531],"type":"Point"},"properties":{"events":[{"categories":["Free","Music","Other \"Food & Drink\""],"eDate":"2024-02-23","eName":"San Paredes & Honey present QVLN + DJ SUNNY Z","genre":"Electronic","price":"Free","supports":["MzRizk"," Amin Payne"],"ticketUrl":null,"time":" 7pm"}],"vName":"Whitehart Bar"},"type":"Feature"}],"type":"FeatureCollection"}