{"features":[{"geometry":{"coordinates":[145.0192156,-37.7562323],"type":"Point"},"properties":{"events":[{"categories":["Theatre","Music"],"eDate":"2025-06-29","eName":"Hedwig & The Angry Inch","genre":"Rock","price":"$69.00 - 159.00","supports":[],"ticketUrl":null,"time":" 5pm"}],"vName":"Athenaeum Theatre"},"type":"Feature"},{"geometry":{"coordinates":[144.9945274,-37.8001115],"type":"Point"},"properties":{"events":[{"categories":["Other \"Food \"","Other \"Dance \"","Music","Free"],"eDate":"2025-06-29","eName":"Suneden + Bootscootin’","genre":null,"price":"Free","supports":[],"ticketUrl":null,"time":" 1:30pm"}],"vName":"Bodriggy Brewing Company"},"type":"Feature"},{"geometry":{"coordinates":[144.9675876,-37.8240849],"type":"Point"},"properties":{"events":[{"categories":["Music"],"eDate":"2025-06-29","eName":"Baroque Unleashed","genre":"Classical","price":"$30.00 - 196.00","supports":[],"ticketUrl":null,"time":" 5pm"}],"vName":"Melbourne Recital Centre"},"type":"Feature"},{"geometry":{"coordinates":[144.993413,-37.8506652],"type":"Point"},"properties":{"events":[{"categories":["Music"],"eDate":"2025-06-29","eName":"Maur","genre":"Electronic","price":"$30.08 - 47.41","supports":[],"ticketUrl":null,"time":" 7am"}],"vName":"Revolver Upstairs"},"type":"Feature"},{"geometry":{"coordinates":[144.9751557,-37.8057885],"type":"Point"},"properties":{"events":[{"categories":["Free","Music"],"eDate":"2025-06-29","eName":"The ‘Johnny Can’t Dance’ Cajun Band","genre":"Country/Folk","price":"Free","supports":[],"ticketUrl":null,"time":" 4pm"}],"vName":"The Catfish"},"type":"Feature"}],"type":"FeatureCollection"}