{"features":[{"geometry":{"coordinates":[144.9679835,-37.8201575],"type":"Point"},"properties":{"events":[{"categories":["Theatre"],"eDate":"2025-09-20","eName":"The Lark (Matinee Session)","genre":null,"price":"$72.00 - 94.00","supports":[],"ticketUrl":null,"time":" 2pm"}],"vName":"Arts Centre Melbourne"},"type":"Feature"},{"geometry":{"coordinates":[144.9982812,-37.7713296],"type":"Point"},"properties":{"events":[{"categories":["Free","Music"],"eDate":"2025-09-20","eName":"Pinko Collective","genre":"Indie","price":"Free","supports":[],"ticketUrl":null,"time":" 3:30pm"},{"categories":["Music"],"eDate":"2025-09-20","eName":"Naomi Diane","genre":"Indie","price":"$18.00","supports":["The Rayes"," Lina"],"ticketUrl":null,"time":" 8pm"}],"vName":"Bar 303"},"type":"Feature"},{"geometry":{"coordinates":[144.978682,-37.7981225],"type":"Point"},"properties":{"events":[{"categories":["Free","Music"],"eDate":"2025-09-20","eName":"Woody Samson","genre":null,"price":"Free","supports":[],"ticketUrl":null,"time":" 9pm"},{"categories":["Free","Music"],"eDate":"2025-09-20","eName":"Woody Samson","genre":null,"price":"Free","supports":[],"ticketUrl":null,"time":" 9pm"}],"vName":"Baxter's Lot"},"type":"Feature"},{"geometry":{"coordinates":[144.9891167,-37.7996488],"type":"Point"},"properties":{"events":[{"categories":["Music"],"eDate":"2025-09-20","eName":"The Devours","genre":"Punk","price":"$12.25","supports":["Great Australian Bank"," Early Morning Syndrome"," Gold Coast Leathers"],"ticketUrl":null,"time":" 8:30pm"}],"vName":"Bendigo Hotel"},"type":"Feature"},{"geometry":{"coordinates":[144.9607158,-37.776327],"type":"Point"},"properties":{"events":[{"categories":["Music"],"eDate":"2025-09-20","eName":"Kaiyah Mercedes","genre":"Indie","price":"$22.95","supports":["Kash"," Mac & The Steeze"],"ticketUrl":null,"time":" 1pm"},{"categories":["Music"],"eDate":"2025-09-20","eName":"Beng","genre":"Rock","price":"$16.85","supports":["Liam Watts & The Electric Red Messengers"," Duncan Thomas"],"ticketUrl":null,"time":" 8pm"}],"vName":"Bergy Bandroom"},"type":"Feature"},{"geometry":{"coordinates":[144.9568039,-37.8111442],"type":"Point"},"properties":{"events":[{"categories":["Music"],"eDate":"2025-09-20","eName":"Echoes of Flamenco: Paco Lara & Paul George (Tijuana Cartel)","genre":"Global","price":"$50.00","supports":[],"ticketUrl":null,"time":" 7:30pm"}],"vName":"Bird's Basement"},"type":"Feature"},{"geometry":{"coordinates":[144.9617083,-37.7704205],"type":"Point"},"properties":{"events":[{"categories":["Music"],"eDate":"2025-09-20","eName":"The Northern Folk","genre":"Country/Folk","price":"Free","supports":[],"ticketUrl":null,"time":" 8:30pm"}],"vName":"Brunswick Ballroom"},"type":"Feature"},{"geometry":{"coordinates":[145.0002585,-37.7592368],"type":"Point"},"properties":{"events":[{"categories":["Music"],"eDate":"2025-09-20","eName":"Public House","genre":null,"price":"$15.00","supports":["Kristol Pisstol"," Raw Deal"],"ticketUrl":null,"time":" 8pm"}],"vName":"Cafe Gummo"},"type":"Feature"},{"geometry":{"coordinates":[144.9248037,-37.7656716],"type":"Point"},"properties":{"events":[{"categories":["Theatre"],"eDate":"2025-09-20","eName":"Wobbly Wallaby & The Absolute Bandicoot","genre":null,"price":"$25.00","supports":[],"ticketUrl":null,"time":"10am"},{"categories":["Music"],"eDate":"2025-09-20","eName":"An Evening with… Dami Im","genre":"Pop","price":"$57.50","supports":[],"ticketUrl":null,"time":" 7:30pm"}],"vName":"Clocktower Centre"},"type":"Feature"},{"geometry":{"coordinates":[144.9926664,-37.8248893],"type":"Point"},"properties":{"events":[{"categories":["Music"],"eDate":"2025-09-20","eName":"The Get Up Kids","genre":"Punk","price":"$76.50","supports":[],"ticketUrl":null,"time":" 8:30pm"}],"vName":"Corner Hotel"},"type":"Feature"},{"geometry":{"coordinates":[144.1430697,-37.3414953],"type":"Point"},"properties":{"events":[{"categories":["Free","Music"],"eDate":"2025-09-20","eName":"The Brandon Appleby Trio","genre":"Jazz","price":"Free","supports":[],"ticketUrl":null,"time":" 8:30pm"}],"vName":"Daylesford Hotel"},"type":"Feature"},{"geometry":{"coordinates":[144.9785611,-37.7965465],"type":"Point"},"properties":{"events":[{"categories":["Free","Markets","Other \"Food \""],"eDate":"2025-09-20","eName":"The Evelyn Hotel Presents: Our First-Ever Spring Wine Market!","genre":null,"price":"Free","supports":[],"ticketUrl":null,"time":"11am"}],"vName":"Evelyn Hotel"},"type":"Feature"},{"geometry":{"coordinates":[144.9777885,-37.8597831],"type":"Point"},"properties":{"events":[{"categories":["Music"],"eDate":"2025-09-20","eName":"Bee + Delsinki","genre":"Acoustic","price":"Free","supports":[],"ticketUrl":null,"time":" 9pm"}],"vName":"Freddie Wimpoles"},"type":"Feature"},{"geometry":{"coordinates":[144.9875792,-37.7963739],"type":"Point"},"properties":{"events":[{"categories":["Music"],"eDate":"2025-09-20","eName":"Problem Green","genre":"Punk","price":"$15.00","supports":["The Antics"," Special Guest"],"ticketUrl":null,"time":" 8pm"}],"vName":"Gem Bar"},"type":"Feature"},{"geometry":{"coordinates":[144.983442,-37.804851],"type":"Point"},"properties":{"events":[{"categories":["Music"],"eDate":"2025-09-20","eName":"Private Mountain","genre":"Indie","price":"$15.00 - 20.00","supports":["Cat Scratch"," Imogen Cygler"],"ticketUrl":null,"time":" 7:30pm"},{"categories":["Music"],"eDate":"2025-09-20","eName":"Private Mountain","genre":null,"price":"$20.00","supports":["Imogen Cygler"," Cat Scratch"],"ticketUrl":null,"time":" 7:30pm"}],"vName":"Grace Darling Hotel"},"type":"Feature"},{"geometry":{"coordinates":[144.973013,-37.8640582],"type":"Point"},"properties":{"events":[{"categories":["Music"],"eDate":"2025-09-20","eName":"Alera","genre":"Indie","price":"$33.15","supports":[],"ticketUrl":null,"time":" 7pm"}],"vName":"Hotel Esplanade (aka The Espy)"},"type":"Feature"},{"geometry":{"coordinates":[145.0314658,-37.8067273],"type":"Point"},"properties":{"events":[{"categories":["Music"],"eDate":"2025-09-20","eName":"Jailhouse Concert Series: Joe H Henry","genre":null,"price":"$29.00","supports":[],"ticketUrl":null,"time":" 7pm"}],"vName":"Kew Court House"},"type":"Feature"},{"geometry":{"coordinates":[144.8984802,-37.8111559],"type":"Point"},"properties":{"events":[{"categories":["Music"],"eDate":"2025-09-20","eName":"Hayley Jensen","genre":"Country/Folk","price":"$38.00","supports":[],"ticketUrl":null,"time":" 7:30pm"}],"vName":"Kindred Bandroom"},"type":"Feature"},{"geometry":{"coordinates":[145.0008148,-37.8107158],"type":"Point"},"properties":{"events":[{"categories":["Music"],"eDate":"2025-09-20","eName":"The RUOK Big Bash","genre":null,"price":"$23.75","supports":["more"],"ticketUrl":null,"time":" 5pm"}],"vName":"Leadbeater Hotel"},"type":"Feature"},{"geometry":{"coordinates":[144.8975289,-37.8022392],"type":"Point"},"properties":{"events":[{"categories":["Music"],"eDate":"2025-09-20","eName":"Locus","genre":"Indie","price":"$10.00","supports":["Junkyard Wizards"," The Platinum Project"],"ticketUrl":null,"time":" 7:45pm"}],"vName":"Mamma Chen's"},"type":"Feature"},{"geometry":{"coordinates":[144.9658499,-37.8147453],"type":"Point"},"properties":{"events":[{"categories":["Music"],"eDate":"2025-09-20","eName":"Combichrist","genre":"Metal","price":"$54.95","supports":["Witchgrinder"," Our Last Enemy"],"ticketUrl":null,"time":" 7:30pm"}],"vName":"Max Watt's (Melbourne)"},"type":"Feature"},{"geometry":{"coordinates":[144.9675876,-37.8240849],"type":"Point"},"properties":{"events":[{"categories":["Music"],"eDate":"2025-09-20","eName":"Not Drowning, Waving + George Telek: TABARAN","genre":"Global","price":"$69.00","supports":[],"ticketUrl":null,"time":" 8pm"}],"vName":"Melbourne Recital Centre"},"type":"Feature"},{"geometry":{"coordinates":[144.9790251,-37.8675008],"type":"Point"},"properties":{"events":[{"categories":["Music"],"eDate":"2025-09-20","eName":"We’re Riding with the Kings","genre":"Blues","price":"$29.00 - 49.00","supports":[],"ticketUrl":null,"time":" 7pm"}],"vName":"Memo Music Hall"},"type":"Feature"},{"geometry":{"coordinates":[144.9712356,-37.812902],"type":"Point"},"properties":{"events":[{"categories":["Music"],"eDate":"2025-09-20","eName":"Söjourn","genre":"Electronic","price":"Free","supports":[],"ticketUrl":null,"time":" 7pm"}],"vName":"Morris House"},"type":"Feature"},{"geometry":{"coordinates":[144.998414,-37.771471],"type":"Point"},"properties":{"events":[{"categories":["Music"],"eDate":"2025-09-20","eName":"Mudrat","genre":null,"price":"Free","supports":["YARA"," Riverine"],"ticketUrl":null,"time":" 8:30pm"}],"vName":"Northcote Social Club"},"type":"Feature"},{"geometry":{"coordinates":[144.9982706,-37.7737068],"type":"Point"},"properties":{"events":[{"categories":["Music"],"eDate":"2025-09-20","eName":"The Bamboos","genre":"Soul/Funk","price":"$67.52","supports":["DJ Chris Gill"," Kurt Rainbow"," DJ Miss Goldie"],"ticketUrl":null,"time":" 7:30pm"}],"vName":"Northcote Theatre"},"type":"Feature"},{"geometry":{"coordinates":[144.9976902,-37.7745111],"type":"Point"},"properties":{"events":[{"categories":["Music"],"eDate":"2025-09-20","eName":"Bunjil & Paliyang","genre":"Acoustic","price":"$30.00","supports":[],"ticketUrl":null,"time":" 7:30pm"}],"vName":"Northcote Town Hall"},"type":"Feature"},{"geometry":{"coordinates":[145.0015248,-37.8258878],"type":"Point"},"properties":{"events":[{"categories":["Music"],"eDate":"2025-09-20","eName":"Melb Blitz","genre":null,"price":"$28.60","supports":["DJ Randy Lipz XXX"," DJ Bricolage"," DJ Spooky Shaz"],"ticketUrl":null,"time":" 8pm"}],"vName":"Odeon Richmond"},"type":"Feature"},{"geometry":{"coordinates":[144.97711,-37.79833],"type":"Point"},"properties":{"events":[{"categories":["Free","Music"],"eDate":"2025-09-20","eName":"Austyn Jane + Lily Rizetti","genre":"Indie","price":"Free","supports":[],"ticketUrl":null,"time":" 3:30pm"},{"categories":["Music"],"eDate":"2025-09-20","eName":"Merlo","genre":"Rock","price":"Free","supports":[],"ticketUrl":null,"time":" 8pm"}],"vName":"Old Bar"},"type":"Feature"},{"geometry":{"coordinates":[144.97609011199125,-37.867583041643705],"type":"Point"},"properties":{"events":[{"categories":["Music"],"eDate":"2025-09-20","eName":"George Clinton with Parliament Funkadelic","genre":"Soul/Funk","price":"$104.90 - 154.90","supports":[],"ticketUrl":null,"time":" 8pm"}],"vName":"Palais Theatre"},"type":"Feature"},{"geometry":{"coordinates":[144.96084,-37.813514],"type":"Point"},"properties":{"events":[{"categories":["Music"],"eDate":"2025-09-20","eName":"Elly Poletti Sings The A List: Aretha-Adele-Alicia-Amy","genre":"Jazz","price":"$48.00","supports":[],"ticketUrl":null,"time":" 6pm"},{"categories":["Music"],"eDate":"2025-09-20","eName":"Great American Songbook Project with Emma Gilmartin & Nick Haywood","genre":"Jazz","price":"$45.00","supports":[],"ticketUrl":null,"time":" 6:30pm"},{"categories":["Music"],"eDate":"2025-09-20","eName":"Not So Big Band: Best of Bublé with Ben McGill","genre":"Jazz","price":"$48.00","supports":[],"ticketUrl":null,"time":" 9pm"},{"categories":["Music"],"eDate":"2025-09-20","eName":"Stan Meets Chet: Luca Brading Quartet","genre":"Jazz","price":"$45.00","supports":[],"ticketUrl":null,"time":" 9:30pm"}],"vName":"Paris Cat Jazz Club"},"type":"Feature"},{"geometry":{"coordinates":[144.9741326,-37.8619943],"type":"Point"},"properties":{"events":[{"categories":["Free","Music","Markets"],"eDate":"2025-09-20","eName":"St Kilda Record Fair","genre":"Electronic","price":"Free","supports":["DJ Wolfie"],"ticketUrl":null,"time":"11am"},{"categories":["Music"],"eDate":"2025-09-20","eName":"Karan Kanchan","genre":null,"price":"$33.70 - 105.60","supports":[],"ticketUrl":null,"time":"10pm"}],"vName":"Prince Bandroom"},"type":"Feature"},{"geometry":{"coordinates":[144.9615882,-37.7711432],"type":"Point"},"properties":{"events":[{"categories":["Music"],"eDate":"2025-09-20","eName":"The Backyard Banjo Club","genre":"Country/Folk","price":"Free","supports":[],"ticketUrl":null,"time":" 2pm"},{"categories":["Music"],"eDate":"2025-09-20","eName":"Big League + Holy Moses Heartache","genre":null,"price":"$21.36","supports":[],"ticketUrl":null,"time":" 7:30pm"}],"vName":"Retreat Hotel"},"type":"Feature"},{"geometry":{"coordinates":[144.993413,-37.8506652],"type":"Point"},"properties":{"events":[{"categories":["Free","Music"],"eDate":"2025-09-20","eName":"Rise & Shine","genre":"Electronic","price":"Free","supports":[],"ticketUrl":null,"time":" 7am"},{"categories":["Music"],"eDate":"2025-09-20","eName":"The Late Show","genre":"Electronic","price":"$26.52","supports":[],"ticketUrl":null,"time":"10pm"}],"vName":"Revolver Upstairs"},"type":"Feature"},{"geometry":{"coordinates":[145.0013923,-37.7559265],"type":"Point"},"properties":{"events":[{"categories":["Music"],"eDate":"2025-09-20","eName":"Hassal","genre":"Rock","price":"$19.90","supports":[],"ticketUrl":null,"time":" 7:30pm"}],"vName":"Shotkickers"},"type":"Feature"},{"geometry":{"coordinates":[144.9607404,-37.7743469],"type":"Point"},"properties":{"events":[{"categories":["Music"],"eDate":"2025-09-20","eName":"UADA","genre":"Metal","price":"$69.90","supports":["Malignant Aura"," Thrall"],"ticketUrl":null,"time":" 7:30pm"},{"categories":["Music"],"eDate":"2025-09-20","eName":"A Fever You Still Can’t Sweat Out: 20 Year Anniversary Party","genre":"Punk","price":"$16.85 - 23.50","supports":[],"ticketUrl":null,"time":"11pm"}],"vName":"Stay Gold"},"type":"Feature"},{"geometry":{"coordinates":[144.32141,-37.38866],"type":"Point"},"properties":{"events":[{"categories":["Free","Music"],"eDate":"2025-09-20","eName":"Nathan Seeckts","genre":"Acoustic","price":"Free","supports":[],"ticketUrl":null,"time":" 3pm"}],"vName":"The Cosmopolitan Hotel"},"type":"Feature"},{"geometry":{"coordinates":[144.9657057,-37.8061581],"type":"Point"},"properties":{"events":[{"categories":["Music"],"eDate":"2025-09-20","eName":"Shepparton Airplane","genre":"Punk","price":"$33.45","supports":["Bad Bangs"," Reality Winner"],"ticketUrl":null,"time":" 8pm"}],"vName":"The Curtin"},"type":"Feature"},{"geometry":{"coordinates":[144.9770425,-37.8588717],"type":"Point"},"properties":{"events":[{"categories":["Music"],"eDate":"2025-09-20","eName":"Look Sharp Trio + DJ Shadow","genre":"Rock","price":"Free","supports":[],"ticketUrl":null,"time":" 9pm"}],"vName":"The Fifth Province"},"type":"Feature"},{"geometry":{"coordinates":[144.9463641,-37.8047757],"type":"Point"},"properties":{"events":[{"categories":["Music"],"eDate":"2025-09-20","eName":"ROUSSEMOFF","genre":"Metal","price":"$20.00","supports":["Bacchus Harsh"," Bush Fashion"],"ticketUrl":null,"time":" 2:30pm"}],"vName":"The Last Chance Rock & Roll Bar"},"type":"Feature"},{"geometry":{"coordinates":[144.996838,-37.7794356],"type":"Point"},"properties":{"events":[{"categories":["Music"],"eDate":"2025-09-20","eName":"S:Bahn + Suddent Debt","genre":"Rock","price":"Free","supports":[],"ticketUrl":null,"time":" 8pm"}],"vName":"The Merri Creek Tavern"},"type":"Feature"},{"geometry":{"coordinates":[144.9708437,-37.7973184],"type":"Point"},"properties":{"events":[{"categories":["Comedy","Other \"Spoken Word, Poetry \""],"eDate":"2025-09-20","eName":"The Comedian’s Tech","genre":"Rock","price":"$40.52","supports":[],"ticketUrl":null,"time":" 3pm"},{"categories":["Music"],"eDate":"2025-09-20","eName":"Lily Jones","genre":"Indie","price":"Free","supports":[],"ticketUrl":null,"time":" 5pm"},{"categories":["Music"],"eDate":"2025-09-20","eName":"Motley Jazz Jam","genre":"Jazz","price":"Free","supports":[],"ticketUrl":null,"time":" 7:30pm"},{"categories":["Comedy","Theatre"],"eDate":"2025-09-20","eName":"The Big HOO-HAA!","genre":null,"price":"$32.00","supports":[],"ticketUrl":null,"time":" 8:30pm"},{"categories":["Comedy"],"eDate":"2025-09-20","eName":"The Big HOO HAA!","genre":null,"price":"$30.39","supports":[],"ticketUrl":null,"time":" 8:30pm"}],"vName":"The Motley Bauhaus"},"type":"Feature"},{"geometry":{"coordinates":[145.0141502,-37.8117556],"type":"Point"},"properties":{"events":[{"categories":["Music"],"eDate":"2025-09-20","eName":"Omnisutra Anubis: Anpu","genre":"Global","price":"$45.00","supports":[],"ticketUrl":null,"time":" 6:30pm"}],"vName":"The Open Space"},"type":"Feature"},{"geometry":{"coordinates":[144.9621651,-37.7679775],"type":"Point"},"properties":{"events":[{"categories":["Music"],"eDate":"2025-09-20","eName":"Merkani","genre":"Rock","price":"$15.00","supports":["Flynn Teal"," Goose Bay"],"ticketUrl":null,"time":" 9pm"}],"vName":"The Penny Black"},"type":"Feature"},{"geometry":{"coordinates":[144.9998797,-37.7616512],"type":"Point"},"properties":{"events":[{"categories":["Music"],"eDate":"2025-09-20","eName":"Sherri Parry","genre":"Indie","price":"Free","supports":[],"ticketUrl":null,"time":" 8pm"}],"vName":"The Thornbury Local"},"type":"Feature"},{"geometry":{"coordinates":[144.9651425,-37.8119429],"type":"Point"},"properties":{"events":[{"categories":["Free","Music"],"eDate":"2025-09-20","eName":"Is That Garage? Vol 8","genre":"Electronic","price":"Free","supports":[],"ticketUrl":null,"time":"10pm"}],"vName":"The Toff In Town"},"type":"Feature"},{"geometry":{"coordinates":[144.9769451,-37.8055776],"type":"Point"},"properties":{"events":[{"categories":["Music"],"eDate":"2025-09-20","eName":"Vonnyguts","genre":"Rock","price":"$23.50","supports":["Outer Space True Pascoe"," Jake Dalby & The Roses Turned Black"],"ticketUrl":null,"time":" 1pm"},{"categories":["Music"],"eDate":"2025-09-20","eName":"Charlie Pittman","genre":"Indie","price":"$28.60","supports":["Pretty Bleak"," Effie Isobel"],"ticketUrl":null,"time":" 8pm"}],"vName":"The Workers Club"},"type":"Feature"},{"geometry":{"coordinates":[144.975825,-37.863613],"type":"Point"},"properties":{"events":[{"categories":["Music","Theatre"],"eDate":"2025-09-20","eName":"Colour and Light: The Art of Sondheim (Matinee Session)","genre":"Classical","price":"$55.00","supports":[],"ticketUrl":null,"time":" 2pm"}],"vName":"Theatre Works"},"type":"Feature"},{"geometry":{"coordinates":[144.9661635,-37.8176298],"type":"Point"},"properties":{"events":[{"categories":["Free","Music"],"eDate":"2025-09-20","eName":"DJ Jumps","genre":null,"price":"Free","supports":[],"ticketUrl":null,"time":" 9pm"}],"vName":"Wax Music Lounge"},"type":"Feature"},{"geometry":{"coordinates":[144.9984324,-37.7729134],"type":"Point"},"properties":{"events":[{"categories":["Music"],"eDate":"2025-09-20","eName":"Wes Fest 22: The Finale","genre":null,"price":"Free","supports":[],"ticketUrl":null,"time":"12pm"}],"vName":"Wesley Anne"},"type":"Feature"}],"type":"FeatureCollection"}