{"features":[{"geometry":{"coordinates":[144.9679835243618,-37.8201575],"type":"Point"},"properties":{"events":[{"categories":["Theatre"],"eDate":"2024-05-04","eName":"A Midsummer Night's Dream (Matinee)","genre":null,"price":"$40.00 - 110.00","supports":[],"ticketUrl":null,"time":" 2pm"},{"categories":["Theatre"],"eDate":"2024-05-04","eName":"A Midsummer Night's Dream (Second Matinee)","genre":null,"price":"$40.00 - 110.00","supports":[],"ticketUrl":null,"time":" 4pm"}],"vName":"Arts Centre Melbourne"},"type":"Feature"},{"geometry":{"coordinates":[144.9763781,-37.7983136],"type":"Point"},"properties":{"events":[{"categories":["Music"],"eDate":"2024-05-04","eName":"May the 4th Be With You: Emo Night Star Wars Edition","genre":"Punk","price":"$18.03","supports":[],"ticketUrl":null,"time":" 8pm"}],"vName":"Bad Decisions Bar"},"type":"Feature"},{"geometry":{"coordinates":[144.99828116650363,-37.7713296],"type":"Point"},"properties":{"events":[{"categories":["Music"],"eDate":"2024-05-04","eName":"Bohjass Upas Militia","genre":"Jazz","price":"$20.00","supports":["Toqui"," Mick Power Band"," Keyo’s Flying Circus"],"ticketUrl":null,"time":" 7pm"}],"vName":"Bar 303"},"type":"Feature"},{"geometry":{"coordinates":[144.9607158,-37.776327],"type":"Point"},"properties":{"events":[{"categories":["Music"],"eDate":"2024-05-04","eName":"Portal Gun","genre":"Rock","price":"$16.85","supports":["Milou Moon"," Sweet Nothing"],"ticketUrl":null,"time":" 8pm"}],"vName":"Bergy Bandroom"},"type":"Feature"},{"geometry":{"coordinates":[144.9945274,-37.8001115],"type":"Point"},"properties":{"events":[{"categories":["Free","Music","Other \"Food & Drink\""],"eDate":"2024-05-04","eName":"All The Kids' Release Party","genre":null,"price":"Free","supports":[],"ticketUrl":null,"time":" 7pm"}],"vName":"Bodriggy Brewing Company"},"type":"Feature"},{"geometry":{"coordinates":[144.9617018,-37.7704566],"type":"Point"},"properties":{"events":[{"categories":["Music"],"eDate":"2024-05-04","eName":"Babe Rainbow","genre":"Rock","price":"$43.96","supports":["Very Nice Person"],"ticketUrl":null,"time":" 8:30pm"}],"vName":"Brunswick Ballroom"},"type":"Feature"},{"geometry":{"coordinates":[144.9713425,-37.8128595],"type":"Point"},"properties":{"events":[{"categories":["Music"],"eDate":"2024-05-04","eName":"Cherryfest 2024","genre":"Rock","price":"$27.70","supports":["more"],"ticketUrl":null,"time":" 2pm"},{"categories":["Free","Music"],"eDate":"2024-05-04","eName":"Cherry Blues: 6v6s","genre":"Blues","price":"Free","supports":[],"ticketUrl":null,"time":" 4pm"}],"vName":"Cherry Bar"},"type":"Feature"},{"geometry":{"coordinates":[144.9248037207342,-37.7656716],"type":"Point"},"properties":{"events":[{"categories":["Comedy","Theatre"],"eDate":"2024-05-04","eName":"NEWK: The John Newcombe Story","genre":null,"price":"$50.00","supports":[],"ticketUrl":null,"time":" 7:30pm"}],"vName":"Clocktower Centre"},"type":"Feature"},{"geometry":{"coordinates":[144.99266639479475,-37.82488935],"type":"Point"},"properties":{"events":[{"categories":["Music"],"eDate":"2024-05-04","eName":"Kirin J. Callinan","genre":"Indie","price":"$46.00","supports":["Arthington Stack"],"ticketUrl":null,"time":" 8pm"}],"vName":"Corner Hotel"},"type":"Feature"},{"geometry":{"coordinates":[144.9628440552175,-37.76100605],"type":"Point"},"properties":{"events":[{"categories":["Free","Music"],"eDate":"2024-05-04","eName":"Retratos","genre":"Global","price":"Free","supports":[],"ticketUrl":null,"time":" 6pm"}],"vName":"Edinburgh Castle Hotel"},"type":"Feature"},{"geometry":{"coordinates":[144.9073334,-37.8033391],"type":"Point"},"properties":{"events":[{"categories":["Free","Other \"Film\""],"eDate":"2024-05-04","eName":"TILDE Film Festival: Our Future","genre":null,"price":"Free","supports":[],"ticketUrl":null,"time":" 2pm"},{"categories":["Theatre","Other \"Film\""],"eDate":"2024-05-04","eName":"TILDE Film Festival: Our Elders","genre":null,"price":"$5.00 - 15.00","supports":[],"ticketUrl":null,"time":" 6pm"},{"categories":["Theatre","Other \"Film\""],"eDate":"2024-05-04","eName":"TILDE Film Festival: GAY24 Presents TRANS DOMESTICITY","genre":null,"price":"$5.00 - 15.00","supports":[],"ticketUrl":null,"time":" 9pm"}],"vName":"Footscray Community Arts"},"type":"Feature"},{"geometry":{"coordinates":[144.9875917,-37.7963837],"type":"Point"},"properties":{"events":[{"categories":["Free","Music"],"eDate":"2024-05-04","eName":"Harry Howard's Slight Pavillions + Velvet Parade","genre":"Rock","price":"Free","supports":[],"ticketUrl":null,"time":" 8pm"}],"vName":"Gem Bar"},"type":"Feature"},{"geometry":{"coordinates":[144.9679835243618,-37.8201575],"type":"Point"},"properties":{"events":[{"categories":["Free","Theatre"],"eDate":"2024-05-04","eName":"Monster High","genre":null,"price":"Free","supports":[],"ticketUrl":null,"time":"12:30pm"}],"vName":"Hamer Hall (Arts Centre Melbourne)"},"type":"Feature"},{"geometry":{"coordinates":[144.9764962,-37.7983139],"type":"Point"},"properties":{"events":[{"categories":["Music"],"eDate":"2024-05-04","eName":"Next Crop","genre":null,"price":"$11.36","supports":["Lifeofti"," Pri$m"," Skaars"," Nate6"," MB1"," Defect"," Izel Jamez"," Yungblonde"," Desi3g"," Zach Byrne"],"ticketUrl":null,"time":" 9pm"},{"categories":["Music"],"eDate":"2024-05-04","eName":"Travis Scott Party","genre":"Hip Hop","price":"$11.36","supports":[],"ticketUrl":null,"time":"10pm"},{"categories":["Music"],"eDate":"2024-05-04","eName":"LAUNDRY Saturdays","genre":"Hip Hop","price":"$16.53","supports":[],"ticketUrl":null,"time":"10pm"}],"vName":"Laundry Bar"},"type":"Feature"},{"geometry":{"coordinates":[144.9936498,-37.8000264],"type":"Point"},"properties":{"events":[{"categories":["Free","Music","Festival"],"eDate":"2024-05-04","eName":"Lulie’s Ninth Birthday","genre":"Indie","price":"Free","supports":[],"ticketUrl":null,"time":" 9pm"}],"vName":"Lulie Tavern"},"type":"Feature"},{"geometry":{"coordinates":[144.96741062735794,-37.82454855],"type":"Point"},"properties":{"events":[{"categories":["Music"],"eDate":"2024-05-04","eName":"Jane Austen's Music","genre":"Classical","price":"$35.00","supports":[],"ticketUrl":null,"time":" 3pm"},{"categories":["Music"],"eDate":"2024-05-04","eName":"Tamas Wells","genre":"Acoustic","price":"$44.00","supports":["Kim Beales"],"ticketUrl":null,"time":" 7pm"}],"vName":"Melbourne Recital Centre"},"type":"Feature"},{"geometry":{"coordinates":[144.998414,-37.771471],"type":"Point"},"properties":{"events":[{"categories":["Music"],"eDate":"2024-05-04","eName":"BDSM-420 Records presents Our Carlson","genre":"Rock","price":"$35.30","supports":["Blonde Revolver"," The Vovos"," C.R.A.I.G"],"ticketUrl":null,"time":" 8pm"}],"vName":"Northcote Social Club"},"type":"Feature"},{"geometry":{"coordinates":[144.9977626,-37.7755001],"type":"Point"},"properties":{"events":[{"categories":["Music"],"eDate":"2024-05-04","eName":"Chelsea Cutler","genre":"Pop","price":"$74.90","supports":["Neptune"],"ticketUrl":null,"time":" 7:30pm"}],"vName":"Northcote Theatre"},"type":"Feature"},{"geometry":{"coordinates":[144.97711,-37.79833],"type":"Point"},"properties":{"events":[{"categories":["Music"],"eDate":"2024-05-04","eName":"Dream, Inertia + Daisy Chain","genre":"Metal","price":"$15.00","supports":["Gil Cerrone"," The World At A Glance"," Keratin"," Pala"],"ticketUrl":null,"time":" 8pm"}],"vName":"Old Bar"},"type":"Feature"},{"geometry":{"coordinates":[144.9605705,-37.8132486],"type":"Point"},"properties":{"events":[{"categories":["Music"],"eDate":"2024-05-04","eName":"Sarah Maclaine’s That’s My Theme","genre":"Jazz","price":"$45.00","supports":[],"ticketUrl":null,"time":" 6pm"},{"categories":["Music"],"eDate":"2024-05-04","eName":"Not So Big Band: Shaken Not Stirred - The Music of James Bond (ft. Ben McGill)","genre":"Jazz","price":"$45.00","supports":[],"ticketUrl":null,"time":" 9pm"}],"vName":"Paris Cat Jazz Club"},"type":"Feature"},{"geometry":{"coordinates":[144.9631913,-37.7617818],"type":"Point"},"properties":{"events":[{"categories":["Free","Music"],"eDate":"2024-05-04","eName":"Anne Simmons & The Bitter Shush + Malibu Spacey","genre":"Indie","price":"Free","supports":[],"ticketUrl":null,"time":" 8pm"}],"vName":"Ringo Barr"},"type":"Feature"},{"geometry":{"coordinates":[144.9878631,-37.9220954],"type":"Point"},"properties":{"events":[{"categories":["Music"],"eDate":"2024-05-04","eName":"Alexis Fishman: Amy Winehouse Resurrected","genre":"Soul/Funk","price":"$55.00","supports":[],"ticketUrl":null,"time":" 8:30pm"}],"vName":"Royal Brighton Yacht Club"},"type":"Feature"},{"geometry":{"coordinates":[144.9706095,-37.7783326],"type":"Point"},"properties":{"events":[{"categories":["Free","Music"],"eDate":"2024-05-04","eName":"May The Fourth: AstroVillain Plays Star Wars","genre":"Punk","price":"Free","supports":[],"ticketUrl":null,"time":" 9pm"}],"vName":"The Beast"},"type":"Feature"},{"geometry":{"coordinates":[144.9585654,-37.8059962],"type":"Point"},"properties":{"events":[{"categories":["Music"],"eDate":"2024-05-04","eName":"Carpal Tunnel Band","genre":"Rock","price":"$16.35","supports":["Romcom"," Signal Chain"],"ticketUrl":null,"time":" 7:30pm"}],"vName":"The Last Chance Rock & Roll Bar"},"type":"Feature"},{"geometry":{"coordinates":[144.9622,-37.7679857],"type":"Point"},"properties":{"events":[{"categories":["Free","Music"],"eDate":"2024-05-04","eName":"May The 4th Be With You with The Engagment","genre":"Rock","price":"Free","supports":[],"ticketUrl":null,"time":" 7pm"}],"vName":"The Penny Black"},"type":"Feature"},{"geometry":{"coordinates":[144.9523262,-38.401806],"type":"Point"},"properties":{"events":[{"categories":["Music"],"eDate":"2024-05-04","eName":"Brooke Taylor & The Poison Spitting Gin Queens","genre":"Country/Folk","price":"$35.00","supports":[],"ticketUrl":null,"time":" 8pm"}],"vName":"The Shed @ The Pig & Whistle"},"type":"Feature"},{"geometry":{"coordinates":[144.9651425,-37.8119429],"type":"Point"},"properties":{"events":[{"categories":["Dance","Other \"Cabaret\""],"eDate":"2024-05-04","eName":"Star Tease: Episode 6","genre":null,"price":"$29.58 - 35.70","supports":[],"ticketUrl":null,"time":" 2pm"},{"categories":["Free","Music"],"eDate":"2024-05-04","eName":"Mondo Ritmo presents Ballare","genre":"Electronic","price":"Free","supports":["Dischi Volandi"],"ticketUrl":null,"time":"11pm"}],"vName":"The Toff In Town"},"type":"Feature"}],"type":"FeatureCollection"}