{"features":[{"geometry":{"coordinates":[144.9945274,-37.8001115],"type":"Point"},"properties":{"events":[{"categories":["Free","Music","Other \"Food & Drink\""],"eDate":"2024-03-13","eName":"Louis King Trio","genre":null,"price":"Free","supports":[],"ticketUrl":null,"time":" 7pm"}],"vName":"Bodriggy Brewing Company"},"type":"Feature"},{"geometry":{"coordinates":[144.9655785,-37.8118954],"type":"Point"},"properties":{"events":[{"categories":["Free","Music"],"eDate":"2024-03-13","eName":"Mon's Jams","genre":"Electronic","price":"Free","supports":[],"ticketUrl":null,"time":" 8pm"}],"vName":"Ferdydurke"},"type":"Feature"},{"geometry":{"coordinates":[144.9596527,-37.7720304],"type":"Point"},"properties":{"events":[{"categories":["Comedy"],"eDate":"2024-03-13","eName":"RAW Comedy 2024: VIC Semi Final #2","genre":null,"price":"$17.34","supports":["more"],"ticketUrl":null,"time":" 7:30pm"}],"vName":"Howler"},"type":"Feature"},{"geometry":{"coordinates":[144.96741062735794,-37.82454855],"type":"Point"},"properties":{"events":[{"categories":["Music"],"eDate":"2024-03-13","eName":"Franck Vigroux & Antoine Schmitt","genre":"Electronic","price":"$50.00","supports":[],"ticketUrl":null,"time":" 7pm"},{"categories":["Music"],"eDate":"2024-03-13","eName":"Franck Vigroux & Antoine Schmitt (Later Session)","genre":"Electronic","price":"$50.00","supports":[],"ticketUrl":null,"time":" 7pm"}],"vName":"Melbourne Recital Centre"},"type":"Feature"},{"geometry":{"coordinates":[144.998414,-37.771471],"type":"Point"},"properties":{"events":[{"categories":["Other \"Film\""],"eDate":"2024-03-13","eName":"'Airplane!' AKA 'Flying High!' (Film Screening)","genre":null,"price":"Free","supports":[],"ticketUrl":null,"time":" 8pm"}],"vName":"Northcote Social Club"},"type":"Feature"},{"geometry":{"coordinates":[144.97711,-37.79833],"type":"Point"},"properties":{"events":[{"categories":["Music"],"eDate":"2024-03-13","eName":"Young Love","genre":"Rock","price":"$10.00","supports":["Carrieland"," Krystyna"],"ticketUrl":null,"time":" 8pm"}],"vName":"Old Bar"},"type":"Feature"},{"geometry":{"coordinates":[144.9631913,-37.7617818],"type":"Point"},"properties":{"events":[{"categories":["Free","Music"],"eDate":"2024-03-13","eName":"Anna Morley","genre":"Acoustic","price":"Free","supports":[],"ticketUrl":null,"time":" 8pm"}],"vName":"Ringo Barr"},"type":"Feature"},{"geometry":{"coordinates":[145.13337431967784,-37.91372355],"type":"Point"},"properties":{"events":[{"categories":["Music"],"eDate":"2024-03-13","eName":"Live at The Counts: Fabulous Diva - The Music of Nina Simone (Ruth Rogers Wright)","genre":"Jazz","price":"$10.00 - 25.00","supports":[],"ticketUrl":null,"time":" 7:30pm"}],"vName":"The Ian Potter Centre for Performing Arts"},"type":"Feature"}],"type":"FeatureCollection"}