{"features":[{"geometry":{"coordinates":[144.9679369,-37.8120109],"type":"Point"},"properties":{"events":[{"categories":["Music","Other \"Trivia \""],"eDate":"2025-05-31","eName":"Bingo Loco presents Day Shift","genre":"Electronic","price":"$47.94 - 50.49","supports":[],"ticketUrl":null,"time":" 6pm"}],"vName":"170 Russell"},"type":"Feature"},{"geometry":{"coordinates":[144.9982812,-37.7713296],"type":"Point"},"properties":{"events":[{"categories":["Free","Music"],"eDate":"2025-05-31","eName":"The Clunk Orchestra","genre":"Jazz","price":"Free","supports":[],"ticketUrl":null,"time":" 3:30pm"}],"vName":"Bar 303"},"type":"Feature"},{"geometry":{"coordinates":[144.978682,-37.7981225],"type":"Point"},"properties":{"events":[{"categories":["Free","Music"],"eDate":"2025-05-31","eName":"Harrisen Hughes","genre":null,"price":"Free","supports":[],"ticketUrl":null,"time":" 9pm"},{"categories":["Free","Music"],"eDate":"2025-05-31","eName":"Woody Samson","genre":null,"price":"Free","supports":[],"ticketUrl":null,"time":" 9pm"},{"categories":["Free","Music"],"eDate":"2025-05-31","eName":"DJ Damien Mack","genre":null,"price":"Free","supports":[],"ticketUrl":null,"time":"10pm"}],"vName":"Baxter's Lot"},"type":"Feature"},{"geometry":{"coordinates":[144.9607158,-37.776327],"type":"Point"},"properties":{"events":[{"categories":["Music"],"eDate":"2025-05-31","eName":"Sanny Veloo","genre":"Rock","price":"$16.85","supports":["Cammi Kol"," Man vs Synth"," Danger Den"],"ticketUrl":null,"time":" 7:30pm"}],"vName":"Bergy Bandroom"},"type":"Feature"},{"geometry":{"coordinates":[144.9568039,-37.8111442],"type":"Point"},"properties":{"events":[{"categories":["Music"],"eDate":"2025-05-31","eName":"Fleetwood Max","genre":"Rock","price":"$40.00","supports":[],"ticketUrl":null,"time":" 7:30pm"}],"vName":"Bird's Basement"},"type":"Feature"},{"geometry":{"coordinates":[144.9617083,-37.7704205],"type":"Point"},"properties":{"events":[{"categories":["Music"],"eDate":"2025-05-31","eName":"Ballroom Barndance: An Afternoon of Square Dance & Two Steppin’","genre":"Country/Folk","price":"$28.15","supports":[],"ticketUrl":null,"time":" 1:30pm"},{"categories":["Music"],"eDate":"2025-05-31","eName":"Cumbia Massive","genre":"Global","price":"$28.15 - 33.76","supports":[],"ticketUrl":null,"time":" 8:30pm"}],"vName":"Brunswick Ballroom"},"type":"Feature"},{"geometry":{"coordinates":[144.9668096,-37.8133834],"type":"Point"},"properties":{"events":[{"categories":["Comedy"],"eDate":"2025-05-31","eName":"Sonia Di Iorio: Battute Per Peccatori (Italian Language)","genre":null,"price":"$30.00","supports":[],"ticketUrl":null,"time":" 6:30pm"}],"vName":"Comedy Republic"},"type":"Feature"},{"geometry":{"coordinates":[144.9926664,-37.8248893],"type":"Point"},"properties":{"events":[{"categories":["Music"],"eDate":"2025-05-31","eName":"Madonna: Immaculate Collection 35 Year Celebration","genre":"Pop","price":"$26.05","supports":[],"ticketUrl":null,"time":" 8:30pm"}],"vName":"Corner Hotel"},"type":"Feature"},{"geometry":{"coordinates":[144.9679835,-37.8201575],"type":"Point"},"properties":{"events":[{"categories":["Music"],"eDate":"2025-05-31","eName":"Grieg’s Piano Concerto","genre":"Classical","price":"$75.00","supports":[],"ticketUrl":null,"time":" 2pm"},{"categories":["Music"],"eDate":"2025-05-31","eName":"Grieg’s Piano Concerto","genre":"Classical","price":"$75.00 - 142.00","supports":[],"ticketUrl":null,"time":" 2pm"},{"categories":["Other \"Spoken Word, Poetry \""],"eDate":"2025-05-31","eName":"The Psychology of Serial Killers","genre":null,"price":"$79.90","supports":[],"ticketUrl":null,"time":" 8pm"}],"vName":"Hamer Hall (Arts Centre Melbourne)"},"type":"Feature"},{"geometry":{"coordinates":[144.973013,-37.8640582],"type":"Point"},"properties":{"events":[{"categories":["Music"],"eDate":"2025-05-31","eName":"Beautiful Bedlam","genre":"Rock","price":"$10.75","supports":["Last Earthfall"," The Aidan Black Project"],"ticketUrl":null,"time":" 6:30pm"}],"vName":"Hotel Esplanade (aka The Espy)"},"type":"Feature"},{"geometry":{"coordinates":[144.8984802,-37.8111559],"type":"Point"},"properties":{"events":[{"categories":["Music"],"eDate":"2025-05-31","eName":"Papuan Jungle Sound System Launch Party","genre":"Electronic","price":"$32.74","supports":["DJ Possum"," General Feelings"," Kate Miller",""," Margot Michat"," Mendoza"," Milfort"," Palazzo"," Poli Pearl"," Walla C"," Willis Anne"," Yi Lum"],"ticketUrl":null,"time":" 2pm"}],"vName":"Kindred Bandroom"},"type":"Feature"},{"geometry":{"coordinates":[145.0008148,-37.8107158],"type":"Point"},"properties":{"events":[{"categories":["Music"],"eDate":"2025-05-31","eName":"One Wild Night In Paradise City: Guns And Roses / Bon Jovi Tribute Show","genre":"Rock","price":"$28.85","supports":["Burn City Saints"],"ticketUrl":null,"time":" 8pm"}],"vName":"Leadbeater Hotel"},"type":"Feature"},{"geometry":{"coordinates":[144.8975289,-37.8022392],"type":"Point"},"properties":{"events":[{"categories":["Music"],"eDate":"2025-05-31","eName":"Dead","genre":null,"price":"$15.00 - 20.00","supports":["Jalang"," T.B.X"],"ticketUrl":null,"time":" 2:45pm"},{"categories":["Music"],"eDate":"2025-05-31","eName":"Orphix","genre":null,"price":"$15.00 - 20.00","supports":["Keyo Roses Flying Circus"," The Roy Boys"],"ticketUrl":null,"time":" 7:45pm"}],"vName":"Mamma Chen's"},"type":"Feature"},{"geometry":{"coordinates":[144.9658499,-37.8147453],"type":"Point"},"properties":{"events":[{"categories":["Music"],"eDate":"2025-05-31","eName":"R.M.F.C.","genre":"Rock","price":"$38.25","supports":["Gee Tee"," Terry"," DJ Daddy"," Bridget Small"," Alien Nosejob"],"ticketUrl":null,"time":" 8pm"}],"vName":"Max Watt's (Melbourne)"},"type":"Feature"},{"geometry":{"coordinates":[144.9675876,-37.8240849],"type":"Point"},"properties":{"events":[{"categories":["Music"],"eDate":"2025-05-31","eName":"The Art of Tango","genre":"Global","price":"$69.00","supports":[],"ticketUrl":null,"time":" 7:30pm"}],"vName":"Melbourne Recital Centre"},"type":"Feature"},{"geometry":{"coordinates":[144.9790251,-37.8675008],"type":"Point"},"properties":{"events":[{"categories":["Music"],"eDate":"2025-05-31","eName":"Grand Wazoo: Soul With A Capital S","genre":"Soul/Funk","price":"$59.00 - 79.00","supports":["Jeff Duff"],"ticketUrl":null,"time":" 7pm"}],"vName":"Memo Music Hall"},"type":"Feature"},{"geometry":{"coordinates":[144.9712356,-37.812902],"type":"Point"},"properties":{"events":[{"categories":["Comedy"],"eDate":"2025-05-31","eName":"Basement Comedy Club","genre":null,"price":"$25.00","supports":[],"ticketUrl":null,"time":" 8pm"}],"vName":"Morris House"},"type":"Feature"},{"geometry":{"coordinates":[144.9982706,-37.7737068],"type":"Point"},"properties":{"events":[{"categories":["Music"],"eDate":"2025-05-31","eName":"Cloud Control","genre":"Rock","price":"Free","supports":[],"ticketUrl":null,"time":" 7:30pm"}],"vName":"Northcote Theatre"},"type":"Feature"},{"geometry":{"coordinates":[145.0015248,-37.8258878],"type":"Point"},"properties":{"events":[{"categories":["Music"],"eDate":"2025-05-31","eName":"Moving Towards The Pulsebeat","genre":null,"price":"Free","supports":[],"ticketUrl":null,"time":" 7pm"}],"vName":"Odeon Richmond"},"type":"Feature"},{"geometry":{"coordinates":[144.97711,-37.79833],"type":"Point"},"properties":{"events":[{"categories":["Music"],"eDate":"2025-05-31","eName":"Religious Disturbance","genre":"Metal","price":"$17.35","supports":["Shipyard"," Labitulate"," Skezm"," Overthrone"],"ticketUrl":null,"time":" 7:30pm"}],"vName":"Old Bar"},"type":"Feature"},{"geometry":{"coordinates":[144.96084,-37.813514],"type":"Point"},"properties":{"events":[{"categories":["Music"],"eDate":"2025-05-31","eName":"‘Dai, Ciccio!’ The Great Italian Songbook","genre":"Jazz","price":"$45.00","supports":[],"ticketUrl":null,"time":" 6pm"},{"categories":["Music"],"eDate":"2025-05-31","eName":"Tamara Kuldin & Paul Coyle present Ella & Louis: Cheek to Cheek","genre":"Jazz","price":"$45.00","supports":[],"ticketUrl":null,"time":" 6:30pm"},{"categories":["Music"],"eDate":"2025-05-31","eName":"The Little Bourke Big Band Presents: The Music of Vulfpeck","genre":"Jazz","price":"$45.00","supports":[],"ticketUrl":null,"time":" 9pm"},{"categories":["Music"],"eDate":"2025-05-31","eName":"Richard Pavlidis Presents: The Music Of Charlie ‘Bird’ Parker","genre":"Jazz","price":"$45.00","supports":[],"ticketUrl":null,"time":" 9:30pm"}],"vName":"Paris Cat Jazz Club"},"type":"Feature"},{"geometry":{"coordinates":[144.9661336,-37.7358243],"type":"Point"},"properties":{"events":[{"categories":["Music"],"eDate":"2025-05-31","eName":"Spoonful","genre":"Rock","price":"Free","supports":[],"ticketUrl":null,"time":" 9pm"}],"vName":"Post Office Hotel"},"type":"Feature"},{"geometry":{"coordinates":[145.0142411,-37.7310367],"type":"Point"},"properties":{"events":[{"categories":["Music"],"eDate":"2025-05-31","eName":"Beltin’ Elton With Nitida","genre":"Pop","price":"Free","supports":[],"ticketUrl":null,"time":" 8pm"}],"vName":"Ragtime Tavern"},"type":"Feature"},{"geometry":{"coordinates":[144.9615882,-37.7711432],"type":"Point"},"properties":{"events":[{"categories":["Music"],"eDate":"2025-05-31","eName":"Fur Blossom","genre":null,"price":"$15.00","supports":["Erica Avenue"," Skiptons"],"ticketUrl":null,"time":" 7:30pm"}],"vName":"Retreat Hotel"},"type":"Feature"},{"geometry":{"coordinates":[145.3534507,-37.9100746],"type":"Point"},"properties":{"events":[{"categories":["Music"],"eDate":"2025-05-31","eName":"The Sharp","genre":"Rock","price":"$39.80","supports":[],"ticketUrl":null,"time":" 6pm"},{"categories":["Music"],"eDate":"2025-05-31","eName":"HDC with QQQ & ST PARK","genre":"Electronic","price":"$20.00","supports":[],"ticketUrl":null,"time":" 9pm"}],"vName":"Sooki Lounge"},"type":"Feature"},{"geometry":{"coordinates":[144.9607404,-37.7743469],"type":"Point"},"properties":{"events":[{"categories":["Music"],"eDate":"2025-05-31","eName":"Romance: A Fontaines D.C. Appreciation Night","genre":"Punk","price":"$13.80 - 22.00","supports":[],"ticketUrl":null,"time":"11pm"}],"vName":"Stay Gold"},"type":"Feature"},{"geometry":{"coordinates":[144.9751557,-37.8057885],"type":"Point"},"properties":{"events":[{"categories":["Music"],"eDate":"2025-05-31","eName":"Our Zebra Troy","genre":null,"price":"$17.00 - 25.00","supports":["Floss"," Ozergun"],"ticketUrl":null,"time":" 7:30pm"}],"vName":"The Catfish"},"type":"Feature"},{"geometry":{"coordinates":[144.9995955,-37.762377],"type":"Point"},"properties":{"events":[{"categories":["Music"],"eDate":"2025-05-31","eName":"Forward Ever #21","genre":"Electronic","price":"$25.00 - 35.00","supports":[],"ticketUrl":null,"time":" 6pm"}],"vName":"The Croxton"},"type":"Feature"},{"geometry":{"coordinates":[144.9586498,-37.766903],"type":"Point"},"properties":{"events":[{"categories":["Music"],"eDate":"2025-05-31","eName":"Michaela Jayde","genre":"Jazz","price":"$35.00 - 40.00","supports":[],"ticketUrl":null,"time":" 8pm"}],"vName":"The Jazzlab"},"type":"Feature"},{"geometry":{"coordinates":[144.9879283,-37.7505509],"type":"Point"},"properties":{"events":[{"categories":["Music"],"eDate":"2025-05-31","eName":"Chloe Vitale","genre":"Acoustic","price":"Free","supports":[],"ticketUrl":null,"time":" 7pm"}],"vName":"The Merri Bar"},"type":"Feature"},{"geometry":{"coordinates":[144.9708437,-37.7973184],"type":"Point"},"properties":{"events":[{"categories":["Music"],"eDate":"2025-05-31","eName":"Aeriqah","genre":null,"price":"Free","supports":[],"ticketUrl":null,"time":" 5pm"},{"categories":["Music"],"eDate":"2025-05-31","eName":"Motley Jazz Jam","genre":"Jazz","price":"Free","supports":[],"ticketUrl":null,"time":" 7:30pm"},{"categories":["Comedy","Theatre"],"eDate":"2025-05-31","eName":"The Big HOO-HAA!","genre":null,"price":"$32.00","supports":[],"ticketUrl":null,"time":" 8:30pm"}],"vName":"The Motley Bauhaus"},"type":"Feature"},{"geometry":{"coordinates":[144.9794553,-37.7982653],"type":"Point"},"properties":{"events":[{"categories":["Music"],"eDate":"2025-05-31","eName":"Kofi Stone","genre":"Hip Hop","price":"$64.90","supports":[],"ticketUrl":null,"time":" 7:30pm"}],"vName":"The Night Cat"},"type":"Feature"},{"geometry":{"coordinates":[145.1818891,-37.8163371],"type":"Point"},"properties":{"events":[{"categories":["Theatre"],"eDate":"2025-05-31","eName":"The Queen’s Nanny (Matinee Session)","genre":null,"price":"$56.00","supports":[],"ticketUrl":null,"time":" 1:30pm"},{"categories":["Comedy"],"eDate":"2025-05-31","eName":"Dave Thornton: Nothing’s Unpossible","genre":null,"price":"$42.00","supports":[],"ticketUrl":null,"time":" 7pm"},{"categories":["Theatre"],"eDate":"2025-05-31","eName":"The Queen’s Nanny","genre":null,"price":"$56.00","supports":[],"ticketUrl":null,"time":" 7:30pm"}],"vName":"The Round"},"type":"Feature"},{"geometry":{"coordinates":[144.9870814,-37.799406],"type":"Point"},"properties":{"events":[{"categories":["Music"],"eDate":"2025-05-31","eName":"Loose Content","genre":null,"price":"$16.35","supports":[],"ticketUrl":null,"time":" 8:30pm"},{"categories":["Music"],"eDate":"2025-05-31","eName":"Sacred Cowboys","genre":"Rock","price":"$16.35","supports":["Loose Content"],"ticketUrl":null,"time":" 8:30pm"}],"vName":"The Tote Hotel"},"type":"Feature"},{"geometry":{"coordinates":[144.2195588,-37.0663699],"type":"Point"},"properties":{"events":[{"categories":["Music"],"eDate":"2025-05-31","eName":"Alpha Wolf","genre":"Metal","price":"$54.90","supports":["Malevolence"," Zuko"," Melting"],"ticketUrl":null,"time":" 7pm"}],"vName":"Theatre Royal Castlemaine"},"type":"Feature"}],"type":"FeatureCollection"}