{"features":[{"geometry":{"coordinates":[144.978425,-37.79773],"type":"Point"},"properties":{"events":[{"categories":["Music"],"eDate":"2025-11-22","eName":"Darning","genre":null,"price":"$14.00","supports":["The Boatmen"," Babchia"],"ticketUrl":null,"time":" 7pm"}],"vName":"Bar Open"},"type":"Feature"},{"geometry":{"coordinates":[144.978682,-37.7981225],"type":"Point"},"properties":{"events":[{"categories":["Free","Music"],"eDate":"2025-11-22","eName":"Tejo D’Cruz","genre":null,"price":"Free","supports":[],"ticketUrl":null,"time":" 9pm"}],"vName":"Baxter's Lot"},"type":"Feature"},{"geometry":{"coordinates":[144.9891167,-37.7996488],"type":"Point"},"properties":{"events":[{"categories":["Music"],"eDate":"2025-11-22","eName":"Hard-Ons","genre":"Punk","price":"$35.70","supports":[],"ticketUrl":null,"time":" 9pm"}],"vName":"Bendigo Hotel"},"type":"Feature"},{"geometry":{"coordinates":[144.9607158,-37.776327],"type":"Point"},"properties":{"events":[{"categories":["Music"],"eDate":"2025-11-22","eName":"Kurilpa Reach","genre":"Soul/Funk","price":"$16.85 - 22.95","supports":[],"ticketUrl":null,"time":" 8pm"}],"vName":"Bergy Bandroom"},"type":"Feature"},{"geometry":{"coordinates":[144.9568039,-37.8111442],"type":"Point"},"properties":{"events":[{"categories":["Music"],"eDate":"2025-11-22","eName":"Michael Charles","genre":"Blues","price":"$45.00","supports":["Phil & Trudy Edgeley"],"ticketUrl":null,"time":" 6pm"}],"vName":"Bird's Basement"},"type":"Feature"},{"geometry":{"coordinates":[144.9617083,-37.7704205],"type":"Point"},"properties":{"events":[{"categories":["Music"],"eDate":"2025-11-22","eName":"19-Twenty","genre":"Blues","price":"$43.96","supports":[],"ticketUrl":null,"time":" 8:30pm"}],"vName":"Brunswick Ballroom"},"type":"Feature"},{"geometry":{"coordinates":[145.0002585,-37.7592368],"type":"Point"},"properties":{"events":[{"categories":["Music"],"eDate":"2025-11-22","eName":"Guam at Gummo","genre":null,"price":"$10.00","supports":["Jack Attack"," Roots Fire Sound"," Lego"," Goody's HiFi"],"ticketUrl":null,"time":" 4pm"}],"vName":"Cafe Gummo"},"type":"Feature"},{"geometry":{"coordinates":[144.9713425,-37.8128595],"type":"Point"},"properties":{"events":[{"categories":["Music"],"eDate":"2025-11-22","eName":"FOOVANA","genre":"Rock","price":"$20.54","supports":[],"ticketUrl":null,"time":" 8pm"}],"vName":"Cherry Bar"},"type":"Feature"},{"geometry":{"coordinates":[144.9248037,-37.7656716],"type":"Point"},"properties":{"events":[{"categories":["Other \"Dance \""],"eDate":"2025-11-22","eName":"Instyle Dance Company presents ETERNAL (Matinee Session)","genre":null,"price":"$48.00","supports":[],"ticketUrl":null,"time":" 1:30pm"}],"vName":"Clocktower Centre"},"type":"Feature"},{"geometry":{"coordinates":[144.9926664,-37.8248893],"type":"Point"},"properties":{"events":[{"categories":["Music"],"eDate":"2025-11-22","eName":"Onslaught","genre":"Metal","price":"$74.10","supports":["Desecrator"," Vexation"," Harlott"],"ticketUrl":null,"time":" 8pm"}],"vName":"Corner Hotel"},"type":"Feature"},{"geometry":{"coordinates":[144.9693768,-37.8164414],"type":"Point"},"properties":{"events":[{"categories":["Music"],"eDate":"2025-11-22","eName":"Sharon Van Etten & The Attachment Theory","genre":"Rock","price":"Free","supports":["Cash Savage"],"ticketUrl":null,"time":" 7:30pm"}],"vName":"Forum Melbourne"},"type":"Feature"},{"geometry":{"coordinates":[144.9875792,-37.7963739],"type":"Point"},"properties":{"events":[{"categories":["Music"],"eDate":"2025-11-22","eName":"Slander Tongue","genre":"Rock","price":"$18.10","supports":["Drunk Mums"," Blowers"],"ticketUrl":null,"time":" 8pm"}],"vName":"Gem Bar"},"type":"Feature"},{"geometry":{"coordinates":[144.983442,-37.804851],"type":"Point"},"properties":{"events":[{"categories":["Music"],"eDate":"2025-11-22","eName":"Ruby Jones","genre":"Indie","price":"$20.00","supports":["Hollie Joyce"],"ticketUrl":null,"time":" 8pm"}],"vName":"Grace Darling Hotel"},"type":"Feature"},{"geometry":{"coordinates":[144.9679835,-37.8201575],"type":"Point"},"properties":{"events":[{"categories":["Music"],"eDate":"2025-11-22","eName":"Ryman Healthcare Spring Gala: Joyce DiDonato","genre":"Classical","price":"$76.00","supports":[],"ticketUrl":null,"time":" 7:30pm"}],"vName":"Hamer Hall (Arts Centre Melbourne)"},"type":"Feature"},{"geometry":{"coordinates":[144.9596527,-37.7720304],"type":"Point"},"properties":{"events":[{"categories":["Music"],"eDate":"2025-11-22","eName":"DJ STINGRAY 313","genre":"Electronic","price":"Free","supports":[],"ticketUrl":null,"time":" 3pm"},{"categories":["Music"],"eDate":"2025-11-22","eName":"Summer Breaks: Stanton Warriors","genre":"Electronic","price":"Free","supports":[],"ticketUrl":null,"time":" 6pm"}],"vName":"Howler"},"type":"Feature"},{"geometry":{"coordinates":[144.9571785,-37.8188809],"type":"Point"},"properties":{"events":[{"categories":["Music"],"eDate":"2025-11-22","eName":"Red Drift 2.0","genre":"Electronic","price":"$15.00","supports":["Back Alley Beats"," Loopy Coopy"," Nuvo Muse"],"ticketUrl":null,"time":" 8pm"}],"vName":"Inflation Entertainment Complex"},"type":"Feature"},{"geometry":{"coordinates":[145.0008148,-37.8107158],"type":"Point"},"properties":{"events":[{"categories":["Music"],"eDate":"2025-11-22","eName":"Kiss This: 50 Years of Kiss Alive","genre":"Rock","price":"$28.85","supports":[],"ticketUrl":null,"time":" 8pm"}],"vName":"Leadbeater Hotel"},"type":"Feature"},{"geometry":{"coordinates":[144.9761619,-37.8230506],"type":"Point"},"properties":{"events":[{"categories":["Music"],"eDate":"2025-11-22","eName":"Ziggy Alberts","genre":"Blues","price":"$98.90","supports":[],"ticketUrl":null,"time":" 7pm"}],"vName":"Margaret Court Arena"},"type":"Feature"},{"geometry":{"coordinates":[144.9675876,-37.8240849],"type":"Point"},"properties":{"events":[{"categories":["Music"],"eDate":"2025-11-22","eName":"Unmasking the Castrato","genre":"Classical","price":"$69.00","supports":[],"ticketUrl":null,"time":" 4:30pm"},{"categories":["Music"],"eDate":"2025-11-22","eName":"The Black Sorrows","genre":"Soul/Funk","price":"$74.90","supports":[],"ticketUrl":null,"time":" 7:30pm"}],"vName":"Melbourne Recital Centre"},"type":"Feature"},{"geometry":{"coordinates":[144.9790251,-37.8675008],"type":"Point"},"properties":{"events":[{"categories":["Music"],"eDate":"2025-11-22","eName":"The Dusty Springfield Show with Wendy Stapleton","genre":"Pop","price":"$40.00 - 60.00","supports":[],"ticketUrl":null,"time":" 7pm"}],"vName":"Memo Music Hall"},"type":"Feature"},{"geometry":{"coordinates":[144.998414,-37.771471],"type":"Point"},"properties":{"events":[{"categories":["Music"],"eDate":"2025-11-22","eName":"The Pleasures","genre":"Country/Folk","price":"$35.30","supports":["Delsinki"," The Quiet Coachmen"],"ticketUrl":null,"time":" 8:30pm"}],"vName":"Northcote Social Club"},"type":"Feature"},{"geometry":{"coordinates":[144.96084,-37.813514],"type":"Point"},"properties":{"events":[{"categories":["Music"],"eDate":"2025-11-22","eName":"Not So Big Band: The Best of Frank & Ella with Ben McGill & Amelia Evans","genre":"Jazz","price":"$48.00","supports":[],"ticketUrl":null,"time":" 6pm"},{"categories":["Music"],"eDate":"2025-11-22","eName":"Heartfelt Homage to Willie Nelson: Emma Gilmartin & Nick Haywood’s Big Guitar Band","genre":"Jazz","price":"$45.00","supports":[],"ticketUrl":null,"time":" 6:30pm"},{"categories":["Music"],"eDate":"2025-11-22","eName":"ISEULA","genre":"Soul/Funk","price":"$45.00","supports":[],"ticketUrl":null,"time":" 6:30pm"},{"categories":["Music"],"eDate":"2025-11-22","eName":"Not So Big Band: The Best of Frank & Ella with Ben McGill & Amelia Evans","genre":"Jazz","price":"$48.00","supports":[],"ticketUrl":null,"time":" 9pm"}],"vName":"Paris Cat Jazz Club"},"type":"Feature"},{"geometry":{"coordinates":[144.993413,-37.8506652],"type":"Point"},"properties":{"events":[{"categories":["Music"],"eDate":"2025-11-22","eName":"Club Miramar","genre":"Electronic","price":"$16.32","supports":[],"ticketUrl":null,"time":" 7pm"}],"vName":"Revolver Upstairs"},"type":"Feature"},{"geometry":{"coordinates":[144.9862196,-37.9091087],"type":"Point"},"properties":{"events":[{"categories":["Music"],"eDate":"2025-11-22","eName":"Streisand & Sinatra","genre":"Soul/Funk","price":"$65.00","supports":[],"ticketUrl":null,"time":" 8pm"}],"vName":"Royal Brighton Yacht Club"},"type":"Feature"},{"geometry":{"coordinates":[144.9607404,-37.7743469],"type":"Point"},"properties":{"events":[{"categories":["Music"],"eDate":"2025-11-22","eName":"It’s Not A Phase Melbourne","genre":"Punk","price":"$20.39","supports":[],"ticketUrl":null,"time":" 7pm"},{"categories":["Music"],"eDate":"2025-11-22","eName":"Legends Never Die: Juice WRLD Appreciation Night","genre":"Hip Hop","price":"$16.85 - 23.50","supports":[],"ticketUrl":null,"time":"11pm"}],"vName":"Stay Gold"},"type":"Feature"},{"geometry":{"coordinates":[144.9706211,-37.778276],"type":"Point"},"properties":{"events":[{"categories":["Free","Music"],"eDate":"2025-11-22","eName":"Gavin Bowles & The Distractions","genre":"Rock","price":"Free","supports":["The Naysayers"," Terra Rouge"],"ticketUrl":null,"time":" 9pm"},{"categories":["Free","Music"],"eDate":"2025-11-22","eName":"Gavin Bowles & The Distractions","genre":"Rock","price":"Free","supports":[],"ticketUrl":null,"time":" 9pm"}],"vName":"The Beast"},"type":"Feature"},{"geometry":{"coordinates":[144.9495319,-37.8044987],"type":"Point"},"properties":{"events":[{"categories":["Comedy"],"eDate":"2025-11-22","eName":"Jimmy Dore","genre":null,"price":"$62.70","supports":[],"ticketUrl":null,"time":" 4pm"}],"vName":"The Comic's Lounge"},"type":"Feature"},{"geometry":{"coordinates":[144.32141,-37.38866],"type":"Point"},"properties":{"events":[{"categories":["Free","Music"],"eDate":"2025-11-22","eName":"Tin Town","genre":"Acoustic","price":"Free","supports":[],"ticketUrl":null,"time":" 3pm"},{"categories":["Free","Music"],"eDate":"2025-11-22","eName":"Tin Town","genre":"Country/Folk","price":"Free","supports":[],"ticketUrl":null,"time":" 3pm"}],"vName":"The Cosmopolitan Hotel"},"type":"Feature"},{"geometry":{"coordinates":[144.9463641,-37.8047757],"type":"Point"},"properties":{"events":[{"categories":["Music"],"eDate":"2025-11-22","eName":"No Future","genre":"Punk","price":"$25.00","supports":["Iron Eater"," Enzyme"," Whip"," Implode"],"ticketUrl":null,"time":" 7pm"}],"vName":"The Last Chance Rock & Roll Bar"},"type":"Feature"},{"geometry":{"coordinates":[144.996838,-37.7794356],"type":"Point"},"properties":{"events":[{"categories":["Music"],"eDate":"2025-11-22","eName":"Clea","genre":"Indie","price":"$35.00","supports":["Jasmin Adria"],"ticketUrl":null,"time":" 8:30pm"}],"vName":"The Merri Creek Tavern"},"type":"Feature"},{"geometry":{"coordinates":[144.9651425,-37.8119429],"type":"Point"},"properties":{"events":[{"categories":["Free","Music"],"eDate":"2025-11-22","eName":"Brittany Holt","genre":"Pop","price":"$23.46 - 33.66","supports":[],"ticketUrl":null,"time":" 1pm"},{"categories":["Free","Music"],"eDate":"2025-11-22","eName":"DOWNBEAT","genre":"Pop","price":"Free","supports":[],"ticketUrl":null,"time":"11pm"}],"vName":"The Toff In Town"},"type":"Feature"},{"geometry":{"coordinates":[144.9769451,-37.8055776],"type":"Point"},"properties":{"events":[{"categories":["Music"],"eDate":"2025-11-22","eName":"Chloe Poli","genre":"Indie","price":"$15.00","supports":["Kaylah Jordyn"," Mekky"],"ticketUrl":null,"time":" 1pm"},{"categories":["Music"],"eDate":"2025-11-22","eName":"Sunday Honey","genre":"Rock","price":"$17.85","supports":["Skiptons"," Blondehouse"],"ticketUrl":null,"time":" 8pm"}],"vName":"The Workers Club"},"type":"Feature"},{"geometry":{"coordinates":[144.9984324,-37.7729134],"type":"Point"},"properties":{"events":[{"categories":["Music"],"eDate":"2025-11-22","eName":"Shaun Kirk","genre":"Blues","price":"$28.60","supports":[],"ticketUrl":null,"time":" 8pm"}],"vName":"Wesley Anne"},"type":"Feature"}],"type":"FeatureCollection"}