{"features":[{"geometry":{"coordinates":[144.9763781,-37.7983136],"type":"Point"},"properties":{"events":[{"categories":["Music"],"eDate":"2024-04-19","eName":"Martian + Braidz: Dual Launch","genre":"Hip Hop","price":"$21.53","supports":["Luke Mac"," Tizza"," DJ Denno"," Ash the Realist"],"ticketUrl":null,"time":" 8pm"}],"vName":"Bad Decisions Bar"},"type":"Feature"},{"geometry":{"coordinates":[144.99828116650363,-37.7713296],"type":"Point"},"properties":{"events":[{"categories":["Music"],"eDate":"2024-04-19","eName":"Negative Pace 14","genre":"Electronic","price":"$7.50","supports":["more"],"ticketUrl":null,"time":" 7pm"}],"vName":"Bar 303"},"type":"Feature"},{"geometry":{"coordinates":[144.978425,-37.79773],"type":"Point"},"properties":{"events":[{"categories":["Free","Music"],"eDate":"2024-04-19","eName":"Skabhangers","genre":"Jazz","price":"Free","supports":[],"ticketUrl":null,"time":" 6pm"},{"categories":["Music"],"eDate":"2024-04-19","eName":"Ryland Newstead & The MCGs","genre":"Rock","price":"$20.00","supports":["Made Austria"," Daisy Cormac"],"ticketUrl":null,"time":" 8:30pm"}],"vName":"Bar Open"},"type":"Feature"},{"geometry":{"coordinates":[144.9607158,-37.776327],"type":"Point"},"properties":{"events":[{"categories":["Music"],"eDate":"2024-04-19","eName":"Shannen James","genre":"Country/Folk","price":"$33.10","supports":["LOVELOVELOVE"," Angus Legg"],"ticketUrl":null,"time":" 7pm"}],"vName":"Bergy Bandroom"},"type":"Feature"},{"geometry":{"coordinates":[144.9713425,-37.8128595],"type":"Point"},"properties":{"events":[{"categories":["Free","Music"],"eDate":"2024-04-19","eName":"Cherry-oke Live Band Karaoke!","genre":"Rock","price":"Free","supports":[],"ticketUrl":null,"time":" 8pm"}],"vName":"Cherry Bar"},"type":"Feature"},{"geometry":{"coordinates":[144.99266639479475,-37.82488935],"type":"Point"},"properties":{"events":[{"categories":["Music"],"eDate":"2024-04-19","eName":"Spoegwolf","genre":"Rock","price":"$72.10","supports":[],"ticketUrl":null,"time":" 8:30pm"}],"vName":"Corner Hotel"},"type":"Feature"},{"geometry":{"coordinates":[144.9745581,-37.7694446],"type":"Point"},"properties":{"events":[{"categories":["Music"],"eDate":"2024-04-19","eName":"Fridays @ Cross Street: OPERATION: Free Jam","genre":null,"price":"$10.00","supports":[],"ticketUrl":null,"time":" 6pm"}],"vName":"Cross Street Music Hall"},"type":"Feature"},{"geometry":{"coordinates":[144.9628440552175,-37.76100605],"type":"Point"},"properties":{"events":[{"categories":["Free","Music","Trivia"],"eDate":"2024-04-19","eName":"Bingo & Disco","genre":"Electronic","price":"Free","supports":[],"ticketUrl":null,"time":" 8pm"}],"vName":"Edinburgh Castle Hotel"},"type":"Feature"},{"geometry":{"coordinates":[144.98535244416098,-37.79426315],"type":"Point"},"properties":{"events":[{"categories":["Music"],"eDate":"2024-04-19","eName":"Pookie Party","genre":null,"price":"$25.00","supports":["Mulalo"," NayNay"," Yung Sh≈çgun"," Colette"," Tinika"],"ticketUrl":null,"time":" 7:30pm"}],"vName":"Gasometer Hotel"},"type":"Feature"},{"geometry":{"coordinates":[144.983442,-37.804851],"type":"Point"},"properties":{"events":[{"categories":["Comedy","Theatre","Other \"Film\""],"eDate":"2024-04-19","eName":"Hollywouldn't @ The Melbourne Comedy Festival","genre":null,"price":"$25.00","supports":[],"ticketUrl":null,"time":" 6pm"}],"vName":"Grace Darling Hotel"},"type":"Feature"},{"geometry":{"coordinates":[144.973013,-37.8640582],"type":"Point"},"properties":{"events":[{"categories":["Music"],"eDate":"2024-04-19","eName":"Mark Seymour & The Undertow","genre":"Rock","price":"$55.00","supports":[],"ticketUrl":null,"time":" 7:30pm"}],"vName":"Hotel Esplanade (aka The Espy)"},"type":"Feature"},{"geometry":{"coordinates":[144.9596527,-37.7720304],"type":"Point"},"properties":{"events":[{"categories":["Music"],"eDate":"2024-04-19","eName":"Nat Vaser","genre":"Indie","price":"$29.99","supports":["Moaning Lisa"," Private Mountain"," DJ Fee B-Squared"],"ticketUrl":null,"time":" 8pm"}],"vName":"Howler"},"type":"Feature"},{"geometry":{"coordinates":[144.9764962,-37.7983139],"type":"Point"},"properties":{"events":[{"categories":["Music"],"eDate":"2024-04-19","eName":"Club Boss Vol. 8","genre":null,"price":"$29.35","supports":["MRVZ"," BIGGS685"," Elijah Yo"," Mkayy"],"ticketUrl":null,"time":" 9pm"},{"categories":["Music"],"eDate":"2024-04-19","eName":"CLASSIX - Fridays","genre":null,"price":"$11.36","supports":[],"ticketUrl":null,"time":"10pm"}],"vName":"Laundry Bar"},"type":"Feature"},{"geometry":{"coordinates":[144.8971518,-37.8054274],"type":"Point"},"properties":{"events":[{"categories":["Free","Music"],"eDate":"2024-04-19","eName":"Mahikai Breeze: Sound System Listening Party & Fundraiser","genre":null,"price":"Free","supports":[],"ticketUrl":null,"time":" 6pm"}],"vName":"Mamma Chen's"},"type":"Feature"},{"geometry":{"coordinates":[145.3553553,-37.9078552],"type":"Point"},"properties":{"events":[{"categories":["Free","Music"],"eDate":"2024-04-19","eName":"Zak Shepherd","genre":null,"price":"Free","supports":[],"ticketUrl":null,"time":" 7pm"}],"vName":"Micawber Tavern"},"type":"Feature"},{"geometry":{"coordinates":[144.998414,-37.771471],"type":"Point"},"properties":{"events":[{"categories":["Music"],"eDate":"2024-04-19","eName":"The Bloody Norahs","genre":"Indie","price":"$24.00","supports":["Stimpies"," Winksy"],"ticketUrl":null,"time":" 8:30pm"}],"vName":"Northcote Social Club"},"type":"Feature"},{"geometry":{"coordinates":[145.0142411,-37.7310367],"type":"Point"},"properties":{"events":[{"categories":["Free","Music"],"eDate":"2024-04-19","eName":"Ryan Oliver Duo","genre":"Jazz","price":"Free","supports":[],"ticketUrl":null,"time":" 7pm"}],"vName":"Ragtime Tavern"},"type":"Feature"},{"geometry":{"coordinates":[144.9631913,-37.7617818],"type":"Point"},"properties":{"events":[{"categories":["Music"],"eDate":"2024-04-19","eName":"Mae Mobly & The Clones","genre":null,"price":"$15.00","supports":[],"ticketUrl":null,"time":" 8pm"}],"vName":"Ringo Barr"},"type":"Feature"},{"geometry":{"coordinates":[144.9706095,-37.7783326],"type":"Point"},"properties":{"events":[{"categories":["Free","Music"],"eDate":"2024-04-19","eName":"Dear Thieves","genre":"Rock","price":"Free","supports":["Grass Stains"],"ticketUrl":null,"time":" 9pm"}],"vName":"The Beast"},"type":"Feature"},{"geometry":{"coordinates":[144.9657057,-37.8061581],"type":"Point"},"properties":{"events":[{"categories":["Music"],"eDate":"2024-04-19","eName":"Shoji Hano","genre":"Jazz","price":"$22.85","supports":["Clayton Thomas"," Cloud Ice 9"," Act Now"," Trio: Sofia Carbonara"," Peggie Lee"," Miyama McQueen-Tokita"," Rama Parwata"],"ticketUrl":null,"time":" 8pm"}],"vName":"The Curtin"},"type":"Feature"},{"geometry":{"coordinates":[144.9708437,-37.7973184],"type":"Point"},"properties":{"events":[{"categories":["Festival","Comedy","Theatre","Dance","Other \"Cabaret\""],"eDate":"2024-04-19","eName":"The Titwitchez School of Titcraft and Boobery","genre":null,"price":"$28.00","supports":[],"ticketUrl":null,"time":"10:30pm"}],"vName":"The Motley Bauhaus"},"type":"Feature"},{"geometry":{"coordinates":[144.9846126,-37.7989941],"type":"Point"},"properties":{"events":[{"categories":["Music"],"eDate":"2024-04-19","eName":"The Neptune Power Federation","genre":"Rock","price":"$23.50","supports":["Black Aces"," Lunatic"," Sick Fizz"],"ticketUrl":null,"time":" 8pm"},{"categories":["Music"],"eDate":"2024-04-19","eName":"O.M.R","genre":"Rock","price":"$11.25","supports":["Bug Hunt"," Met Dog"," Cammy Cautious & The Wrestlers"],"ticketUrl":null,"time":" 8pm"}],"vName":"The Tote Hotel"},"type":"Feature"}],"type":"FeatureCollection"}