{"features":[{"geometry":{"coordinates":[144.99828116650363,-37.7713296],"type":"Point"},"properties":{"events":[{"categories":["Free","Music"],"eDate":"2023-12-12","eName":"Klub M.U.K","genre":"Acoustic","price":"Free","supports":[],"ticketUrl":null,"time":" 7:30pm"}],"vName":"Bar 303"},"type":"Feature"},{"geometry":{"coordinates":[144.978425,-37.79773],"type":"Point"},"properties":{"events":[{"categories":["Music"],"eDate":"2023-12-12","eName":"Make It Up Club","genre":"Jazz","price":"$15.00","supports":[],"ticketUrl":null,"time":" 8pm"}],"vName":"Bar Open"},"type":"Feature"},{"geometry":{"coordinates":[144.9628440552175,-37.76100605],"type":"Point"},"properties":{"events":[{"categories":["Music"],"eDate":"2023-12-12","eName":"Open Mic Night","genre":"Acoustic","price":"Free","supports":[],"ticketUrl":null,"time":" 7:30pm"}],"vName":"Edinburgh Castle Hotel"},"type":"Feature"},{"geometry":{"coordinates":[144.9712356,-37.812902],"type":"Point"},"properties":{"events":[{"categories":["Comedy"],"eDate":"2023-12-12","eName":"Arj Barker's Safe Space","genre":null,"price":"$20.00","supports":[],"ticketUrl":null,"time":" 8pm"}],"vName":"Morris House"},"type":"Feature"},{"geometry":{"coordinates":[144.965405,-37.8117457],"type":"Point"},"properties":{"events":[{"categories":["Free","Music"],"eDate":"2023-12-12","eName":"Condensed Milk Tuesdays: Taijae + Amin Payne","genre":null,"price":"Free","supports":[],"ticketUrl":null,"time":" 6pm"}],"vName":"Section 8"},"type":"Feature"},{"geometry":{"coordinates":[144.9807148,-37.7801461],"type":"Point"},"properties":{"events":[{"categories":["Free","Other \"Film\""],"eDate":"2023-12-12","eName":"Top of The Heap (Movie Night)","genre":null,"price":"Free","supports":[],"ticketUrl":null,"time":" 8pm"}],"vName":"Tramway Hotel"},"type":"Feature"}],"type":"FeatureCollection"}