{"features":[{"geometry":{"coordinates":[144.978425,-37.79773],"type":"Point"},"properties":{"events":[{"categories":["Free","Music"],"eDate":"2025-03-23","eName":"Michael Griffin Quartet","genre":"Jazz","price":"Free","supports":[],"ticketUrl":null,"time":" 6:30pm"}],"vName":"Bar Open"},"type":"Feature"},{"geometry":{"coordinates":[144.9945274,-37.8001115],"type":"Point"},"properties":{"events":[{"categories":["Free","Music","Other \"Food & Drink\""],"eDate":"2025-03-23","eName":"Bodriggy Bootscoot","genre":null,"price":"Free","supports":[],"ticketUrl":null,"time":" 1:30pm"},{"categories":["Festival","Comedy","Other \"Food & Drink\""],"eDate":"2025-03-23","eName":"On The Gags: Melbourne Comedy Festival","genre":null,"price":"$27.00","supports":[],"ticketUrl":null,"time":" 7:30pm"}],"vName":"Bodriggy Brewing Company"},"type":"Feature"},{"geometry":{"coordinates":[144.9248037207342,-37.7656716],"type":"Point"},"properties":{"events":[{"categories":["Theatre"],"eDate":"2025-03-23","eName":"Flemington Theatre Company presents Murder Before Me","genre":null,"price":"$35.00","supports":[],"ticketUrl":null,"time":" 3pm"}],"vName":"Clocktower Centre"},"type":"Feature"},{"geometry":{"coordinates":[144.9679835243618,-37.8201575],"type":"Point"},"properties":{"events":[{"categories":["Music"],"eDate":"2025-03-23","eName":"Melbourne Symphony Orchestra presents Disney in Concert","genre":"Classical","price":"$89.00","supports":[],"ticketUrl":null,"time":" 2pm"}],"vName":"Hamer Hall (Arts Centre Melbourne)"},"type":"Feature"},{"geometry":{"coordinates":[144.8971518,-37.8054274],"type":"Point"},"properties":{"events":[{"categories":["Free","Music"],"eDate":"2025-03-23","eName":"HoT DoG EP #3 Launch","genre":null,"price":"Free","supports":["Dole Cheque"," No Statues"],"ticketUrl":null,"time":" 2pm"}],"vName":"Mamma Chen's"},"type":"Feature"},{"geometry":{"coordinates":[144.9977626,-37.7755001],"type":"Point"},"properties":{"events":[{"categories":["Dance"],"eDate":"2025-03-23","eName":"Frisk","genre":null,"price":"$81.46","supports":[],"ticketUrl":null,"time":" 5:30pm"}],"vName":"Northcote Theatre"},"type":"Feature"},{"geometry":{"coordinates":[144.9585654,-37.8059962],"type":"Point"},"properties":{"events":[{"categories":["Music"],"eDate":"2025-03-23","eName":"Gallagath","genre":null,"price":"$14.30","supports":["Gesunolike"," Lili-Violet"],"ticketUrl":null,"time":" 2:30pm"}],"vName":"The Last Chance Rock & Roll Bar"},"type":"Feature"},{"geometry":{"coordinates":[144.9523262,-38.401806],"type":"Point"},"properties":{"events":[{"categories":["Music"],"eDate":"2025-03-23","eName":"Kaliopi & The Blues Messengers + The Jump Cats","genre":"Blues","price":"$30.00","supports":[],"ticketUrl":null,"time":" 3pm"}],"vName":"The Shed @ The Pig & Whistle"},"type":"Feature"},{"geometry":{"coordinates":[144.996401,-37.800341],"type":"Point"},"properties":{"events":[{"categories":["Free","Music"],"eDate":"2025-03-23","eName":"Deadly Apple Johns","genre":"Rock","price":"Free","supports":[],"ticketUrl":null,"time":" 4pm"}],"vName":"The Yarra Hotel"},"type":"Feature"}],"type":"FeatureCollection"}