{"features":[{"geometry":{"coordinates":[144.9982812,-37.7713296],"type":"Point"},"properties":{"events":[{"categories":["Music"],"eDate":"2026-06-06","eName":"ALARMS","genre":"Rock","price":"$16.50 - 20.00","supports":["Leonardo’s Robot"," ...a.t.m"," Canary Bones"," Abselom"," Queen Hyena"],"ticketUrl":null,"time":" 7pm"}],"vName":"Bar 303"},"type":"Feature"},{"geometry":{"coordinates":[144.978682,-37.7981225],"type":"Point"},"properties":{"events":[{"categories":["Free","Music"],"eDate":"2026-06-06","eName":"Woody Samson: Birthday Bash","genre":null,"price":"Free","supports":[],"ticketUrl":null,"time":" 9pm"}],"vName":"Baxter's Lot"},"type":"Feature"},{"geometry":{"coordinates":[144.9891167,-37.7996488],"type":"Point"},"properties":{"events":[{"categories":["Music"],"eDate":"2026-06-06","eName":"The Vee Bees","genre":"Rock","price":"$20.00","supports":["Blood Sucking Freaks"," ScarnOn"," Poppin Mommas"," Sacramento Sweaters"],"ticketUrl":null,"time":" 7pm"}],"vName":"Bendigo Hotel"},"type":"Feature"},{"geometry":{"coordinates":[144.9568039,-37.8111442],"type":"Point"},"properties":{"events":[{"categories":["Music"],"eDate":"2026-06-06","eName":"The Linda Ronstadt Show with Lisa Mio & Wild Dreamers","genre":"Rock","price":"$40.00","supports":[],"ticketUrl":null,"time":" 7:30pm"}],"vName":"Bird's Basement"},"type":"Feature"},{"geometry":{"coordinates":[145.0004166,-37.7612582],"type":"Point"},"properties":{"events":[{"categories":["Free","Music"],"eDate":"2026-06-06","eName":"Local Labels: Roolette Records","genre":null,"price":"Free","supports":["Hannah Kate"," Maxine Gillon"],"ticketUrl":null,"time":" 2pm"}],"vName":"Cactus Room"},"type":"Feature"},{"geometry":{"coordinates":[144.9713425,-37.8128595],"type":"Point"},"properties":{"events":[{"categories":["Free","Music"],"eDate":"2026-06-06","eName":"Trash Indie Sleaze Party","genre":null,"price":"Free","supports":[],"ticketUrl":null,"time":"11pm"}],"vName":"Cherry Bar"},"type":"Feature"},{"geometry":{"coordinates":[144.9248037,-37.7656716],"type":"Point"},"properties":{"events":[{"categories":["Theatre"],"eDate":"2026-06-06","eName":"Team Pranavam presents Pravasi: Social Drama","genre":null,"price":"$30.00 - 50.00","supports":[],"ticketUrl":null,"time":" 6:30pm"}],"vName":"Clocktower Centre"},"type":"Feature"},{"geometry":{"coordinates":[144.9926664,-37.8248893],"type":"Point"},"properties":{"events":[{"categories":["Music"],"eDate":"2026-06-06","eName":"Lior","genre":"Indie","price":"$69.00","supports":["Anita Lester"],"ticketUrl":null,"time":" 8pm"}],"vName":"Corner Hotel"},"type":"Feature"},{"geometry":{"coordinates":[144.9777885,-37.8597831],"type":"Point"},"properties":{"events":[{"categories":["Music"],"eDate":"2026-06-06","eName":"Georgia Acoustic","genre":"Acoustic","price":"Free","supports":[],"ticketUrl":null,"time":" 8pm"},{"categories":["Music"],"eDate":"2026-06-06","eName":"DJ George Djay","genre":"Rock","price":"Free","supports":[],"ticketUrl":null,"time":"11pm"}],"vName":"Freddie Wimpoles"},"type":"Feature"},{"geometry":{"coordinates":[144.9463874,-37.8432917],"type":"Point"},"properties":{"events":[{"categories":["Free","Music","Markets"],"eDate":"2026-06-06","eName":"Winter in the Glade","genre":null,"price":"Free","supports":["Synthotronica"," Drago’s Afterparty"],"ticketUrl":null,"time":" 5pm"}],"vName":"Gasworks Arts Park"},"type":"Feature"},{"geometry":{"coordinates":[144.9787378,-37.7954205],"type":"Point"},"properties":{"events":[{"categories":["Music"],"eDate":"2026-06-06","eName":"Red & Richie + Catching Z’s presents: Dreamscape","genre":"Electronic","price":"$0.00 - 30.00","supports":[],"ticketUrl":null,"time":" 9pm"}],"vName":"Glamorama"},"type":"Feature"},{"geometry":{"coordinates":[144.9679835,-37.8201575],"type":"Point"},"properties":{"events":[{"categories":["Music","Other \"Film\""],"eDate":"2026-06-06","eName":"La La Land in Concert","genre":"Classical","price":"$119.90","supports":[],"ticketUrl":null,"time":" 7:30pm"}],"vName":"Hamer Hall (Arts Centre Melbourne)"},"type":"Feature"},{"geometry":{"coordinates":[144.8984802,-37.8111559],"type":"Point"},"properties":{"events":[{"categories":["Music"],"eDate":"2026-06-06","eName":"Transmission Live Mini Fest","genre":"Indie","price":"$25.00","supports":["Bennetts Grove"," The Halves"," The Engine"," Skiptons"],"ticketUrl":null,"time":" 7pm"}],"vName":"Kindred Bandroom"},"type":"Feature"},{"geometry":{"coordinates":[144.9675876,-37.8240849],"type":"Point"},"properties":{"events":[{"categories":["Music"],"eDate":"2026-06-06","eName":"Paul Grabowsky and Vince Jones","genre":"Jazz","price":"$55.00","supports":[],"ticketUrl":null,"time":" 6pm"},{"categories":["Music"],"eDate":"2026-06-06","eName":"The Bowerbird Collective: Where Song Began","genre":"Classical","price":"$30.00 - 89.00","supports":[],"ticketUrl":null,"time":" 7:30pm"}],"vName":"Melbourne Recital Centre"},"type":"Feature"},{"geometry":{"coordinates":[144.998414,-37.771471],"type":"Point"},"properties":{"events":[{"categories":["Music"],"eDate":"2026-06-06","eName":"Ruby Jones","genre":"Indie","price":"$29.10","supports":["Riley Catherall"],"ticketUrl":null,"time":" 8:30pm"}],"vName":"Northcote Social Club"},"type":"Feature"},{"geometry":{"coordinates":[144.96084,-37.813514],"type":"Point"},"properties":{"events":[{"categories":["Music"],"eDate":"2026-06-06","eName":"The Little Bourke ‘Big’ Band Presents: The Blues Brothers Reimagined (with Mary Peter)","genre":null,"price":"$45.00","supports":[],"ticketUrl":null,"time":" 6pm"},{"categories":["Music"],"eDate":"2026-06-06","eName":"Nadira & Friends Present: Songs of Nat King Cole","genre":"Jazz","price":"$45.00","supports":[],"ticketUrl":null,"time":" 6:30pm"},{"categories":["Music"],"eDate":"2026-06-06","eName":"Sophisticated Lady: A Tribute to Jazz’s First Ladies of Song","genre":"Jazz","price":"$48.00","supports":[],"ticketUrl":null,"time":" 9pm"},{"categories":["Music"],"eDate":"2026-06-06","eName":"The Shuffle Club","genre":"Jazz","price":"Free","supports":[],"ticketUrl":null,"time":" 9:30pm"}],"vName":"Paris Cat Jazz Club"},"type":"Feature"},{"geometry":{"coordinates":[144.9607404,-37.7743469],"type":"Point"},"properties":{"events":[{"categories":["Music"],"eDate":"2026-06-06","eName":"Exhumed","genre":"Metal","price":"$75.80","supports":[],"ticketUrl":null,"time":" 7pm"}],"vName":"Stay Gold"},"type":"Feature"},{"geometry":{"coordinates":[144.9657057,-37.8061581],"type":"Point"},"properties":{"events":[{"categories":["Music"],"eDate":"2026-06-06","eName":"Tilly Vickers Willis","genre":"Indie","price":"$27.95","supports":[],"ticketUrl":null,"time":" 8pm"},{"categories":["Music","Other \"Spoken Word, Poetry \""],"eDate":"2026-06-06","eName":"Tilly Vickers Willis: Silver Halide Film Album Launch","genre":null,"price":"$23.00 - 25.00","supports":[],"ticketUrl":null,"time":" 8pm"}],"vName":"The Curtin"},"type":"Feature"},{"geometry":{"coordinates":[144.9770425,-37.8588717],"type":"Point"},"properties":{"events":[{"categories":["Music"],"eDate":"2026-06-06","eName":"Whiskey Business + DJ Shadow","genre":null,"price":"Free","supports":[],"ticketUrl":null,"time":" 9pm"}],"vName":"The Fifth Province"},"type":"Feature"},{"geometry":{"coordinates":[144.9463641,-37.8047757],"type":"Point"},"properties":{"events":[{"categories":["Music"],"eDate":"2026-06-06","eName":"Diploid","genre":"Punk","price":"$23.50","supports":["Saw in Half"," Keratin"," Kristol Pisstol"," Teeth Dreams"],"ticketUrl":null,"time":" 7:30pm"}],"vName":"The Last Chance Rock & Roll Bar"},"type":"Feature"},{"geometry":{"coordinates":[144.9708437,-37.7973184],"type":"Point"},"properties":{"events":[{"categories":["Other \"Cabaret\""],"eDate":"2026-06-06","eName":"Dootfest in Space","genre":null,"price":"$25.83","supports":[],"ticketUrl":null,"time":" 8:30pm"}],"vName":"The Motley Bauhaus"},"type":"Feature"},{"geometry":{"coordinates":[144.9984324,-37.7729134],"type":"Point"},"properties":{"events":[{"categories":["Music"],"eDate":"2026-06-06","eName":"Paper Run","genre":"Country/Folk","price":"Free","supports":[],"ticketUrl":null,"time":" 6pm"}],"vName":"Wesley Anne"},"type":"Feature"}],"type":"FeatureCollection"}