{"features":[{"geometry":{"coordinates":[144.9633148,-37.8055511],"type":"Point"},"properties":{"events":[{"categories":["Other \"Cabaret\""],"eDate":"2025-07-11","eName":"The Melbourne Magic Festival Presents: The Gallery","genre":null,"price":"$22.00","supports":["Aby Thomas"," Michael Wan"," Gehan Somanader"," Chris Morant"," Kayj Barbosa"," Anurag Yadav"," Joe Williams"],"ticketUrl":null,"time":" 7:45pm"}],"vName":"Arrow on Swanston"},"type":"Feature"},{"geometry":{"coordinates":[144.9982812,-37.7713296],"type":"Point"},"properties":{"events":[{"categories":["Music"],"eDate":"2025-07-11","eName":"Winfield Road","genre":null,"price":"Free","supports":[],"ticketUrl":null,"time":" 8pm"}],"vName":"Bar 303"},"type":"Feature"},{"geometry":{"coordinates":[144.978682,-37.7981225],"type":"Point"},"properties":{"events":[{"categories":["Free","Music"],"eDate":"2025-07-11","eName":"Tejo D’Cruz","genre":null,"price":"Free","supports":[],"ticketUrl":null,"time":" 9pm"},{"categories":["Free","Music"],"eDate":"2025-07-11","eName":"DJ Damien Mack","genre":null,"price":"Free","supports":[],"ticketUrl":null,"time":"10pm"}],"vName":"Baxter's Lot"},"type":"Feature"},{"geometry":{"coordinates":[144.9891167,-37.7996488],"type":"Point"},"properties":{"events":[{"categories":["Music"],"eDate":"2025-07-11","eName":"Prog, Death & Black Metal At The Bendi","genre":"Metal","price":"$17.35","supports":[],"ticketUrl":null,"time":" 8:30pm"}],"vName":"Bendigo Hotel"},"type":"Feature"},{"geometry":{"coordinates":[144.9568039,-37.8111442],"type":"Point"},"properties":{"events":[{"categories":["Music"],"eDate":"2025-07-11","eName":"Superstar: The Carpenters Songbook","genre":"Rock","price":"$38.00","supports":[],"ticketUrl":null,"time":" 7:30pm"}],"vName":"Bird's Basement"},"type":"Feature"},{"geometry":{"coordinates":[144.9713425,-37.8128595],"type":"Point"},"properties":{"events":[{"categories":["Music"],"eDate":"2025-07-11","eName":"The Plot Twist","genre":"Rock","price":"$17.48","supports":["Arborists"," Big Fat Elephant"],"ticketUrl":null,"time":" 8pm"}],"vName":"Cherry Bar"},"type":"Feature"},{"geometry":{"coordinates":[144.9926664,-37.8248893],"type":"Point"},"properties":{"events":[{"categories":["Music"],"eDate":"2025-07-11","eName":"Donny Benét","genre":"Electronic","price":"$56.80","supports":[],"ticketUrl":null,"time":" 8:30pm"}],"vName":"Corner Hotel"},"type":"Feature"},{"geometry":{"coordinates":[144.9784379,-37.7975956],"type":"Point"},"properties":{"events":[{"categories":["Music"],"eDate":"2025-07-11","eName":"Slaux: Christmas In July","genre":"Rock","price":"$15.00 - 20.00","supports":["Connor Callahan"," Jim Jims"],"ticketUrl":null,"time":" 8pm"}],"vName":"Creatures of Habit Bar & Bandroom"},"type":"Feature"},{"geometry":{"coordinates":[144.1430697,-37.3414953],"type":"Point"},"properties":{"events":[{"categories":["Music"],"eDate":"2025-07-11","eName":"Live Piano with Valiant Von Thule","genre":"Jazz","price":"Free","supports":[],"ticketUrl":null,"time":" 7pm"}],"vName":"Daylesford Hotel"},"type":"Feature"},{"geometry":{"coordinates":[144.96904143685853,-37.81799793179876],"type":"Point"},"properties":{"events":[{"categories":["Free","Music"],"eDate":"2025-07-11","eName":"NAIDOC in the City","genre":"Electronic","price":"Free","supports":[],"ticketUrl":null,"time":" 1pm"}],"vName":"Federation Square"},"type":"Feature"},{"geometry":{"coordinates":[144.983442,-37.804851],"type":"Point"},"properties":{"events":[{"categories":["Music"],"eDate":"2025-07-11","eName":"Mount Defiance","genre":"Rock","price":"$15.00 - 20.00","supports":["Barefoot Bowls Club"," Sibyl"],"ticketUrl":null,"time":" 7:30pm"}],"vName":"Grace Darling Hotel"},"type":"Feature"},{"geometry":{"coordinates":[144.9679835,-37.8201575],"type":"Point"},"properties":{"events":[{"categories":["Music"],"eDate":"2025-07-11","eName":"Yinya Dana: Lighting The Path","genre":"Classical","price":"$68.00","supports":[],"ticketUrl":null,"time":" 7:30pm"}],"vName":"Hamer Hall (Arts Centre Melbourne)"},"type":"Feature"},{"geometry":{"coordinates":[144.973013,-37.8640582],"type":"Point"},"properties":{"events":[{"categories":["Music"],"eDate":"2025-07-11","eName":"Mamma Mia! The Musical Party","genre":"Pop","price":"$14.80 - 22.95","supports":[],"ticketUrl":null,"time":" 9pm"}],"vName":"Hotel Esplanade (aka The Espy)"},"type":"Feature"},{"geometry":{"coordinates":[145.0314658,-37.8067273],"type":"Point"},"properties":{"events":[{"categories":["Music"],"eDate":"2025-07-11","eName":"Kew Court House Live: Zevron Lee","genre":null,"price":"$20.00","supports":[],"ticketUrl":null,"time":" 7:30pm"}],"vName":"Kew Court House"},"type":"Feature"},{"geometry":{"coordinates":[145.0008148,-37.8107158],"type":"Point"},"properties":{"events":[{"categories":["Music"],"eDate":"2025-07-11","eName":"The Kulture Show presents Access Granted","genre":null,"price":"$17.85","supports":[],"ticketUrl":null,"time":" 8pm"}],"vName":"Leadbeater Hotel"},"type":"Feature"},{"geometry":{"coordinates":[145.0355738,-37.8205529],"type":"Point"},"properties":{"events":[{"categories":["Music"],"eDate":"2025-07-11","eName":"The Craig Fermanis Quartet","genre":"Jazz","price":"$25.00 - 30.00","supports":[],"ticketUrl":null,"time":" 8pm"}],"vName":"Lido Jazz Room"},"type":"Feature"},{"geometry":{"coordinates":[144.8975289,-37.8022392],"type":"Point"},"properties":{"events":[{"categories":["Music"],"eDate":"2025-07-11","eName":"E.L.L.E","genre":null,"price":"$20.00 - 25.00","supports":["Sorch"," Lunacy"],"ticketUrl":null,"time":" 8pm"}],"vName":"Mamma Chen's"},"type":"Feature"},{"geometry":{"coordinates":[144.9658499,-37.8147453],"type":"Point"},"properties":{"events":[{"categories":["Music"],"eDate":"2025-07-11","eName":"Nirvanna Tribute","genre":"Rock","price":"$59.10","supports":[],"ticketUrl":null,"time":" 8pm"}],"vName":"Max Watt's (Melbourne)"},"type":"Feature"},{"geometry":{"coordinates":[144.9790251,-37.8675008],"type":"Point"},"properties":{"events":[{"categories":["Music"],"eDate":"2025-07-11","eName":"“Aja”: As Performed By The Kites","genre":null,"price":"$35.00 - 55.00","supports":[],"ticketUrl":null,"time":" 7pm"}],"vName":"Memo Music Hall"},"type":"Feature"},{"geometry":{"coordinates":[144.998414,-37.771471],"type":"Point"},"properties":{"events":[{"categories":["Music"],"eDate":"2025-07-11","eName":"aleksiah","genre":"Indie","price":"$40.50","supports":[],"ticketUrl":null,"time":" 8:30pm"}],"vName":"Northcote Social Club"},"type":"Feature"},{"geometry":{"coordinates":[144.9982706,-37.7737068],"type":"Point"},"properties":{"events":[{"categories":["Music"],"eDate":"2025-07-11","eName":"Kita Alexander","genre":"Pop","price":"$62.42","supports":["Mariae Cassandra"," Benny Morrell"],"ticketUrl":null,"time":" 7pm"}],"vName":"Northcote Theatre"},"type":"Feature"},{"geometry":{"coordinates":[145.0015248,-37.8258878],"type":"Point"},"properties":{"events":[{"categories":["Free","Music"],"eDate":"2025-07-11","eName":"Moving Towards The Pulsebeat","genre":null,"price":"Free","supports":[],"ticketUrl":null,"time":" 8pm"}],"vName":"Odeon Richmond"},"type":"Feature"},{"geometry":{"coordinates":[144.97711,-37.79833],"type":"Point"},"properties":{"events":[{"categories":["Music"],"eDate":"2025-07-11","eName":"The Birds Are Spies + Big Cat","genre":"Rock","price":"Free","supports":[],"ticketUrl":null,"time":" 8pm"}],"vName":"Old Bar"},"type":"Feature"},{"geometry":{"coordinates":[144.96084,-37.813514],"type":"Point"},"properties":{"events":[{"categories":["Music"],"eDate":"2025-07-11","eName":"Stevie Wonder Ful","genre":"Soul/Funk","price":"$48.00","supports":[],"ticketUrl":null,"time":" 6pm"},{"categories":["Music"],"eDate":"2025-07-11","eName":"The Laurel Canyon Scene: LA in the 1970s with Miss George","genre":"Jazz","price":"$45.00","supports":[],"ticketUrl":null,"time":" 6:30pm"},{"categories":["Music"],"eDate":"2025-07-11","eName":"Gregg Arthur: Jazz & Cocktails","genre":"Jazz","price":"$45.00","supports":[],"ticketUrl":null,"time":" 9pm"},{"categories":["Music"],"eDate":"2025-07-11","eName":"Dai, Ciccio!: The Great Italian Songbook","genre":"Jazz","price":"$45.00","supports":[],"ticketUrl":null,"time":" 9:30pm"}],"vName":"Paris Cat Jazz Club"},"type":"Feature"},{"geometry":{"coordinates":[144.9583409,-37.7664168],"type":"Point"},"properties":{"events":[{"categories":["Music"],"eDate":"2025-07-11","eName":"Vaporwave Corporate Funktion","genre":"Electronic","price":"Free","supports":[],"ticketUrl":null,"time":" 8pm"}],"vName":"Quadraphonic Club"},"type":"Feature"},{"geometry":{"coordinates":[144.9615882,-37.7711432],"type":"Point"},"properties":{"events":[{"categories":["Music"],"eDate":"2025-07-11","eName":"Projectile Dysfunction","genre":"Punk","price":"$17.95","supports":["Cup"," Chase Mantel & The Supervoids"],"ticketUrl":null,"time":" 7:30pm"}],"vName":"Retreat Hotel"},"type":"Feature"},{"geometry":{"coordinates":[144.993413,-37.8506652],"type":"Point"},"properties":{"events":[{"categories":["Music"],"eDate":"2025-07-11","eName":"Opti Recs Label Launch","genre":"Electronic","price":"$21.42 - 26.52","supports":["more"],"ticketUrl":null,"time":"10pm"}],"vName":"Revolver Upstairs"},"type":"Feature"},{"geometry":{"coordinates":[144.965405,-37.8117457],"type":"Point"},"properties":{"events":[{"categories":["Music"],"eDate":"2025-07-11","eName":"BLAKlight","genre":"Electronic","price":"Free","supports":[],"ticketUrl":null,"time":" 6pm"}],"vName":"Section 8"},"type":"Feature"},{"geometry":{"coordinates":[145.0013923,-37.7559265],"type":"Point"},"properties":{"events":[{"categories":["Music"],"eDate":"2025-07-11","eName":"Vanessa Estrada","genre":"Soul/Funk","price":"$18.35","supports":["Headphones Jones"],"ticketUrl":null,"time":" 8pm"}],"vName":"Shotkickers"},"type":"Feature"},{"geometry":{"coordinates":[144.9607404,-37.7743469],"type":"Point"},"properties":{"events":[{"categories":["Music"],"eDate":"2025-07-11","eName":"No Face No Case","genre":"Hip Hop","price":"$50.10","supports":["Nicolas Cage Fighter"," Signals"," No Life"],"ticketUrl":null,"time":" 7pm"},{"categories":["Music"],"eDate":"2025-07-11","eName":"Rap-N-Metal: Together At Last","genre":"Hip Hop","price":"Free","supports":[],"ticketUrl":null,"time":"11pm"}],"vName":"Stay Gold"},"type":"Feature"},{"geometry":{"coordinates":[144.996838,-37.7794356],"type":"Point"},"properties":{"events":[{"categories":["Music"],"eDate":"2025-07-11","eName":"Goin’ Solo","genre":"Indie","price":"Free","supports":[],"ticketUrl":null,"time":" 8pm"}],"vName":"The Merri Creek Tavern"},"type":"Feature"},{"geometry":{"coordinates":[145.1818891,-37.8163371],"type":"Point"},"properties":{"events":[{"categories":["Music","Theatre"],"eDate":"2025-07-11","eName":"Waltzing The Wilarra","genre":"Pop","price":"$58.00","supports":[],"ticketUrl":null,"time":" 7:30pm"}],"vName":"The Round"},"type":"Feature"},{"geometry":{"coordinates":[144.9651425,-37.8119429],"type":"Point"},"properties":{"events":[{"categories":["Free","Music"],"eDate":"2025-07-11","eName":"Haus Of Whatever","genre":"Electronic","price":"Free","supports":[],"ticketUrl":null,"time":"10pm"}],"vName":"The Toff In Town"},"type":"Feature"},{"geometry":{"coordinates":[144.9769451,-37.8055776],"type":"Point"},"properties":{"events":[{"categories":["Music"],"eDate":"2025-07-11","eName":"Spici Water","genre":"Rock","price":"$20.00","supports":["Willowbank Grove"," Alison Parade"],"ticketUrl":null,"time":" 8pm"}],"vName":"The Workers Club"},"type":"Feature"},{"geometry":{"coordinates":[144.9984324,-37.7729134],"type":"Point"},"properties":{"events":[{"categories":["Music"],"eDate":"2025-07-11","eName":"Pierre Jaquinot Trio","genre":"Jazz","price":"Free","supports":[],"ticketUrl":null,"time":" 6pm"}],"vName":"Wesley Anne"},"type":"Feature"}],"type":"FeatureCollection"}