{"features":[{"geometry":{"coordinates":[144.99828116650363,-37.7713296],"type":"Point"},"properties":{"events":[{"categories":["Music"],"eDate":"2024-03-07","eName":"Oscar LaDell Band","genre":"Jazz","price":"$20.00","supports":[],"ticketUrl":null,"time":" 8:30pm"}],"vName":"Bar 303"},"type":"Feature"},{"geometry":{"coordinates":[144.9945274,-37.8001115],"type":"Point"},"properties":{"events":[{"categories":["Free","Music","Other \"Food & Drink\""],"eDate":"2024-03-07","eName":"Hot Tubs Time Machine","genre":null,"price":"Free","supports":[],"ticketUrl":null,"time":" 7pm"}],"vName":"Bodriggy Brewing Company"},"type":"Feature"},{"geometry":{"coordinates":[144.9655785,-37.8118954],"type":"Point"},"properties":{"events":[{"categories":["Free","Music"],"eDate":"2024-03-07","eName":"Youngjung + DJ Chung","genre":null,"price":"Free","supports":[],"ticketUrl":null,"time":" 8pm"}],"vName":"Ferdydurke"},"type":"Feature"},{"geometry":{"coordinates":[144.9679835243618,-37.8201575],"type":"Point"},"properties":{"events":[{"categories":["Music"],"eDate":"2024-03-07","eName":"Hopelessly Devoted: A Celebration of Olivia Newton-John","genre":"Pop","price":"$81.00","supports":[],"ticketUrl":null,"time":" 7:30pm"}],"vName":"Hamer Hall (Arts Centre Melbourne)"},"type":"Feature"},{"geometry":{"coordinates":[144.9596527,-37.7720304],"type":"Point"},"properties":{"events":[{"categories":["Comedy"],"eDate":"2024-03-07","eName":"RAW Comedy 2024: VIC Semi Final #1","genre":null,"price":"$17.34","supports":["more"],"ticketUrl":null,"time":" 7:30pm"}],"vName":"Howler"},"type":"Feature"},{"geometry":{"coordinates":[144.8971518,-37.8054274],"type":"Point"},"properties":{"events":[{"categories":["Music"],"eDate":"2024-03-07","eName":"Alanna Malkoc & Reload","genre":null,"price":"$10.00 - 15.00","supports":["The Crystal Ship"],"ticketUrl":null,"time":" 5pm"}],"vName":"Mamma Chen's"},"type":"Feature"},{"geometry":{"coordinates":[144.96741062735794,-37.82454855],"type":"Point"},"properties":{"events":[{"categories":["Music"],"eDate":"2024-03-07","eName":"MSO: Marvellous Mozart","genre":"Classical","price":"$62.00","supports":[],"ticketUrl":null,"time":" 7:30pm"}],"vName":"Melbourne Recital Centre"},"type":"Feature"},{"geometry":{"coordinates":[144.9631913,-37.7617818],"type":"Point"},"properties":{"events":[{"categories":["Free","Music"],"eDate":"2024-03-07","eName":"Open Mic Thursdays @ Ringo Barr","genre":"Acoustic","price":"Free","supports":[],"ticketUrl":null,"time":" 7pm"}],"vName":"Ringo Barr"},"type":"Feature"},{"geometry":{"coordinates":[144.997997,-37.8770056],"type":"Point"},"properties":{"events":[{"categories":["Dance"],"eDate":"2024-03-07","eName":"Twilight at the Mansion: Saltburn","genre":null,"price":"$25.00","supports":[],"ticketUrl":null,"time":" 7pm"}],"vName":"Rippon Lea Estate"},"type":"Feature"},{"geometry":{"coordinates":[144.965405,-37.8117457],"type":"Point"},"properties":{"events":[{"categories":["Free","Music"],"eDate":"2024-03-07","eName":"One Percent","genre":"Electronic","price":"Free","supports":[],"ticketUrl":null,"time":" 6pm"}],"vName":"Section 8"},"type":"Feature"}],"type":"FeatureCollection"}