{"features":[{"geometry":{"coordinates":[144.9679369,-37.8120109],"type":"Point"},"properties":{"events":[{"categories":["Music"],"eDate":"2026-07-15","eName":"Jeremy Loops: July 2026 Tour","genre":"Country/Folk","price":"$79.90","supports":["Tom River"],"ticketUrl":null,"time":" 7:30pm"}],"vName":"170 Russell"},"type":"Feature"},{"geometry":{"coordinates":[144.9982812,-37.7713296],"type":"Point"},"properties":{"events":[{"categories":["Music"],"eDate":"2026-07-15","eName":"Julien Wilson Quartet + Elly Blackham Quartet","genre":"Jazz","price":"$20.00","supports":[],"ticketUrl":null,"time":" 8pm"}],"vName":"Bar 303"},"type":"Feature"},{"geometry":{"coordinates":[144.9568039,-37.8111442],"type":"Point"},"properties":{"events":[{"categories":["Music"],"eDate":"2026-07-15","eName":"The Harmonix Experience","genre":"Jazz","price":"$35.00","supports":[],"ticketUrl":null,"time":" 7:30pm"}],"vName":"Bird's Basement"},"type":"Feature"},{"geometry":{"coordinates":[144.9617083,-37.7704205],"type":"Point"},"properties":{"events":[{"categories":["Free","Other \"Spoken Word, Poetry \""],"eDate":"2026-07-15","eName":"Laura McPhee-Browne","genre":null,"price":"Free","supports":[],"ticketUrl":null,"time":" 6:30pm"}],"vName":"Brunswick Artists' Bar"},"type":"Feature"},{"geometry":{"coordinates":[144.9617083,-37.7704205],"type":"Point"},"properties":{"events":[{"categories":["Music"],"eDate":"2026-07-15","eName":"MD Jazz Night","genre":"Jazz","price":"$29.58","supports":[],"ticketUrl":null,"time":" 8pm"}],"vName":"Brunswick Ballroom"},"type":"Feature"},{"geometry":{"coordinates":[144.973013,-37.8640582],"type":"Point"},"properties":{"events":[{"categories":["Free","Comedy"],"eDate":"2026-07-15","eName":"Comedy at The Espy","genre":null,"price":"Free","supports":[],"ticketUrl":null,"time":" 7:15pm"}],"vName":"Hotel Esplanade (aka The Espy)"},"type":"Feature"},{"geometry":{"coordinates":[144.998414,-37.771471],"type":"Point"},"properties":{"events":[{"categories":["Comedy"],"eDate":"2026-07-15","eName":"Cranky Women’s Comedy Club","genre":null,"price":"$29.10","supports":[],"ticketUrl":null,"time":" 7pm"}],"vName":"Northcote Social Club"},"type":"Feature"},{"geometry":{"coordinates":[145.1334272,-37.9135736],"type":"Point"},"properties":{"events":[{"categories":["Music","Other \"Art \""],"eDate":"2026-07-15","eName":"Jody Sternberg & David Lewis present: FRENCH IN JAZZ","genre":"Jazz","price":"$30.00","supports":[],"ticketUrl":null,"time":" 7:30pm"},{"categories":["Music","Other \"Art \""],"eDate":"2026-07-15","eName":"Jody Sternberg & David Lewis present: French In Jazz","genre":"Jazz","price":"$30.00","supports":[],"ticketUrl":null,"time":" 7:30pm"}],"vName":"The Ian Potter Centre for Performing Arts"},"type":"Feature"},{"geometry":{"coordinates":[144.9586498,-37.766903],"type":"Point"},"properties":{"events":[{"categories":["Music"],"eDate":"2026-07-15","eName":"Fiona Burnett Band","genre":"Jazz","price":"$30.00 - 35.00","supports":[],"ticketUrl":null,"time":" 7:30pm"}],"vName":"The Jazzlab"},"type":"Feature"},{"geometry":{"coordinates":[144.9661635,-37.8176298],"type":"Point"},"properties":{"events":[{"categories":["Music"],"eDate":"2026-07-15","eName":"Mellowdías Thump","genre":"Electronic","price":"$13.15","supports":["DJ Cazuex O.S.L.O"],"ticketUrl":null,"time":" 7pm"}],"vName":"Wax Music Lounge"},"type":"Feature"}],"type":"FeatureCollection"}