{"features":[{"geometry":{"coordinates":[144.9500257,-37.8032773],"type":"Point"},"properties":{"events":[{"categories":["Free","Art"],"eDate":"2024-03-16","eName":"ನಿರೀಕ್ಷಣೆ nireekshane","genre":null,"price":"Free","supports":[],"ticketUrl":null,"time":"11am"}],"vName":"Arts House"},"type":"Feature"},{"geometry":{"coordinates":[144.9763781,-37.7983136],"type":"Point"},"properties":{"events":[{"categories":["Music"],"eDate":"2024-03-16","eName":"Botany Club presents: RIVILIN","genre":null,"price":"$21.53","supports":["Ripthepetals"," Yargii"," Storm Gates"],"ticketUrl":null,"time":" 7:30pm"}],"vName":"Bad Decisions Bar"},"type":"Feature"},{"geometry":{"coordinates":[144.9607158,-37.776327],"type":"Point"},"properties":{"events":[{"categories":["Music","Festival"],"eDate":"2024-03-16","eName":"Hy-Lo & Friends Vol. 2","genre":null,"price":"$22.95","supports":["Voldy"," OX4ORD"," Jordane"," DJ Swimgood"],"ticketUrl":null,"time":" 8pm"}],"vName":"Bergy Bandroom"},"type":"Feature"},{"geometry":{"coordinates":[144.9617018,-37.7704566],"type":"Point"},"properties":{"events":[{"categories":["Free","Music"],"eDate":"2024-03-16","eName":"Little Faiths + Cold Irons Bound","genre":"Country/Folk","price":"Free","supports":[],"ticketUrl":null,"time":" 4:30pm"}],"vName":"Brunswick Artists' Bar"},"type":"Feature"},{"geometry":{"coordinates":[144.9617018,-37.7704566],"type":"Point"},"properties":{"events":[{"categories":["Music"],"eDate":"2024-03-16","eName":"Sugar Fed Leopards + BOOF!","genre":null,"price":"$23.05","supports":[],"ticketUrl":null,"time":" 2pm"},{"categories":["Music"],"eDate":"2024-03-16","eName":"Alex Lloyd","genre":"Rock","price":"$54.67","supports":["Josh Cashman"],"ticketUrl":null,"time":" 8:20pm"}],"vName":"Brunswick Ballroom"},"type":"Feature"},{"geometry":{"coordinates":[144.9713425,-37.8128595],"type":"Point"},"properties":{"events":[{"categories":["Music"],"eDate":"2024-03-16","eName":"Gangrene Dream","genre":"Punk","price":"$14.41","supports":[],"ticketUrl":null,"time":" 8pm"}],"vName":"Cherry Bar"},"type":"Feature"},{"geometry":{"coordinates":[144.99266639479475,-37.82488935],"type":"Point"},"properties":{"events":[{"categories":["Music"],"eDate":"2024-03-16","eName":"Winterbourne","genre":"Rock","price":"$51.10","supports":["Rod Coote"," Laura Lucas"],"ticketUrl":null,"time":" 8pm"}],"vName":"Corner Hotel"},"type":"Feature"},{"geometry":{"coordinates":[144.9628440552175,-37.76100605],"type":"Point"},"properties":{"events":[{"categories":["Music"],"eDate":"2024-03-16","eName":"Superstar DJ's: DJ Jay","genre":"Electronic","price":"Free","supports":[],"ticketUrl":null,"time":" 9pm"}],"vName":"Edinburgh Castle Hotel"},"type":"Feature"},{"geometry":{"coordinates":[144.9655785,-37.8118954],"type":"Point"},"properties":{"events":[{"categories":["Free","Music"],"eDate":"2024-03-16","eName":"T BREAK Presents Noneohone","genre":"Electronic","price":"Free","supports":[],"ticketUrl":null,"time":" 8pm"}],"vName":"Ferdydurke"},"type":"Feature"},{"geometry":{"coordinates":[144.98535244416098,-37.79426315],"type":"Point"},"properties":{"events":[{"categories":["Music"],"eDate":"2024-03-16","eName":"ENDOVIT Fest","genre":"Punk","price":"$34.80","supports":[],"ticketUrl":null,"time":" 4pm"}],"vName":"Gasometer Hotel"},"type":"Feature"},{"geometry":{"coordinates":[144.9875917,-37.7963837],"type":"Point"},"properties":{"events":[{"categories":["Free","Music"],"eDate":"2024-03-16","eName":"Robbie Thunder + Revv","genre":"Rock","price":"Free","supports":[],"ticketUrl":null,"time":" 4pm"},{"categories":["Free","Music"],"eDate":"2024-03-16","eName":"Digger & The Pussycats + Spunk","genre":"Rock","price":"Free","supports":[],"ticketUrl":null,"time":" 8pm"}],"vName":"Gem Bar"},"type":"Feature"},{"geometry":{"coordinates":[144.9778169,-37.8600967],"type":"Point"},"properties":{"events":[{"categories":["Music"],"eDate":"2024-03-16","eName":"The Cambodian Space Project","genre":"Rock","price":"$41.00","supports":["The Tommys"," Sorry Jimi"],"ticketUrl":null,"time":" 7:30pm"}],"vName":"George Lane"},"type":"Feature"},{"geometry":{"coordinates":[145.0293642,-37.8073947],"type":"Point"},"properties":{"events":[{"categories":["Music"],"eDate":"2024-03-16","eName":"Monique Dimattina: Stella Unplugged","genre":"Acoustic","price":"$18.00 - 30.00","supports":[],"ticketUrl":null,"time":" 8pm"}],"vName":"Kew Court House"},"type":"Feature"},{"geometry":{"coordinates":[144.9764962,-37.7983139],"type":"Point"},"properties":{"events":[{"categories":["Music"],"eDate":"2024-03-16","eName":"Goody's Clashes The World","genre":"Electronic","price":"$11.36","supports":[],"ticketUrl":null,"time":" 8pm"},{"categories":["Music"],"eDate":"2024-03-16","eName":"Mesa Jams","genre":null,"price":"$11.36","supports":["KTB"," Taylen"," J﻿unor"],"ticketUrl":null,"time":"10pm"}],"vName":"Laundry Bar"},"type":"Feature"},{"geometry":{"coordinates":[144.8971518,-37.8054274],"type":"Point"},"properties":{"events":[{"categories":["Free","Music"],"eDate":"2024-03-16","eName":"Noah & The Coldmen","genre":"Rock","price":"Free","supports":["Clover Blue"," Norwood"],"ticketUrl":null,"time":" 7pm"},{"categories":["Free","Music"],"eDate":"2024-03-16","eName":"Noah & The Coldmen","genre":null,"price":"Free","supports":["Norwood"," Clover Blue"],"ticketUrl":null,"time":" 7pm"},{"categories":["Free","Music"],"eDate":"2024-03-16","eName":"Noah & The Coldmen","genre":null,"price":"Free","supports":["Norwood"," Clover Blue"],"ticketUrl":null,"time":" 7pm"}],"vName":"Mamma Chen's"},"type":"Feature"},{"geometry":{"coordinates":[144.96741062735794,-37.82454855],"type":"Point"},"properties":{"events":[{"categories":["Music"],"eDate":"2024-03-16","eName":"Australian Chamber Orchestra: Beethoven's Emperor","genre":"Classical","price":"$59.00","supports":[],"ticketUrl":null,"time":" 7:30pm"},{"categories":["Music","Other \"Spoken Word\"","Other \"Poetry & Forums\""],"eDate":"2024-03-16","eName":"Lydia Lunch & Joseph Keckler: Tales of Lust & Madness","genre":"Punk","price":"$60.00","supports":[],"ticketUrl":null,"time":" 8pm"}],"vName":"Melbourne Recital Centre"},"type":"Feature"},{"geometry":{"coordinates":[145.3553553,-37.9078552],"type":"Point"},"properties":{"events":[{"categories":["Free","Music","Other \"Food & Drink\""],"eDate":"2024-03-16","eName":"St Patrick’s Day - Celebrate at Micawber Tavern","genre":"Country/Folk","price":"Free","supports":["The Whisky Gypsies"],"ticketUrl":null,"time":"12pm"},{"categories":["Free","Music"],"eDate":"2024-03-16","eName":"Tim Scanlan & Mana Okubo","genre":null,"price":"Free","supports":[],"ticketUrl":null,"time":" 1pm"},{"categories":["Free","Music"],"eDate":"2024-03-16","eName":"The Whisky Gypsies","genre":null,"price":"Free","supports":[],"ticketUrl":null,"time":" 8pm"}],"vName":"Micawber Tavern"},"type":"Feature"},{"geometry":{"coordinates":[144.998414,-37.771471],"type":"Point"},"properties":{"events":[{"categories":["Music"],"eDate":"2024-03-16","eName":"Zemlja","genre":null,"price":"$56.80","supports":[],"ticketUrl":null,"time":" 8:30pm"}],"vName":"Northcote Social Club"},"type":"Feature"},{"geometry":{"coordinates":[144.97711,-37.79833],"type":"Point"},"properties":{"events":[{"categories":["Music"],"eDate":"2024-03-16","eName":"OSBO","genre":"Metal","price":"$23.50","supports":["Hacker"," Swab"," Skxi"],"ticketUrl":null,"time":" 7:30pm"}],"vName":"Old Bar"},"type":"Feature"},{"geometry":{"coordinates":[144.993413,-37.8506652],"type":"Point"},"properties":{"events":[{"categories":["Music"],"eDate":"2024-03-16","eName":"Dynasty","genre":"Rock","price":"$15.00","supports":["Barefoot Ave"," Skamp Vera"],"ticketUrl":null,"time":" 7:30pm"}],"vName":"Revolver Upstairs"},"type":"Feature"},{"geometry":{"coordinates":[144.9631913,-37.7617818],"type":"Point"},"properties":{"events":[{"categories":["Free","Music"],"eDate":"2024-03-16","eName":"Vibe Union: Tones","genre":null,"price":"Free","supports":[],"ticketUrl":null,"time":" 8pm"}],"vName":"Ringo Barr"},"type":"Feature"},{"geometry":{"coordinates":[144.9706095,-37.7783326],"type":"Point"},"properties":{"events":[{"categories":["Free","Music"],"eDate":"2024-03-16","eName":"Boggle","genre":"Rock","price":"Free","supports":["Culaccino"," Wilber Cabbage & The Polar Frenzy"],"ticketUrl":null,"time":" 9pm"}],"vName":"The Beast"},"type":"Feature"},{"geometry":{"coordinates":[144.9657057,-37.8061581],"type":"Point"},"properties":{"events":[{"categories":["Music"],"eDate":"2024-03-16","eName":"The Gooch Palms + Leroy Macqueen","genre":"Punk","price":"$22.85","supports":["Hogwash"],"ticketUrl":null,"time":" 8pm"}],"vName":"The Curtin"},"type":"Feature"},{"geometry":{"coordinates":[144.9651425,-37.8119429],"type":"Point"},"properties":{"events":[{"categories":["Free","Other \"Spoken Word\"","Other \"Poetry & Forums\""],"eDate":"2024-03-16","eName":"Rainbow Words","genre":null,"price":"Free","supports":[],"ticketUrl":null,"time":" 1:45pm"},{"categories":["Free","Other \"Spoken Word\"","Other \"Poetry & Forums\""],"eDate":"2024-03-16","eName":"Love Letters to the Future Generation","genre":null,"price":"Free","supports":[],"ticketUrl":null,"time":" 3pm"},{"categories":["Music"],"eDate":"2024-03-16","eName":"Darcy Baylis","genre":"Indie","price":"$23.46","supports":["Bootleg Baby"," CLAIR"," dœgægé"],"ticketUrl":null,"time":" 8pm"}],"vName":"The Toff In Town"},"type":"Feature"},{"geometry":{"coordinates":[144.9769450659087,-37.8055776],"type":"Point"},"properties":{"events":[{"categories":["Music"],"eDate":"2024-03-16","eName":"As Crows Fly","genre":"Rock","price":"$13.00","supports":["The Dead Pharaohs"," The Silence Engine"],"ticketUrl":null,"time":" 1pm"},{"categories":["Music"],"eDate":"2024-03-16","eName":"Nick Cunningham","genre":"Indie","price":"$23.20","supports":["Maddy May"," Tom Mac"],"ticketUrl":null,"time":" 8pm"}],"vName":"The Workers Club"},"type":"Feature"},{"geometry":{"coordinates":[144.9985126,-37.7588241],"type":"Point"},"properties":{"events":[{"categories":["Music"],"eDate":"2024-03-16","eName":"Hume Blues Club: 10th Anniversary Festival","genre":"Blues","price":"Free","supports":["Anna Scionti"," Steve Platter & The Dirty Blues"," Dan Dinnen"," Darry Roberts/Hey Gringo"," Shake Shack Boogie Band"],"ticketUrl":null,"time":" 4pm"}],"vName":"Thornbury Bowls Club"},"type":"Feature"},{"geometry":{"coordinates":[144.9618426,-37.8125531],"type":"Point"},"properties":{"events":[{"categories":["Free","Music","Other \"Food & Drink\""],"eDate":"2024-03-16","eName":"Whitehart 7th Birthday Party","genre":"Soul/Funk","price":"Free","supports":["Lady Erica"," Taijae"," Carl Os"],"ticketUrl":null,"time":" 4pm"},{"categories":["Free","Music","Other \"Food & Drink\""],"eDate":"2024-03-16","eName":"Fantasea","genre":"Electronic","price":"Free","supports":[],"ticketUrl":null,"time":" 5pm"}],"vName":"Whitehart Bar"},"type":"Feature"}],"type":"FeatureCollection"}