{"features":[{"geometry":{"coordinates":[144.9617018,-37.7704566],"type":"Point"},"properties":{"events":[{"categories":["Music"],"eDate":"2025-01-01","eName":"Yacht Rock Revival: 'Drunken Sailor' N.Y.D Party","genre":"Soul/Funk","price":"$59.26","supports":[],"ticketUrl":null,"time":" 4pm"}],"vName":"Brunswick Ballroom"},"type":"Feature"},{"geometry":{"coordinates":[144.1431519,-37.3411358],"type":"Point"},"properties":{"events":[{"categories":["Music"],"eDate":"2025-01-01","eName":"New Year's Day-lesford On The Balcony","genre":"Electronic","price":"$80.00","supports":[],"ticketUrl":null,"time":"12pm"}],"vName":"Daylesford Hotel"},"type":"Feature"},{"geometry":{"coordinates":[144.965405,-37.8117457],"type":"Point"},"properties":{"events":[{"categories":["Free","Music"],"eDate":"2025-01-01","eName":"Habibi Fiesta (NYD Arabic x Latin Party)","genre":"Global","price":"Free","supports":[],"ticketUrl":null,"time":" 3pm"}],"vName":"Section 8"},"type":"Feature"},{"geometry":{"coordinates":[144.9746525926778,-37.823819181966286],"type":"Point"},"properties":{"events":[{"categories":["Music"],"eDate":"2025-01-01","eName":"The Roots","genre":"Soul/Funk","price":"$149.90 - 169.90","supports":["Talib Kweli"," Nai Palm"],"ticketUrl":null,"time":" 6pm"}],"vName":"Sidney Myer Music Bowl"},"type":"Feature"},{"geometry":{"coordinates":[144.9607404,-37.7743469],"type":"Point"},"properties":{"events":[{"categories":["Music"],"eDate":"2025-01-01","eName":"NYD Recovery Fest","genre":"Metal","price":"$46.60 - 58.25","supports":["Vilify"," The City"," Among the Restless"," nightlight"," Day Saints"],"ticketUrl":null,"time":" 2pm"}],"vName":"Stay Gold"},"type":"Feature"}],"type":"FeatureCollection"}