{"features":[{"geometry":{"coordinates":[145.0048929,-37.8035316],"type":"Point"},"properties":{"events":[{"categories":["Music","Other \"Art \""],"eDate":"2025-09-26","eName":"-TOPIA Festival","genre":"Electronic","price":"$69.00 - 130.00","supports":["more"],"ticketUrl":null,"time":"12pm"}],"vName":"Abbotsford Convent"},"type":"Feature"},{"geometry":{"coordinates":[144.9982812,-37.7713296],"type":"Point"},"properties":{"events":[{"categories":["Music"],"eDate":"2025-09-26","eName":"Skiptons","genre":null,"price":"$6.61 - 20.00","supports":["DJ 60nice"," RubyHoo"],"ticketUrl":null,"time":" 9pm"}],"vName":"Bar 303"},"type":"Feature"},{"geometry":{"coordinates":[144.978682,-37.7981225],"type":"Point"},"properties":{"events":[{"categories":["Free","Music"],"eDate":"2025-09-26","eName":"Harrisen Hughes","genre":null,"price":"Free","supports":[],"ticketUrl":null,"time":" 9pm"}],"vName":"Baxter's Lot"},"type":"Feature"},{"geometry":{"coordinates":[144.9607158,-37.776327],"type":"Point"},"properties":{"events":[{"categories":["Music"],"eDate":"2025-09-26","eName":"Carmeria","genre":"Metal","price":"$29.99","supports":["The Stranger"," Victoria K"," ANA"],"ticketUrl":null,"time":" 8pm"}],"vName":"Bergy Bandroom"},"type":"Feature"},{"geometry":{"coordinates":[144.9568039,-37.8111442],"type":"Point"},"properties":{"events":[{"categories":["Music"],"eDate":"2025-09-26","eName":"The Beatles Legacy","genre":"Rock","price":"$40.00","supports":[],"ticketUrl":null,"time":" 6pm"}],"vName":"Bird's Basement"},"type":"Feature"},{"geometry":{"coordinates":[144.9617083,-37.7704205],"type":"Point"},"properties":{"events":[{"categories":["Music"],"eDate":"2025-09-26","eName":"The Northern Folk","genre":"Country/Folk","price":"Free","supports":[],"ticketUrl":null,"time":" 8:30pm"}],"vName":"Brunswick Ballroom"},"type":"Feature"},{"geometry":{"coordinates":[145.0002585,-37.7592368],"type":"Point"},"properties":{"events":[{"categories":["Music","Comedy","Other \"Dance \"","Other \"Cabaret\""],"eDate":"2025-09-26","eName":"Drag at Gummo: Geek Out! Presents: Geeks for Gaza!","genre":null,"price":"$25.00","supports":[],"ticketUrl":null,"time":" 7pm"}],"vName":"Cafe Gummo"},"type":"Feature"},{"geometry":{"coordinates":[144.9713425,-37.8128595],"type":"Point"},"properties":{"events":[{"categories":["Music"],"eDate":"2025-09-26","eName":"System Of A Don’t + Killing In The Dame Of","genre":"Metal","price":"$17.48","supports":[],"ticketUrl":null,"time":" 8pm"}],"vName":"Cherry Bar"},"type":"Feature"},{"geometry":{"coordinates":[144.9926664,-37.8248893],"type":"Point"},"properties":{"events":[{"categories":["Music"],"eDate":"2025-09-26","eName":"cleopatrick","genre":null,"price":"$61.90","supports":["FEDZ"],"ticketUrl":null,"time":" 8pm"}],"vName":"Corner Hotel"},"type":"Feature"},{"geometry":{"coordinates":[144.9777885,-37.8597831],"type":"Point"},"properties":{"events":[{"categories":["Music"],"eDate":"2025-09-26","eName":"Cliff Raux","genre":"Acoustic","price":"Free","supports":[],"ticketUrl":null,"time":" 9pm"}],"vName":"Freddie Wimpoles"},"type":"Feature"},{"geometry":{"coordinates":[144.983442,-37.804851],"type":"Point"},"properties":{"events":[{"categories":["Music"],"eDate":"2025-09-26","eName":"Dopplerhaus","genre":null,"price":"$15.00 - 20.00","supports":["Boggle"," Echo Social Club"," Rainbow's Library"],"ticketUrl":null,"time":" 6:30pm"}],"vName":"Grace Darling Hotel"},"type":"Feature"},{"geometry":{"coordinates":[144.9596527,-37.7720304],"type":"Point"},"properties":{"events":[{"categories":["Music"],"eDate":"2025-09-26","eName":"CLOSET’s 16th Birthday","genre":"Electronic","price":"$41.82","supports":[],"ticketUrl":null,"time":" 3pm"}],"vName":"Howler"},"type":"Feature"},{"geometry":{"coordinates":[145.0008148,-37.8107158],"type":"Point"},"properties":{"events":[{"categories":["Music"],"eDate":"2025-09-26","eName":"Dole Manchild","genre":"Punk","price":"$17.85","supports":["Zero City"," Gardiner"],"ticketUrl":null,"time":" 8pm"}],"vName":"Leadbeater Hotel"},"type":"Feature"},{"geometry":{"coordinates":[144.9936498,-37.8000264],"type":"Point"},"properties":{"events":[{"categories":["Music"],"eDate":"2025-09-26","eName":"Al Malcott","genre":"Indie","price":"Free","supports":[],"ticketUrl":null,"time":" 9pm"}],"vName":"Lulie Tavern"},"type":"Feature"},{"geometry":{"coordinates":[144.9712356,-37.812902],"type":"Point"},"properties":{"events":[{"categories":["Music"],"eDate":"2025-09-26","eName":"Kelly Tee","genre":"Electronic","price":"Free","supports":[],"ticketUrl":null,"time":" 6pm"},{"categories":["Music"],"eDate":"2025-09-26","eName":"Joshua","genre":"Electronic","price":"Free","supports":[],"ticketUrl":null,"time":" 8pm"},{"categories":["Music"],"eDate":"2025-09-26","eName":"Kayla Bruno","genre":"Electronic","price":"Free","supports":[],"ticketUrl":null,"time":"10pm"},{"categories":["Music"],"eDate":"2025-09-26","eName":"Michael Koletsas","genre":"Electronic","price":"Free","supports":[],"ticketUrl":null,"time":"10pm"}],"vName":"Morris House"},"type":"Feature"},{"geometry":{"coordinates":[144.998414,-37.771471],"type":"Point"},"properties":{"events":[{"categories":["Music"],"eDate":"2025-09-26","eName":"King Missile","genre":"Rock","price":"$54.20","supports":["Andy Burns"," WÖØLWORTHS\\\\FLUSHOT"],"ticketUrl":null,"time":" 8:30pm"}],"vName":"Northcote Social Club"},"type":"Feature"},{"geometry":{"coordinates":[144.97711,-37.79833],"type":"Point"},"properties":{"events":[{"categories":["Music"],"eDate":"2025-09-26","eName":"Gia Ransome","genre":null,"price":"$19.40","supports":[],"ticketUrl":null,"time":" 8pm"}],"vName":"Old Bar"},"type":"Feature"},{"geometry":{"coordinates":[144.96084,-37.813514],"type":"Point"},"properties":{"events":[{"categories":["Music"],"eDate":"2025-09-26","eName":"The Not-So-Big-Band: All Things Nintendo (Grand Final Eve)","genre":"Jazz","price":"$45.00","supports":[],"ticketUrl":null,"time":" 6pm"},{"categories":["Music"],"eDate":"2025-09-26","eName":"A Celebration of BB King & Etta James with Nardia & Jimi Hocking","genre":"Jazz","price":"$45.00","supports":[],"ticketUrl":null,"time":" 6:30pm"},{"categories":["Music"],"eDate":"2025-09-26","eName":"Williams Does Winehouse (Grand Final Eve)","genre":"Jazz","price":"$48.00","supports":[],"ticketUrl":null,"time":" 9pm"},{"categories":["Music"],"eDate":"2025-09-26","eName":"A Celebration of BB King & Etta James with Nardia & Jimi Hocking (Later Session)","genre":"Jazz","price":"$45.00","supports":[],"ticketUrl":null,"time":" 9:30pm"}],"vName":"Paris Cat Jazz Club"},"type":"Feature"},{"geometry":{"coordinates":[144.9741326,-37.8619943],"type":"Point"},"properties":{"events":[{"categories":["Music"],"eDate":"2025-09-26","eName":"Daft Weeknd","genre":"Electronic","price":"$39.00","supports":[],"ticketUrl":null,"time":" 7pm"}],"vName":"Prince Bandroom"},"type":"Feature"},{"geometry":{"coordinates":[144.9615882,-37.7711432],"type":"Point"},"properties":{"events":[{"categories":["Free","Music"],"eDate":"2025-09-26","eName":"Good Music presents All Star","genre":"Indie","price":"Free","supports":[],"ticketUrl":null,"time":" 5pm"}],"vName":"Retreat Hotel"},"type":"Feature"},{"geometry":{"coordinates":[144.993413,-37.8506652],"type":"Point"},"properties":{"events":[{"categories":["Music"],"eDate":"2025-09-26","eName":"Public Holiday: Beaufort Beats x Revolver Fridays","genre":"Electronic","price":"$21.42","supports":[],"ticketUrl":null,"time":"10pm"}],"vName":"Revolver Upstairs"},"type":"Feature"},{"geometry":{"coordinates":[145.0013923,-37.7559265],"type":"Point"},"properties":{"events":[{"categories":["Music"],"eDate":"2025-09-26","eName":"Zachary Leo","genre":"Rock","price":"$18.35","supports":[],"ticketUrl":null,"time":" 8pm"}],"vName":"Shotkickers"},"type":"Feature"},{"geometry":{"coordinates":[144.9607404,-37.7743469],"type":"Point"},"properties":{"events":[{"categories":["Music"],"eDate":"2025-09-26","eName":"Stay Gold All Stars Play Nickelback “All The Right Reasons” Live","genre":"Rock","price":"$19.99","supports":["Some Heard Trouble"," Matahari"],"ticketUrl":null,"time":" 7:30pm"},{"categories":["Music"],"eDate":"2025-09-26","eName":"Divorced Dad (And Mum) Rock Night #3","genre":"Rock","price":"$25.00","supports":[],"ticketUrl":null,"time":"11pm"}],"vName":"Stay Gold"},"type":"Feature"},{"geometry":{"coordinates":[144.9770425,-37.8588717],"type":"Point"},"properties":{"events":[{"categories":["Music"],"eDate":"2025-09-26","eName":"MD Duo + DJ Alee","genre":"Acoustic","price":"Free","supports":[],"ticketUrl":null,"time":" 9pm"}],"vName":"The Fifth Province"},"type":"Feature"},{"geometry":{"coordinates":[144.9463641,-37.8047757],"type":"Point"},"properties":{"events":[{"categories":["Music"],"eDate":"2025-09-26","eName":"Peter Bibby","genre":"Punk","price":"$28.60","supports":[],"ticketUrl":null,"time":" 8pm"}],"vName":"The Last Chance Rock & Roll Bar"},"type":"Feature"},{"geometry":{"coordinates":[144.9998797,-37.7616512],"type":"Point"},"properties":{"events":[{"categories":["Music"],"eDate":"2025-09-26","eName":"Temple of Groove","genre":"Soul/Funk","price":"Free","supports":[],"ticketUrl":null,"time":" 5pm"}],"vName":"The Thornbury Local"},"type":"Feature"},{"geometry":{"coordinates":[144.9651425,-37.8119429],"type":"Point"},"properties":{"events":[{"categories":["Music"],"eDate":"2025-09-26","eName":"The Peeks","genre":"Soul/Funk","price":"$20.00","supports":[],"ticketUrl":null,"time":" 7pm"},{"categories":["Music"],"eDate":"2025-09-26","eName":"TRIBE: One Night Only","genre":null,"price":"$20.00","supports":[],"ticketUrl":null,"time":"11pm"},{"categories":["Music"],"eDate":"2025-09-26","eName":"TRIBE: One Night Only","genre":"Electronic","price":"$28.56 - 38.76","supports":[],"ticketUrl":null,"time":"11pm"}],"vName":"The Toff In Town"},"type":"Feature"},{"geometry":{"coordinates":[144.9661635,-37.8176298],"type":"Point"},"properties":{"events":[{"categories":["Music"],"eDate":"2025-09-26","eName":"Des Cortez","genre":"Electronic","price":"$10.95 - 21.95","supports":[],"ticketUrl":null,"time":" 8pm"}],"vName":"Wax Music Lounge"},"type":"Feature"},{"geometry":{"coordinates":[144.9984324,-37.7729134],"type":"Point"},"properties":{"events":[{"categories":["Music"],"eDate":"2025-09-26","eName":"Pierre Jaquinot Trio","genre":"Jazz","price":"Free","supports":[],"ticketUrl":null,"time":" 6pm"}],"vName":"Wesley Anne"},"type":"Feature"}],"type":"FeatureCollection"}