{"features":[{"geometry":{"coordinates":[144.9679835243618,-37.8201575],"type":"Point"},"properties":{"events":[{"categories":["Theatre"],"eDate":"2024-05-05","eName":"A Midsummer Night's Dream","genre":null,"price":"$40.00 - 110.00","supports":[],"ticketUrl":null,"time":" 4pm"}],"vName":"Arts Centre Melbourne"},"type":"Feature"},{"geometry":{"coordinates":[144.9763781,-37.7983136],"type":"Point"},"properties":{"events":[{"categories":["Music"],"eDate":"2024-05-05","eName":"Fitzroy Connect 14","genre":"Hip Hop","price":"$16.53","supports":[],"ticketUrl":null,"time":" 8pm"}],"vName":"Bad Decisions Bar"},"type":"Feature"},{"geometry":{"coordinates":[144.9617018,-37.7704566],"type":"Point"},"properties":{"events":[{"categories":["Music"],"eDate":"2024-05-05","eName":"Matt Joe Gow & Kerryn Fields","genre":"Country/Folk","price":"$30.00","supports":[],"ticketUrl":null,"time":" 1pm"}],"vName":"Brunswick Ballroom"},"type":"Feature"},{"geometry":{"coordinates":[144.9248037207342,-37.7656716],"type":"Point"},"properties":{"events":[{"categories":["Comedy"],"eDate":"2024-05-05","eName":"Club Clocktower: Comedy Night","genre":null,"price":"$10.00","supports":[],"ticketUrl":null,"time":" 6pm"}],"vName":"Clocktower Centre"},"type":"Feature"},{"geometry":{"coordinates":[144.9745581,-37.7694446],"type":"Point"},"properties":{"events":[{"categories":["Music"],"eDate":"2024-05-05","eName":"Cookin’ On 3 Burners","genre":null,"price":"$25.00 - 30.00","supports":["Buttered Loaf"," ISEULA"],"ticketUrl":null,"time":" 3:30pm"}],"vName":"Cross Street Music Hall"},"type":"Feature"},{"geometry":{"coordinates":[144.9980448484126,-37.74553004870929],"type":"Point"},"properties":{"events":[{"categories":["Theatre"],"eDate":"2024-05-05","eName":"Peacemongers by The People","genre":null,"price":"$53.00","supports":[],"ticketUrl":null,"time":" 5pm"}],"vName":"Darebin Arts & Entertainment Centre"},"type":"Feature"},{"geometry":{"coordinates":[144.9073334,-37.8033391],"type":"Point"},"properties":{"events":[{"categories":["Theatre","Other \"Film\""],"eDate":"2024-05-05","eName":"TILDE Film Festival: Premiere Shorts","genre":null,"price":"$5.00 - 15.00","supports":[],"ticketUrl":null,"time":" 1pm"},{"categories":["Free","Other \"Spoken Word\"","Other \"Poetry & Forums\"","Other \"Film\""],"eDate":"2024-05-05","eName":"TILDE Film Festival: AFTRS Presents Women On Set","genre":null,"price":"Free","supports":[],"ticketUrl":null,"time":" 3:30pm"},{"categories":["Theatre","Other \"Film\""],"eDate":"2024-05-05","eName":"TILDE Film Festival: Our Desire Lines – Community Night","genre":null,"price":"$5.00 - 15.00","supports":[],"ticketUrl":null,"time":" 6pm"}],"vName":"Footscray Community Arts"},"type":"Feature"},{"geometry":{"coordinates":[144.9875917,-37.7963837],"type":"Point"},"properties":{"events":[{"categories":["Free","Music"],"eDate":"2024-05-05","eName":"Emily Lubitz + Al Parkinson & Dan Arnott","genre":"Country/Folk","price":"Free","supports":[],"ticketUrl":null,"time":" 4pm"}],"vName":"Gem Bar"},"type":"Feature"},{"geometry":{"coordinates":[144.973013,-37.8640582],"type":"Point"},"properties":{"events":[{"categories":["Free","Music"],"eDate":"2024-05-05","eName":"'Kid' James","genre":"Rock","price":"Free","supports":[],"ticketUrl":null,"time":" 6pm"}],"vName":"Hotel Esplanade (aka The Espy)"},"type":"Feature"},{"geometry":{"coordinates":[144.9596527,-37.7720304],"type":"Point"},"properties":{"events":[{"categories":["Theatre","Dance","Other \"Cabaret\""],"eDate":"2024-05-05","eName":"Cherry Poppers Showcase: The Solo Edition","genre":null,"price":"$33.66","supports":["Becca Bam Bam"," Drew Berrymore"," Elle Bloom"," Evangeline Snow"," Jullie Escott"," Kendra Cavale"," Lavendar Jubilee"," Lavender LaRue"," Opal Hyde"," Peach Sour"," Roxy Rawhide"," Ruby Tease"," Ryley Moore"," Sezarac"," Sookie LaLa"],"ticketUrl":null,"time":" 6pm"}],"vName":"Howler"},"type":"Feature"},{"geometry":{"coordinates":[144.9936498,-37.8000264],"type":"Point"},"properties":{"events":[{"categories":["Free","Music"],"eDate":"2024-05-05","eName":"Fancy Face","genre":"Indie","price":"Free","supports":[],"ticketUrl":null,"time":" 4pm"}],"vName":"Lulie Tavern"},"type":"Feature"},{"geometry":{"coordinates":[145.3553553,-37.9078552],"type":"Point"},"properties":{"events":[{"categories":["Free","Music"],"eDate":"2024-05-05","eName":"Henry Ballard","genre":"Acoustic","price":"Free","supports":[],"ticketUrl":null,"time":" 1pm"}],"vName":"Micawber Tavern"},"type":"Feature"},{"geometry":{"coordinates":[144.998414,-37.771471],"type":"Point"},"properties":{"events":[{"categories":["Music"],"eDate":"2024-05-05","eName":"Loin Groin","genre":"Punk","price":"$20.00","supports":["Benny Threebones"," The Kittyhawks"],"ticketUrl":null,"time":" 1:30pm"},{"categories":["Music"],"eDate":"2024-05-05","eName":"Cejaz Negraz","genre":"Hip Hop","price":"$80.00","supports":[],"ticketUrl":null,"time":" 8pm"}],"vName":"Northcote Social Club"},"type":"Feature"},{"geometry":{"coordinates":[144.97711,-37.79833],"type":"Point"},"properties":{"events":[{"categories":["Free","Music"],"eDate":"2024-05-05","eName":"Austyn Jane","genre":"Indie","price":"Free","supports":[],"ticketUrl":null,"time":" 3:30pm"}],"vName":"Old Bar"},"type":"Feature"},{"geometry":{"coordinates":[144.9605705,-37.8132486],"type":"Point"},"properties":{"events":[{"categories":["Music"],"eDate":"2024-05-05","eName":"Hannah Schmidli & Band","genre":"Jazz","price":"$35.00","supports":[],"ticketUrl":null,"time":" 6pm"}],"vName":"Paris Cat Jazz Club"},"type":"Feature"},{"geometry":{"coordinates":[145.0142411,-37.7310367],"type":"Point"},"properties":{"events":[{"categories":["Free","Music"],"eDate":"2024-05-05","eName":"Sunday Sunset Sessions","genre":"Jazz","price":"Free","supports":[],"ticketUrl":null,"time":" 6pm"}],"vName":"Ragtime Tavern"},"type":"Feature"},{"geometry":{"coordinates":[144.9631913,-37.7617818],"type":"Point"},"properties":{"events":[{"categories":["Free","Music"],"eDate":"2024-05-05","eName":"Cravzov + JD Lewis","genre":"Indie","price":"Free","supports":[],"ticketUrl":null,"time":" 2pm"},{"categories":["Music"],"eDate":"2024-05-05","eName":"The Corduroy Quartet with Zahra & Alkira","genre":"Jazz","price":"$10.00","supports":[],"ticketUrl":null,"time":" 8pm"}],"vName":"Ringo Barr"},"type":"Feature"},{"geometry":{"coordinates":[144.9878631,-37.9220954],"type":"Point"},"properties":{"events":[{"categories":["Music"],"eDate":"2024-05-05","eName":"Boychiks of Broadway with Alexis Fishman","genre":"Jazz","price":"$50.00","supports":[],"ticketUrl":null,"time":" 3pm"}],"vName":"Royal Brighton Yacht Club"},"type":"Feature"},{"geometry":{"coordinates":[145.13337431967784,-37.91372355],"type":"Point"},"properties":{"events":[{"categories":["Music"],"eDate":"2024-05-05","eName":"Sundays in The Sound Gallery: Collide","genre":"Classical","price":"$20.00 - 35.00","supports":[],"ticketUrl":null,"time":" 3pm"}],"vName":"The Ian Potter Centre for Performing Arts"},"type":"Feature"}],"type":"FeatureCollection"}