{"features":[{"geometry":{"coordinates":[144.9679835,-37.8201575],"type":"Point"},"properties":{"events":[{"categories":["Comedy"],"eDate":"2026-04-05","eName":"Murder Village: An Improvised Whodunnit","genre":null,"price":"$32.00 - 37.00","supports":[],"ticketUrl":null,"time":" 8:15pm"}],"vName":"Arts Centre Melbourne"},"type":"Feature"},{"geometry":{"coordinates":[144.978425,-37.79773],"type":"Point"},"properties":{"events":[{"categories":["Music"],"eDate":"2026-04-05","eName":"Honky Tonk Easter","genre":"Country/Folk","price":"Free","supports":[],"ticketUrl":null,"time":" 6:30pm"}],"vName":"Bar Open"},"type":"Feature"},{"geometry":{"coordinates":[144.978682,-37.7981225],"type":"Point"},"properties":{"events":[{"categories":["Music","Free"],"eDate":"2026-04-05","eName":"Baxter’s Open Mic","genre":null,"price":"Free","supports":[],"ticketUrl":null,"time":" 6pm"}],"vName":"Baxter's Lot"},"type":"Feature"},{"geometry":{"coordinates":[144.9945274,-37.8001115],"type":"Point"},"properties":{"events":[{"categories":["Festival","Comedy","Other \"Food \""],"eDate":"2026-04-05","eName":"On The Gags: Comedy Fest Extravaganza","genre":null,"price":"$20.00 - 25.00","supports":[],"ticketUrl":null,"time":" 8pm"}],"vName":"Bodriggy Brewing Company"},"type":"Feature"},{"geometry":{"coordinates":[144.9501312,-37.8042459],"type":"Point"},"properties":{"events":[{"categories":["Comedy"],"eDate":"2026-04-05","eName":"Sunday Night Comedy","genre":null,"price":"$10.00","supports":[],"ticketUrl":null,"time":" 7:30pm"}],"vName":"Club Voltaire"},"type":"Feature"},{"geometry":{"coordinates":[144.9985126,-37.7588241],"type":"Point"},"properties":{"events":[{"categories":["Music"],"eDate":"2026-04-05","eName":"Maxine Gillon","genre":null,"price":"$15.00","supports":["Emma Russack"," Mystery Shopper"],"ticketUrl":null,"time":" 2pm"}],"vName":"Thornbury Bowls Club"},"type":"Feature"}],"type":"FeatureCollection"}