{"features":[{"geometry":{"coordinates":[144.9763781,-37.7983136],"type":"Point"},"properties":{"events":[{"categories":["Music"],"eDate":"2024-03-29","eName":"Caution:Thieves","genre":null,"price":"$21.68","supports":["Rare Words"," Misery Guts"],"ticketUrl":null,"time":" 7:30pm"}],"vName":"Bad Decisions Bar"},"type":"Feature"},{"geometry":{"coordinates":[144.978425,-37.79773],"type":"Point"},"properties":{"events":[{"categories":["Music"],"eDate":"2024-03-29","eName":"GOOD FRIDAY: The Ians","genre":null,"price":"$15.00","supports":["Sweatshop"," Adhesion"," Remy Sayers"],"ticketUrl":null,"time":" 8:30pm"}],"vName":"Bar Open"},"type":"Feature"},{"geometry":{"coordinates":[144.98911674151407,-37.79964875],"type":"Point"},"properties":{"events":[{"categories":["Music"],"eDate":"2024-03-29","eName":"Bendi-Goth: Asche zu Asche","genre":"Metal","price":"$15.00","supports":[],"ticketUrl":null,"time":" 8pm"}],"vName":"Bendigo Hotel"},"type":"Feature"},{"geometry":{"coordinates":[144.9607158,-37.776327],"type":"Point"},"properties":{"events":[{"categories":["Music"],"eDate":"2024-03-29","eName":"Warataah","genre":"Indie","price":"$20.00","supports":[],"ticketUrl":null,"time":" 8pm"},{"categories":["Music"],"eDate":"2024-03-29","eName":"Warataah","genre":"Indie","price":"$22.95","supports":["Amy Flight"," Big Cat"],"ticketUrl":null,"time":" 8pm"}],"vName":"Bergy Bandroom"},"type":"Feature"},{"geometry":{"coordinates":[144.9628440552175,-37.76100605],"type":"Point"},"properties":{"events":[{"categories":["Free","Music","Trivia"],"eDate":"2024-03-29","eName":"Bingo & Disco","genre":"Electronic","price":"Free","supports":[],"ticketUrl":null,"time":" 8pm"}],"vName":"Edinburgh Castle Hotel"},"type":"Feature"},{"geometry":{"coordinates":[144.9875917,-37.7963837],"type":"Point"},"properties":{"events":[{"categories":["Free","Music"],"eDate":"2024-03-29","eName":"Street Sweeper + Hot Machine + DJ Jeepster","genre":"Rock","price":"Free","supports":[],"ticketUrl":null,"time":" 8pm"}],"vName":"Gem Bar"},"type":"Feature"},{"geometry":{"coordinates":[144.9679835243618,-37.8201575],"type":"Point"},"properties":{"events":[{"categories":["Music","Comedy"],"eDate":"2024-03-29","eName":"RocKwiz’s Really Really Good Friday","genre":"Rock","price":"$94.00 - 134.00","supports":[],"ticketUrl":null,"time":" 8pm"},{"categories":["Music","Comedy"],"eDate":"2024-03-29","eName":"RocKwiz’s Really Really Good Friday","genre":"Rock","price":"$94.00 - 134.00","supports":[],"ticketUrl":null,"time":" 8pm"}],"vName":"Hamer Hall (Arts Centre Melbourne)"},"type":"Feature"},{"geometry":{"coordinates":[144.9764962,-37.7983139],"type":"Point"},"properties":{"events":[{"categories":["Music"],"eDate":"2024-03-29","eName":"Future Waves","genre":null,"price":"$18.44","supports":[],"ticketUrl":null,"time":" 9pm"},{"categories":["Music"],"eDate":"2024-03-29","eName":"CLASSIX - Fridays","genre":"Hip Hop","price":"$11.36","supports":[],"ticketUrl":null,"time":"10pm"}],"vName":"Laundry Bar"},"type":"Feature"},{"geometry":{"coordinates":[145.3553553,-37.9078552],"type":"Point"},"properties":{"events":[{"categories":["Free","Music"],"eDate":"2024-03-29","eName":"Zak Shepherd","genre":null,"price":"Free","supports":[],"ticketUrl":null,"time":" 7pm"}],"vName":"Micawber Tavern"},"type":"Feature"},{"geometry":{"coordinates":[144.998414,-37.771471],"type":"Point"},"properties":{"events":[{"categories":["Music"],"eDate":"2024-03-29","eName":"Mount Kujo","genre":"Jazz","price":"$29.00","supports":["Wombatuque\\"," G Tano"],"ticketUrl":null,"time":" 7:30pm"}],"vName":"Northcote Social Club"},"type":"Feature"},{"geometry":{"coordinates":[144.9631913,-37.7617818],"type":"Point"},"properties":{"events":[{"categories":["Music"],"eDate":"2024-03-29","eName":"The Kids Next Door + Nevo","genre":"Indie","price":"$5.00","supports":[],"ticketUrl":null,"time":" 8pm"}],"vName":"Ringo Barr"},"type":"Feature"},{"geometry":{"coordinates":[144.965405,-37.8117457],"type":"Point"},"properties":{"events":[{"categories":["Free","Music"],"eDate":"2024-03-29","eName":"The Australian Art Orchestra presents: Straight Up & Down (SUAD)","genre":null,"price":"Free","supports":[],"ticketUrl":null,"time":" 6pm"}],"vName":"Section 8"},"type":"Feature"},{"geometry":{"coordinates":[144.9706095,-37.7783326],"type":"Point"},"properties":{"events":[{"categories":["Free","Music"],"eDate":"2024-03-29","eName":"Freud & The Family Solution","genre":"Jazz","price":"Free","supports":["Mercy Please"," Nils Cusack"],"ticketUrl":null,"time":" 7pm"}],"vName":"The Beast"},"type":"Feature"},{"geometry":{"coordinates":[144.9708437,-37.7973184],"type":"Point"},"properties":{"events":[{"categories":["Festival","Comedy","Theatre","Dance","Other \"Cabaret\""],"eDate":"2024-03-29","eName":"The Titwitchez School of Titcraft and Boobery","genre":null,"price":"$28.00","supports":[],"ticketUrl":null,"time":"10:30pm"}],"vName":"The Motley Bauhaus"},"type":"Feature"},{"geometry":{"coordinates":[144.9807148,-37.7801461],"type":"Point"},"properties":{"events":[{"categories":["Free","Music"],"eDate":"2024-03-29","eName":"RACOO with band","genre":null,"price":"Free","supports":["April May"],"ticketUrl":null,"time":" 4pm"}],"vName":"Tramway Hotel"},"type":"Feature"}],"type":"FeatureCollection"}