{"features":[{"geometry":{"coordinates":[144.9982812,-37.7713296],"type":"Point"},"properties":{"events":[{"categories":["Music"],"eDate":"2025-11-01","eName":"Pinko Collective","genre":"Jazz","price":"Free","supports":[],"ticketUrl":null,"time":" 3:45pm"},{"categories":["Music"],"eDate":"2025-11-01","eName":"Tommy D Tommee D","genre":"Rock","price":"Free","supports":["Tender Thorns"," Black Wattle Witches"," Bas$ik B!tch"," Dërty Bërd"],"ticketUrl":null,"time":" 8pm"}],"vName":"Bar 303"},"type":"Feature"},{"geometry":{"coordinates":[144.353924,-38.1629265],"type":"Point"},"properties":{"events":[{"categories":["Music","Other \"Dance \"","Other \"Wrestling\""],"eDate":"2025-11-01","eName":"Halloween II: Body Harvest Night 2","genre":"Metal","price":"$18.40 - 25.00","supports":[],"ticketUrl":null,"time":" 6pm"},{"categories":["Music","Other \"Dance \"","Other \"Wrestling\""],"eDate":"2025-11-01","eName":"Halloween II: Body Harvest Two Night 2","genre":"Metal","price":"$18.40 - 25.00","supports":["74Kings"," Project: Ultimate Satan"," Bambi Valentine"],"ticketUrl":null,"time":" 7pm"}],"vName":"Barwon Club Hotel"},"type":"Feature"},{"geometry":{"coordinates":[144.978682,-37.7981225],"type":"Point"},"properties":{"events":[{"categories":["Free","Music"],"eDate":"2025-11-01","eName":"Woody Samson","genre":null,"price":"Free","supports":[],"ticketUrl":null,"time":" 9pm"}],"vName":"Baxter's Lot"},"type":"Feature"},{"geometry":{"coordinates":[144.9891167,-37.7996488],"type":"Point"},"properties":{"events":[{"categories":["Music"],"eDate":"2025-11-01","eName":"Zeke","genre":"Rock","price":"$53.55","supports":["The Onyas"," Stepmother"],"ticketUrl":null,"time":" 9pm"}],"vName":"Bendigo Hotel"},"type":"Feature"},{"geometry":{"coordinates":[144.9607158,-37.776327],"type":"Point"},"properties":{"events":[{"categories":["Music"],"eDate":"2025-11-01","eName":"Songs for MND Victoria","genre":null,"price":"$16.85","supports":["Mila + Lucas"," Jack Paraiso"," Nic Bosnic"," Albert Steeze"," Molly York"," Bray"," Ali Harman"," Jasmijn Woods"],"ticketUrl":null,"time":"12pm"},{"categories":["Music"],"eDate":"2025-11-01","eName":"Hammers","genre":"Metal","price":"$22.95","supports":["Arabella & The Heist"," Fron"],"ticketUrl":null,"time":" 8pm"}],"vName":"Bergy Bandroom"},"type":"Feature"},{"geometry":{"coordinates":[144.9568039,-37.8111442],"type":"Point"},"properties":{"events":[{"categories":["Music","Other \"Food \""],"eDate":"2025-11-01","eName":"Relax with Max","genre":"Soul/Funk","price":"$35.00","supports":[],"ticketUrl":null,"time":" 7:30pm"}],"vName":"Bird's Basement"},"type":"Feature"},{"geometry":{"coordinates":[145.0004166,-37.7612582],"type":"Point"},"properties":{"events":[{"categories":["Music"],"eDate":"2025-11-01","eName":"I Am Duckeye","genre":"Punk","price":"$20.00","supports":["Cheap Coffins"," No Hoper"," Moustache Ant"," Ruinscapes"],"ticketUrl":null,"time":" 7:30pm"}],"vName":"Cactus Room"},"type":"Feature"},{"geometry":{"coordinates":[144.9655776,-37.8317594],"type":"Point"},"properties":{"events":[{"categories":["Music","Other \"Dance \""],"eDate":"2025-11-01","eName":"THE NEW ORDER: HALLOWEEN","genre":null,"price":"$20.00 - 25.00","supports":[],"ticketUrl":null,"time":" 9pm"}],"vName":"Club Pandora"},"type":"Feature"},{"geometry":{"coordinates":[144.9926664,-37.8248893],"type":"Point"},"properties":{"events":[{"categories":["Music"],"eDate":"2025-11-01","eName":"James Reyne","genre":"Rock","price":"$70.00","supports":["Taxiride"],"ticketUrl":null,"time":" 8:30pm"}],"vName":"Corner Hotel"},"type":"Feature"},{"geometry":{"coordinates":[145.0173599,-37.728938],"type":"Point"},"properties":{"events":[{"categories":["Free","Music"],"eDate":"2025-11-01","eName":"Queen Hyena","genre":"Rock","price":"Free","supports":[],"ticketUrl":null,"time":" 2pm"}],"vName":"Desert Highways"},"type":"Feature"},{"geometry":{"coordinates":[144.9693768,-37.8164414],"type":"Point"},"properties":{"events":[{"categories":["Music"],"eDate":"2025-11-01","eName":"The Vanns","genre":"Rock","price":"$64.90","supports":[],"ticketUrl":null,"time":" 7pm"}],"vName":"Forum Melbourne"},"type":"Feature"},{"geometry":{"coordinates":[144.9596527,-37.7720304],"type":"Point"},"properties":{"events":[{"categories":["Music"],"eDate":"2025-11-01","eName":"Floating Dreams presents Seven Drops","genre":"Electronic","price":"$17.34 - 28.56","supports":["eM & Nat"," Floating Dreams"],"ticketUrl":null,"time":" 8pm"}],"vName":"Howler"},"type":"Feature"},{"geometry":{"coordinates":[144.8984802,-37.8111559],"type":"Point"},"properties":{"events":[{"categories":["Music"],"eDate":"2025-11-01","eName":"Fangfest #2: Haloween Edition","genre":"Punk","price":"$17.00","supports":[],"ticketUrl":null,"time":" 6:30pm"}],"vName":"Kindred Bandroom"},"type":"Feature"},{"geometry":{"coordinates":[145.0008148,-37.8107158],"type":"Point"},"properties":{"events":[{"categories":["Music"],"eDate":"2025-11-01","eName":"In Eden Slain","genre":"Metal","price":"$23.75","supports":["Dandelion Wine"," Omnipresence"," She Weaves Grotesqueries"],"ticketUrl":null,"time":" 7:30pm"}],"vName":"Leadbeater Hotel"},"type":"Feature"},{"geometry":{"coordinates":[144.9658499,-37.8147453],"type":"Point"},"properties":{"events":[{"categories":["Music"],"eDate":"2025-11-01","eName":"Guns 2 Roses: Guns N Roses Tribute","genre":"Rock","price":"$53.00 - 59.00","supports":[],"ticketUrl":null,"time":" 7:30pm"}],"vName":"Max Watt's (Melbourne)"},"type":"Feature"},{"geometry":{"coordinates":[144.9500106,-37.8251062],"type":"Point"},"properties":{"events":[{"categories":["Free","Other \"Food \""],"eDate":"2025-11-01","eName":"The Coopers Zero Ultimate Beer Run","genre":null,"price":"Free","supports":[],"ticketUrl":null,"time":" 8:30am"}],"vName":"Melbourne Convention & Exhibition Centre (MCEC)"},"type":"Feature"},{"geometry":{"coordinates":[144.9675876,-37.8240849],"type":"Point"},"properties":{"events":[{"categories":["Music"],"eDate":"2025-11-01","eName":"Tangles: New Modular Music Curated by Robin Fox","genre":"Electronic","price":"$37.00","supports":[],"ticketUrl":null,"time":" 7pm"},{"categories":["Music"],"eDate":"2025-11-01","eName":"Sogand","genre":null,"price":"$129.00","supports":[],"ticketUrl":null,"time":" 8pm"}],"vName":"Melbourne Recital Centre"},"type":"Feature"},{"geometry":{"coordinates":[144.9790251,-37.8675008],"type":"Point"},"properties":{"events":[{"categories":["Other \"Dance \"","Other \"Cabaret\""],"eDate":"2025-11-01","eName":"The Australian Burlesque Festival: The Big Tease Gala","genre":null,"price":"$80.00","supports":[],"ticketUrl":null,"time":" 7pm"}],"vName":"Memo Music Hall"},"type":"Feature"},{"geometry":{"coordinates":[144.998414,-37.771471],"type":"Point"},"properties":{"events":[{"categories":["Music"],"eDate":"2025-11-01","eName":"Screamfeeder","genre":"Indie","price":"$40.40","supports":[],"ticketUrl":null,"time":" 8pm"}],"vName":"Northcote Social Club"},"type":"Feature"},{"geometry":{"coordinates":[144.9982706,-37.7737068],"type":"Point"},"properties":{"events":[{"categories":["Music"],"eDate":"2025-11-01","eName":"Bernth & Berthoud Escape The Internet","genre":"Rock","price":"$89.00","supports":["The Omnific"],"ticketUrl":null,"time":" 7:30pm"}],"vName":"Northcote Theatre"},"type":"Feature"},{"geometry":{"coordinates":[144.97711,-37.79833],"type":"Point"},"properties":{"events":[{"categories":["Music"],"eDate":"2025-11-01","eName":"Heaps Normal + Cheersquad Records And Tapes Presents: Benny J. & The Pysch Ward","genre":"Punk","price":"Free","supports":["Pollyman"," Hexham Heads"," Billy Peril"],"ticketUrl":null,"time":" 8pm"}],"vName":"Old Bar"},"type":"Feature"},{"geometry":{"coordinates":[144.96084,-37.813514],"type":"Point"},"properties":{"events":[{"categories":["Music"],"eDate":"2025-11-01","eName":"Korean Drama & Cinema Reimagined In Jazz with Mina Yu Quartet","genre":"Jazz","price":"$45.00","supports":[],"ticketUrl":null,"time":" 6pm"},{"categories":["Music"],"eDate":"2025-11-01","eName":"Simone Waddell Quintet: Let All Your Colours Be Seen","genre":"Jazz","price":"$45.00","supports":[],"ticketUrl":null,"time":" 6:30pm"},{"categories":["Music"],"eDate":"2025-11-01","eName":"Nana Koizumi Quartet","genre":"Jazz","price":"$45.00","supports":[],"ticketUrl":null,"time":" 9pm"},{"categories":["Music"],"eDate":"2025-11-01","eName":"The Cope Street Parade","genre":"Jazz","price":"$45.00","supports":[],"ticketUrl":null,"time":" 9:30pm"}],"vName":"Paris Cat Jazz Club"},"type":"Feature"},{"geometry":{"coordinates":[144.9837213,-37.8048409],"type":"Point"},"properties":{"events":[{"categories":["Music"],"eDate":"2025-11-01","eName":"Groove Alliance x QQQ","genre":"Electronic","price":"$10.95 - 14.25","supports":[],"ticketUrl":null,"time":" 7pm"}],"vName":"QQQ ST. Park"},"type":"Feature"},{"geometry":{"coordinates":[145.0142411,-37.7310367],"type":"Point"},"properties":{"events":[{"categories":["Free","Music"],"eDate":"2025-11-01","eName":"Craig Woodward","genre":"Acoustic","price":"Free","supports":[],"ticketUrl":null,"time":" 6:30pm"}],"vName":"Ragtime Tavern"},"type":"Feature"},{"geometry":{"coordinates":[144.9615882,-37.7711432],"type":"Point"},"properties":{"events":[{"categories":["Music"],"eDate":"2025-11-01","eName":"THA UNKTION","genre":null,"price":"$30.00 - 45.00","supports":["Crooked TP"," Borringal"," Jdro"," Skitz"," Jak"," RAP"," PKG"," Culture Evolves"," Leo"," Deep Honey"," Rory Tiganus-Hannan"," dozie"," Tuz"," Nnamdi"],"ticketUrl":null,"time":" 3pm"}],"vName":"Retreat Hotel"},"type":"Feature"},{"geometry":{"coordinates":[144.993413,-37.8506652],"type":"Point"},"properties":{"events":[{"categories":["Music"],"eDate":"2025-11-01","eName":"Slim Krusty","genre":null,"price":"$21.42","supports":[],"ticketUrl":null,"time":" 7:30pm"}],"vName":"Revolver Upstairs"},"type":"Feature"},{"geometry":{"coordinates":[144.9862196,-37.9091087],"type":"Point"},"properties":{"events":[{"categories":["Music"],"eDate":"2025-11-01","eName":"To Be Loved: A Dedication to Adele","genre":"Soul/Funk","price":"$55.00","supports":[],"ticketUrl":null,"time":" 8pm"}],"vName":"Royal Brighton Yacht Club"},"type":"Feature"},{"geometry":{"coordinates":[145.0013923,-37.7559265],"type":"Point"},"properties":{"events":[{"categories":["Music"],"eDate":"2025-11-01","eName":"The Groove Bandits","genre":"Soul/Funk","price":"$13.25","supports":[],"ticketUrl":null,"time":" 8pm"}],"vName":"Shotkickers"},"type":"Feature"},{"geometry":{"coordinates":[144.9607404,-37.7743469],"type":"Point"},"properties":{"events":[{"categories":["Music"],"eDate":"2025-11-01","eName":"am//pm emo night halloween","genre":"Punk","price":"$20.00 - 30.00","supports":[],"ticketUrl":null,"time":" 8pm"}],"vName":"Stay Gold"},"type":"Feature"},{"geometry":{"coordinates":[144.9706211,-37.778276],"type":"Point"},"properties":{"events":[{"categories":["Free","Music"],"eDate":"2025-11-01","eName":"Criimes: 10 Years & One Day","genre":"Hip Hop","price":"Free","supports":["Arborists"],"ticketUrl":null,"time":" 8pm"}],"vName":"The Beast"},"type":"Feature"},{"geometry":{"coordinates":[144.32141,-37.38866],"type":"Point"},"properties":{"events":[{"categories":["Free","Music"],"eDate":"2025-11-01","eName":"Andrew McSweeney","genre":"Acoustic","price":"Free","supports":[],"ticketUrl":null,"time":" 3pm"}],"vName":"The Cosmopolitan Hotel"},"type":"Feature"},{"geometry":{"coordinates":[144.9657057,-37.8061581],"type":"Point"},"properties":{"events":[{"categories":["Music"],"eDate":"2025-11-01","eName":"China Beach","genre":"Soul/Funk","price":"$17.75 - 20.80","supports":["Potluck"," Please People"],"ticketUrl":null,"time":" 8pm"}],"vName":"The Curtin"},"type":"Feature"},{"geometry":{"coordinates":[144.9770425,-37.8588717],"type":"Point"},"properties":{"events":[{"categories":["Music"],"eDate":"2025-11-01","eName":"Milly Joel Trio + DJ Alee","genre":"Rock","price":"Free","supports":[],"ticketUrl":null,"time":" 9pm"}],"vName":"The Fifth Province"},"type":"Feature"},{"geometry":{"coordinates":[144.9708437,-37.7973184],"type":"Point"},"properties":{"events":[{"categories":["Music"],"eDate":"2025-11-01","eName":"Motley Jazz Jam","genre":"Jazz","price":"Free","supports":[],"ticketUrl":null,"time":" 7:30pm"}],"vName":"The Motley Bauhaus"},"type":"Feature"},{"geometry":{"coordinates":[144.9794553,-37.7982653],"type":"Point"},"properties":{"events":[{"categories":["Music"],"eDate":"2025-11-01","eName":"No Cigar","genre":"Rock","price":"$55.05","supports":[],"ticketUrl":null,"time":" 7:30pm"}],"vName":"The Night Cat"},"type":"Feature"},{"geometry":{"coordinates":[144.9769451,-37.8055776],"type":"Point"},"properties":{"events":[{"categories":["Music"],"eDate":"2025-11-01","eName":"Teenage Joans","genre":"Rock","price":"$28.60","supports":["Bukowski"," Towns"],"ticketUrl":null,"time":" 8pm"}],"vName":"The Workers Club"},"type":"Feature"}],"type":"FeatureCollection"}