{"features":[{"geometry":{"coordinates":[144.978682,-37.7981225],"type":"Point"},"properties":{"events":[{"categories":["Free","Music"],"eDate":"2024-12-22","eName":"Lewis C","genre":null,"price":"Free","supports":[],"ticketUrl":null,"time":" 9pm"}],"vName":"Baxter's Lot"},"type":"Feature"},{"geometry":{"coordinates":[144.9607158,-37.776327],"type":"Point"},"properties":{"events":[{"categories":["Music"],"eDate":"2024-12-22","eName":"Christmas At The Bergy: Kill Two Birds + Tang","genre":"Rock","price":"$11.75","supports":["Gen Xenn"],"ticketUrl":null,"time":" 6:30pm"}],"vName":"Bergy Bandroom"},"type":"Feature"},{"geometry":{"coordinates":[144.9248037207342,-37.7656716],"type":"Point"},"properties":{"events":[{"categories":["Music"],"eDate":"2024-12-22","eName":"Carols at the Clocktower","genre":"Classical","price":"$18.00","supports":["Western Region Concert Band"],"ticketUrl":null,"time":" 6:30pm"}],"vName":"Clocktower Centre"},"type":"Feature"},{"geometry":{"coordinates":[144.9679835243618,-37.8201575],"type":"Point"},"properties":{"events":[{"categories":["Music"],"eDate":"2024-12-22","eName":"Love Actually in Concert (Matinee Session)","genre":"Classical","price":"$69.00 - 155.00","supports":[],"ticketUrl":null,"time":" 1pm"},{"categories":["Music"],"eDate":"2024-12-22","eName":"Love Actually in Concert","genre":"Classical","price":"$69.00 - 155.00","supports":[],"ticketUrl":null,"time":" 5pm"}],"vName":"Hamer Hall (Arts Centre Melbourne)"},"type":"Feature"},{"geometry":{"coordinates":[144.8971518,-37.8054274],"type":"Point"},"properties":{"events":[{"categories":["Free","Music","Markets"],"eDate":"2024-12-22","eName":"Millie Luby","genre":null,"price":"Free","supports":["Max Aurora & The Southern Lights"," Midnight Violet"," Annaliese Rose"," Loukoumi"," Sad Bitch Hours"," Local Sweetheart"],"ticketUrl":null,"time":" 2pm"}],"vName":"Mamma Chen's"},"type":"Feature"},{"geometry":{"coordinates":[144.9659879,-37.8147557],"type":"Point"},"properties":{"events":[{"categories":["Other \"Spoken Word\"","Other \"Poetry & Forums\""],"eDate":"2024-12-22","eName":"Geoff Lemon & Adam Collins: The Final Word","genre":null,"price":"$40.00","supports":[],"ticketUrl":null,"time":" 7pm"}],"vName":"Max Watt's (Melbourne)"},"type":"Feature"},{"geometry":{"coordinates":[144.998414,-37.771471],"type":"Point"},"properties":{"events":[{"categories":["Music"],"eDate":"2024-12-22","eName":"Shannen James (End Of Year Christmas Party)","genre":null,"price":"$24.00 - 35.30","supports":[],"ticketUrl":null,"time":" 7pm"}],"vName":"Northcote Social Club"},"type":"Feature"},{"geometry":{"coordinates":[145.0142411,-37.7310367],"type":"Point"},"properties":{"events":[{"categories":["Free","Music"],"eDate":"2024-12-22","eName":"Sunday Sunset Sessions","genre":"Jazz","price":"Free","supports":[],"ticketUrl":null,"time":" 6pm"}],"vName":"Ragtime Tavern"},"type":"Feature"},{"geometry":{"coordinates":[144.9615882,-37.7711432],"type":"Point"},"properties":{"events":[{"categories":["Music"],"eDate":"2024-12-22","eName":"The Cartridge Family","genre":"Country/Folk","price":"$25.00","supports":[],"ticketUrl":null,"time":" 2:30pm"},{"categories":["Free","Music"],"eDate":"2024-12-22","eName":"Cold Irons Bound","genre":"Country/Folk","price":"Free","supports":["Ragged Company"," Teresa Duffy-Richards"],"ticketUrl":null,"time":" 6:30pm"}],"vName":"Retreat Hotel"},"type":"Feature"},{"geometry":{"coordinates":[144.9631913,-37.7617818],"type":"Point"},"properties":{"events":[{"categories":["Free","Music"],"eDate":"2024-12-22","eName":"Alister Turrill + Toby Jackson","genre":"Blues","price":"Free","supports":[],"ticketUrl":null,"time":" 8pm"}],"vName":"Ringo Barr"},"type":"Feature"},{"geometry":{"coordinates":[144.9585654,-37.8059962],"type":"Point"},"properties":{"events":[{"categories":["Music"],"eDate":"2024-12-22","eName":"DEAD + Electric Heads","genre":"Rock","price":"$6.15 - 23.50","supports":[],"ticketUrl":null,"time":" 2:30pm"}],"vName":"The Last Chance Rock & Roll Bar"},"type":"Feature"},{"geometry":{"coordinates":[144.9807148,-37.7801461],"type":"Point"},"properties":{"events":[{"categories":["Music"],"eDate":"2024-12-22","eName":"Elly McK & The Unbelievers: 'UnChristmas' Party","genre":"Country/Folk","price":"Free","supports":[],"ticketUrl":null,"time":" 4pm"}],"vName":"Tramway Hotel"},"type":"Feature"}],"type":"FeatureCollection"}