{"features":[{"geometry":{"coordinates":[144.9763781,-37.7983136],"type":"Point"},"properties":{"events":[{"categories":["Music"],"eDate":"2024-02-29","eName":"GetJaxxed","genre":null,"price":"$11.24","supports":["The Opals"," Vending Machine Repairmen"," Lucid Aux"],"ticketUrl":null,"time":" 7pm"},{"categories":["Music"],"eDate":"2024-02-29","eName":"GetJaxxed","genre":null,"price":"$10.00","supports":["The Silly Yaks"," The Opals"," Lucid Aux"," Vending Machine Repairmen"],"ticketUrl":null,"time":" 7pm"}],"vName":"Bad Decisions Bar"},"type":"Feature"},{"geometry":{"coordinates":[144.99828116650363,-37.7713296],"type":"Point"},"properties":{"events":[{"categories":["Music"],"eDate":"2024-02-29","eName":"Kickin the B Hammond Sessions","genre":"Jazz","price":"$20.00","supports":[],"ticketUrl":null,"time":" 8pm"}],"vName":"Bar 303"},"type":"Feature"},{"geometry":{"coordinates":[144.9945274,-37.8001115],"type":"Point"},"properties":{"events":[{"categories":["Free","Music","Other \"Food & Drink\""],"eDate":"2024-02-29","eName":"Marcel Borrack TD Band","genre":"Soul/Funk","price":"Free","supports":[],"ticketUrl":null,"time":" 7pm"}],"vName":"Bodriggy Brewing Company"},"type":"Feature"},{"geometry":{"coordinates":[144.9617018,-37.7704566],"type":"Point"},"properties":{"events":[{"categories":["Music"],"eDate":"2024-02-29","eName":"Buena Vista Social Club Tribute Night","genre":"Global","price":"$49.06","supports":[],"ticketUrl":null,"time":" 8pm"}],"vName":"Brunswick Ballroom"},"type":"Feature"},{"geometry":{"coordinates":[144.96904143685853,-37.81799793179876],"type":"Point"},"properties":{"events":[{"categories":["Free","Music"],"eDate":"2024-02-29","eName":"JACOTÃ‰NE by Candlelight","genre":"R&B","price":"Free","supports":[],"ticketUrl":null,"time":" 8:30pm"}],"vName":"Federation Square"},"type":"Feature"},{"geometry":{"coordinates":[145.0008148,-37.8107158],"type":"Point"},"properties":{"events":[{"categories":["Music"],"eDate":"2024-02-29","eName":"Alanna Malkoc","genre":"Indie","price":"$12.75","supports":["Tuscan Son"," Crystal Ship"],"ticketUrl":null,"time":" 8pm"}],"vName":"Leadbeater Hotel"},"type":"Feature"},{"geometry":{"coordinates":[144.96741062735794,-37.82454855],"type":"Point"},"properties":{"events":[{"categories":["Music"],"eDate":"2024-02-29","eName":"Melbourne Chamber Orchestra 2024: Music Speaks","genre":"Classical","price":"$70.00","supports":[],"ticketUrl":null,"time":" 7:30pm"}],"vName":"Melbourne Recital Centre"},"type":"Feature"},{"geometry":{"coordinates":[144.998414,-37.771471],"type":"Point"},"properties":{"events":[{"categories":["Music"],"eDate":"2024-02-29","eName":"The Veils","genre":"Indie","price":"$50.00","supports":[],"ticketUrl":null,"time":" 8pm"}],"vName":"Northcote Social Club"},"type":"Feature"},{"geometry":{"coordinates":[144.97711,-37.79833],"type":"Point"},"properties":{"events":[{"categories":["Music"],"eDate":"2024-02-29","eName":"Bitter Vics","genre":"Punk","price":"$10.00","supports":["The Bluntts"," Caifein"],"ticketUrl":null,"time":" 8pm"}],"vName":"Old Bar"},"type":"Feature"},{"geometry":{"coordinates":[145.1244456,-38.1471263],"type":"Point"},"properties":{"events":[{"categories":["Music"],"eDate":"2024-02-29","eName":"Coterie","genre":"Rock","price":"$50.00","supports":["Bootleg Rascal"," South Summit"],"ticketUrl":null,"time":" 7pm"}],"vName":"Pier Bandroom"},"type":"Feature"},{"geometry":{"coordinates":[145.0142411,-37.7310367],"type":"Point"},"properties":{"events":[{"categories":["Free","Music"],"eDate":"2024-02-29","eName":"Open Mic @ Ragtime Tavern","genre":"Acoustic","price":"Free","supports":[],"ticketUrl":null,"time":" 7pm"}],"vName":"Ragtime Tavern"},"type":"Feature"},{"geometry":{"coordinates":[144.9631913,-37.7617818],"type":"Point"},"properties":{"events":[{"categories":["Free","Music"],"eDate":"2024-02-29","eName":"Open Mic Thursdays @ Ringo Barr","genre":"Acoustic","price":"Free","supports":[],"ticketUrl":null,"time":" 7pm"}],"vName":"Ringo Barr"},"type":"Feature"},{"geometry":{"coordinates":[144.9715321,-37.8098002],"type":"Point"},"properties":{"events":[{"categories":["Comedy"],"eDate":"2024-02-29","eName":"Raise the Bar Comedy: Standup Comedy Female All-Stars Fab February","genre":null,"price":"$15.00","supports":[],"ticketUrl":null,"time":" 7pm"}],"vName":"StoryVille"},"type":"Feature"},{"geometry":{"coordinates":[144.9651425,-37.8119429],"type":"Point"},"properties":{"events":[{"categories":["Free","Music","Other \"Food & Drink\""],"eDate":"2024-02-29","eName":"Jazz & Jaffles","genre":"Jazz","price":"Free","supports":[],"ticketUrl":null,"time":" 7pm"}],"vName":"The Toff In Town"},"type":"Feature"},{"geometry":{"coordinates":[144.9618426,-37.8125531],"type":"Point"},"properties":{"events":[{"categories":["Free","Music","Other \"Food & Drink\""],"eDate":"2024-02-29","eName":"Eastside Cassette Release Party","genre":"Electronic","price":"Free","supports":[],"ticketUrl":null,"time":" 5pm"}],"vName":"Whitehart Bar"},"type":"Feature"}],"type":"FeatureCollection"}