{"features":[{"geometry":{"coordinates":[144.9715791,-37.8140656],"type":"Point"},"properties":{"events":[{"categories":["Theatre"],"eDate":"2025-02-15","eName":"Shirley Valentine","genre":null,"price":"$30.00 - 139.00","supports":[],"ticketUrl":null,"time":" 1pm"},{"categories":["Theatre"],"eDate":"2025-02-15","eName":"Shirley Valentine","genre":null,"price":"$30.00 - 139.00","supports":[],"ticketUrl":null,"time":" 7:30pm"}],"vName":"Athenaeum Theatre"},"type":"Feature"},{"geometry":{"coordinates":[144.99828116650363,-37.7713296],"type":"Point"},"properties":{"events":[{"categories":["Free","Music"],"eDate":"2025-02-15","eName":"Rudi Soundsystem","genre":"Electronic","price":"Free","supports":[],"ticketUrl":null,"time":" 8pm"},{"categories":["Free","Music"],"eDate":"2025-02-15","eName":"Rudi Sound meets Electrodub Experiment","genre":"Global","price":"Free","supports":[],"ticketUrl":null,"time":" 8pm"}],"vName":"Bar 303"},"type":"Feature"},{"geometry":{"coordinates":[144.978682,-37.7981225],"type":"Point"},"properties":{"events":[{"categories":["Free","Music"],"eDate":"2025-02-15","eName":"Lewis Toms","genre":null,"price":"Free","supports":[],"ticketUrl":null,"time":" 9pm"},{"categories":["Music"],"eDate":"2025-02-15","eName":"DJ Gerry Murphy","genre":"Electronic","price":"Free","supports":[],"ticketUrl":null,"time":" 9pm"}],"vName":"Baxter's Lot"},"type":"Feature"},{"geometry":{"coordinates":[144.9607158,-37.776327],"type":"Point"},"properties":{"events":[{"categories":["Music"],"eDate":"2025-02-15","eName":"Olympic White","genre":"Acoustic","price":"$16.85","supports":[],"ticketUrl":null,"time":" 7:30pm"}],"vName":"Bergy Bandroom"},"type":"Feature"},{"geometry":{"coordinates":[144.9567859,-37.8111049],"type":"Point"},"properties":{"events":[{"categories":["Music"],"eDate":"2025-02-15","eName":"Paco Lara Quartet","genre":"Jazz","price":"$50.00","supports":[],"ticketUrl":null,"time":" 7:30pm"}],"vName":"Bird's Basement"},"type":"Feature"},{"geometry":{"coordinates":[144.9617018,-37.7704566],"type":"Point"},"properties":{"events":[{"categories":["Music"],"eDate":"2025-02-15","eName":"Soweto Gospel Choir: HOPE (Matinee)","genre":"Global","price":"$79.90","supports":[],"ticketUrl":null,"time":" 3pm"},{"categories":["Music"],"eDate":"2025-02-15","eName":"Soweto Gospel Choir: HOPE","genre":"Global","price":"$79.90","supports":[],"ticketUrl":null,"time":" 7:30pm"}],"vName":"Brunswick Ballroom"},"type":"Feature"},{"geometry":{"coordinates":[145.0006024,-37.8837941],"type":"Point"},"properties":{"events":[{"categories":["Music"],"eDate":"2025-02-15","eName":"Bob Sedergreen & Friends with Annmarie Sharry","genre":"Jazz","price":"$30.00","supports":[],"ticketUrl":null,"time":" 8pm"},{"categories":["Music"],"eDate":"2025-02-15","eName":"Bob Sedergreen & Friends","genre":"Jazz","price":"$25.00 - 30.00","supports":["Annmarie Sharry"],"ticketUrl":null,"time":" 8pm"}],"vName":"Classic Southside"},"type":"Feature"},{"geometry":{"coordinates":[144.99266639479475,-37.82488935],"type":"Point"},"properties":{"events":[{"categories":["Music"],"eDate":"2025-02-15","eName":"julie","genre":"Indie","price":"$64.90","supports":[],"ticketUrl":null,"time":" 8:30pm"}],"vName":"Corner Hotel"},"type":"Feature"},{"geometry":{"coordinates":[144.950359,-37.8100202],"type":"Point"},"properties":{"events":[{"categories":["Music"],"eDate":"2025-02-15","eName":"RUDIM3NTAL","genre":"Electronic","price":"$99.90","supports":[],"ticketUrl":null,"time":" 7pm"}],"vName":"Festival Hall"},"type":"Feature"},{"geometry":{"coordinates":[144.98535244416098,-37.79426315],"type":"Point"},"properties":{"events":[{"categories":["Music"],"eDate":"2025-02-15","eName":"Moniker presents Maratona","genre":"Electronic","price":"$45.00","supports":[],"ticketUrl":null,"time":"11pm"}],"vName":"Gasometer Hotel"},"type":"Feature"},{"geometry":{"coordinates":[144.9679835243618,-37.8201575],"type":"Point"},"properties":{"events":[{"categories":["Music"],"eDate":"2025-02-15","eName":"The Brand New Heavies","genre":"Jazz","price":"$132.43 - 285.40","supports":[],"ticketUrl":null,"time":" 7:30pm"}],"vName":"Hamer Hall (Arts Centre Melbourne)"},"type":"Feature"},{"geometry":{"coordinates":[145.0008148,-37.8107158],"type":"Point"},"properties":{"events":[{"categories":["Music"],"eDate":"2025-02-15","eName":"Pour One Out","genre":"Metal","price":"$17.85","supports":[],"ticketUrl":null,"time":" 6:30pm"}],"vName":"Leadbeater Hotel"},"type":"Feature"},{"geometry":{"coordinates":[145.0355738,-37.8205529],"type":"Point"},"properties":{"events":[{"categories":["Music"],"eDate":"2025-02-15","eName":"Nadira & Friends","genre":"Jazz","price":"$25.00 - 30.00","supports":[],"ticketUrl":null,"time":" 8pm"}],"vName":"Lido Jazz Room"},"type":"Feature"},{"geometry":{"coordinates":[144.8971518,-37.8054274],"type":"Point"},"properties":{"events":[{"categories":["Free","Music"],"eDate":"2025-02-15","eName":"The Coolabahs En(light)enment Show","genre":null,"price":"Free","supports":["Angry Subordinates"," Jess Shreds & The Unmade Beds"],"ticketUrl":null,"time":" 2pm"},{"categories":["Music"],"eDate":"2025-02-15","eName":"The Plot Twist","genre":null,"price":"$13.00","supports":["My Grinding Mind"," Big Fat Elephant"," Big Fat Elephant"," Heath Robertson Band"],"ticketUrl":null,"time":" 6:45pm"}],"vName":"Mamma Chen's"},"type":"Feature"},{"geometry":{"coordinates":[144.9659879,-37.8147557],"type":"Point"},"properties":{"events":[{"categories":["Music"],"eDate":"2025-02-15","eName":"Closure in Moscow","genre":"Metal","price":"$96.40","supports":["The Fall of Troy"," Hail The Sun"],"ticketUrl":null,"time":" 7:30pm"}],"vName":"Max Watt's (Melbourne)"},"type":"Feature"},{"geometry":{"coordinates":[144.96741062735794,-37.82454855],"type":"Point"},"properties":{"events":[{"categories":["Music"],"eDate":"2025-02-15","eName":"Samuel Mariño","genre":"Classical","price":"$30.00","supports":[],"ticketUrl":null,"time":" 7pm"}],"vName":"Melbourne Recital Centre"},"type":"Feature"},{"geometry":{"coordinates":[144.9786817,-37.8671902],"type":"Point"},"properties":{"events":[{"categories":["Music"],"eDate":"2025-02-15","eName":"Machinations","genre":null,"price":"$50.00","supports":["Zan"],"ticketUrl":null,"time":" 7pm"}],"vName":"Memo Music Hall"},"type":"Feature"},{"geometry":{"coordinates":[144.998414,-37.771471],"type":"Point"},"properties":{"events":[{"categories":["Music"],"eDate":"2025-02-15","eName":"Alan Sparhawk","genre":"Indie","price":"$72.10","supports":["Come"," Circuit des Yeux"],"ticketUrl":null,"time":" 8:30pm"}],"vName":"Northcote Social Club"},"type":"Feature"},{"geometry":{"coordinates":[144.97711,-37.79833],"type":"Point"},"properties":{"events":[{"categories":["Free","Music"],"eDate":"2025-02-15","eName":"The Earthquakes + The Tommys","genre":"Rock","price":"Free","supports":[],"ticketUrl":null,"time":" 4pm"}],"vName":"Old Bar"},"type":"Feature"},{"geometry":{"coordinates":[144.9605705,-37.8132486],"type":"Point"},"properties":{"events":[{"categories":["Music"],"eDate":"2025-02-15","eName":"Stevie Wonder Ful","genre":"Soul/Funk","price":"$48.00","supports":[],"ticketUrl":null,"time":" 6pm"},{"categories":["Music"],"eDate":"2025-02-15","eName":"Easy To Love: The Music Of Cole Porter with Richard Pavlidis","genre":"Jazz","price":"$45.00","supports":[],"ticketUrl":null,"time":" 6:30pm"},{"categories":["Music"],"eDate":"2025-02-15","eName":"Cannonball with Chantal Mitvalsky","genre":"Jazz","price":"$45.00","supports":[],"ticketUrl":null,"time":" 9pm"},{"categories":["Music"],"eDate":"2025-02-15","eName":"The Royal Motown Review with Nardia & Paul Slattery","genre":"Soul/Funk","price":"$45.00","supports":[],"ticketUrl":null,"time":" 9:30pm"}],"vName":"Paris Cat Jazz Club"},"type":"Feature"},{"geometry":{"coordinates":[144.9615882,-37.7711432],"type":"Point"},"properties":{"events":[{"categories":["Free","Music"],"eDate":"2025-02-15","eName":"Wrong Way Up","genre":"Electronic","price":"Free","supports":[],"ticketUrl":null,"time":" 2pm"}],"vName":"Retreat Hotel"},"type":"Feature"},{"geometry":{"coordinates":[144.9878631,-37.9220954],"type":"Point"},"properties":{"events":[{"categories":["Music"],"eDate":"2025-02-15","eName":"Greg Gould & Callum Warrender: The Best of Broadway","genre":"Jazz","price":"$55.00","supports":[],"ticketUrl":null,"time":" 8:30pm"}],"vName":"Royal Brighton Yacht Club"},"type":"Feature"},{"geometry":{"coordinates":[144.9746525926778,-37.823819181966286],"type":"Point"},"properties":{"events":[{"categories":["Free","Music"],"eDate":"2025-02-15","eName":"Jaime conducts at the Bowl: Dvořák, Gershwin & Ravel","genre":"Classical","price":"Free","supports":[],"ticketUrl":null,"time":" 7:30pm"}],"vName":"Sidney Myer Music Bowl"},"type":"Feature"},{"geometry":{"coordinates":[144.9607404,-37.7743469],"type":"Point"},"properties":{"events":[{"categories":["Music"],"eDate":"2025-02-15","eName":"Luke Combs Appreciation Night","genre":"Country/Folk","price":"$13.80 - 22.00","supports":[],"ticketUrl":null,"time":"11pm"}],"vName":"Stay Gold"},"type":"Feature"},{"geometry":{"coordinates":[144.9657057,-37.8061581],"type":"Point"},"properties":{"events":[{"categories":["Music"],"eDate":"2025-02-15","eName":"Hot To Rot: Blossom Rot Records Takeover","genre":"Rock","price":"$22.85","supports":["more"],"ticketUrl":null,"time":" 2:30pm"}],"vName":"The Curtin"},"type":"Feature"},{"geometry":{"coordinates":[144.9840598,-37.7827901],"type":"Point"},"properties":{"events":[{"categories":["Music"],"eDate":"2025-02-15","eName":"Sam Wrangle","genre":"Pop","price":"$14.80","supports":["Potluck"," Video Life"],"ticketUrl":null,"time":" 7pm"}],"vName":"The Fitzroy Pinnacle"},"type":"Feature"},{"geometry":{"coordinates":[144.9708437,-37.7973184],"type":"Point"},"properties":{"events":[{"categories":["Free","Music"],"eDate":"2025-02-15","eName":"Jazz Arvos","genre":"Jazz","price":"Free","supports":[],"ticketUrl":null,"time":" 5pm"}],"vName":"The Motley Bauhaus"},"type":"Feature"},{"geometry":{"coordinates":[144.9830837,-37.7988316],"type":"Point"},"properties":{"events":[{"categories":["Music"],"eDate":"2025-02-15","eName":"Molly Nilsson","genre":"Pop","price":"$44.86","supports":[],"ticketUrl":null,"time":" 7:30pm"},{"categories":["Music"],"eDate":"2025-02-15","eName":"Organised Noise Presents: Make A Dance","genre":"Electronic","price":"$23.45","supports":[],"ticketUrl":null,"time":"11pm"}],"vName":"The Night Cat"},"type":"Feature"},{"geometry":{"coordinates":[144.9622,-37.7679857],"type":"Point"},"properties":{"events":[{"categories":["Music"],"eDate":"2025-02-15","eName":"Summer Series: The Twisted 15","genre":"Electronic","price":"$37.90","supports":[],"ticketUrl":null,"time":" 3pm"}],"vName":"The Penny Black"},"type":"Feature"},{"geometry":{"coordinates":[144.9846126,-37.7989941],"type":"Point"},"properties":{"events":[{"categories":["Music"],"eDate":"2025-02-15","eName":"Fat Picnic","genre":"Soul/Funk","price":"$16.35 - 23.50","supports":["Munchy Dolphin"," Ozergun"],"ticketUrl":null,"time":" 8:30pm"},{"categories":["Music"],"eDate":"2025-02-15","eName":"The D4","genre":"Rock","price":"$48.45","supports":["Mach Pelican"," more"],"ticketUrl":null,"time":" 8:30pm"}],"vName":"The Tote Hotel"},"type":"Feature"},{"geometry":{"coordinates":[144.9983987,-37.7729204],"type":"Point"},"properties":{"events":[{"categories":["Music"],"eDate":"2025-02-15","eName":"Rachael Fahim","genre":"Country/Folk","price":"$25.00","supports":["Missy Lancaster"],"ticketUrl":null,"time":" 8pm"}],"vName":"Wesley Anne"},"type":"Feature"}],"type":"FeatureCollection"}