{"features":[{"geometry":{"coordinates":[145.0004166,-37.7612582],"type":"Point"},"properties":{"events":[{"categories":["Music"],"eDate":"2026-03-13","eName":"Undunn Records Presents","genre":null,"price":"$22.00","supports":["Affordable Repayments"," Tench"],"ticketUrl":null,"time":" 8pm"}],"vName":"Cactus Room"},"type":"Feature"},{"geometry":{"coordinates":[144.9713425,-37.8128595],"type":"Point"},"properties":{"events":[{"categories":["Music"],"eDate":"2026-03-13","eName":"Liquid Zoo","genre":"Rock","price":"$17.48","supports":[],"ticketUrl":null,"time":" 8pm"}],"vName":"Cherry Bar"},"type":"Feature"},{"geometry":{"coordinates":[144.9926664,-37.8248893],"type":"Point"},"properties":{"events":[{"categories":["Music"],"eDate":"2026-03-13","eName":"FF News Presents: The Crash Out Tour","genre":"Hip Hop","price":"$23.44","supports":[],"ticketUrl":null,"time":" 8pm"}],"vName":"Corner Hotel"},"type":"Feature"},{"geometry":{"coordinates":[144.983442,-37.804851],"type":"Point"},"properties":{"events":[{"categories":["Music"],"eDate":"2026-03-13","eName":"flossy","genre":null,"price":"$20.00","supports":["Olza"," Alice Ruby"],"ticketUrl":null,"time":" 8pm"}],"vName":"Grace Darling Hotel"},"type":"Feature"},{"geometry":{"coordinates":[144.9675876,-37.8240849],"type":"Point"},"properties":{"events":[{"categories":["Music","Other \"Dance \""],"eDate":"2026-03-13","eName":"Barcelona Guitar Trio & Dance","genre":"Acoustic","price":"$89.00 - 129.00","supports":[],"ticketUrl":null,"time":" 7:30pm"}],"vName":"Melbourne Recital Centre"},"type":"Feature"},{"geometry":{"coordinates":[145.1334272,-37.9135736],"type":"Point"},"properties":{"events":[{"categories":["Music"],"eDate":"2026-03-13","eName":"Nacht II","genre":"Electronic","price":"$20.00 - 45.00","supports":[],"ticketUrl":null,"time":" 7:30pm"}],"vName":"The Ian Potter Centre for Performing Arts"},"type":"Feature"},{"geometry":{"coordinates":[144.9794553,-37.7982653],"type":"Point"},"properties":{"events":[{"categories":["Music"],"eDate":"2026-03-13","eName":"Fantastic Negrito","genre":null,"price":"$72.04","supports":[],"ticketUrl":null,"time":" 8pm"}],"vName":"The Night Cat"},"type":"Feature"}],"type":"FeatureCollection"}