{"features":[{"geometry":{"coordinates":[144.9982812,-37.7713296],"type":"Point"},"properties":{"events":[{"categories":["Music"],"eDate":"2025-09-06","eName":"Enki","genre":null,"price":"$20.00","supports":[],"ticketUrl":null,"time":" 3pm"}],"vName":"Bar 303"},"type":"Feature"},{"geometry":{"coordinates":[144.978682,-37.7981225],"type":"Point"},"properties":{"events":[{"categories":["Free","Music"],"eDate":"2025-09-06","eName":"Woody Samson","genre":null,"price":"Free","supports":[],"ticketUrl":null,"time":" 9pm"}],"vName":"Baxter's Lot"},"type":"Feature"},{"geometry":{"coordinates":[144.9980448484126,-37.74553004870929],"type":"Point"},"properties":{"events":[{"categories":["Music"],"eDate":"2025-09-06","eName":"A Night Under the Stars with Watty Thompson & Friends","genre":"Country/Folk","price":"$40.00","supports":[],"ticketUrl":null,"time":" 6:45pm"}],"vName":"Darebin Arts & Entertainment Centre"},"type":"Feature"},{"geometry":{"coordinates":[144.9777885,-37.8597831],"type":"Point"},"properties":{"events":[{"categories":["Music"],"eDate":"2025-09-06","eName":"Renae Brennen","genre":"Acoustic","price":"Free","supports":[],"ticketUrl":null,"time":" 9pm"}],"vName":"Freddie Wimpoles"},"type":"Feature"},{"geometry":{"coordinates":[145.0358857,-37.8230335],"type":"Point"},"properties":{"events":[{"categories":["Music"],"eDate":"2025-09-06","eName":"Eishan Ensemble","genre":"Jazz","price":"$36.00 - 45.00","supports":[],"ticketUrl":null,"time":" 7:30pm"}],"vName":"Hawthorn Arts Centre"},"type":"Feature"},{"geometry":{"coordinates":[144.8975289,-37.8022392],"type":"Point"},"properties":{"events":[{"categories":["Music"],"eDate":"2025-09-06","eName":"Millie Luby & the HRT BRKRs","genre":"Indie","price":"$15.00 - 20.00","supports":["Tracksuit Larry"," Fig Jam"],"ticketUrl":null,"time":" 7:30pm"}],"vName":"Mamma Chen's"},"type":"Feature"},{"geometry":{"coordinates":[144.9675876,-37.8240849],"type":"Point"},"properties":{"events":[{"categories":["Music"],"eDate":"2025-09-06","eName":"Artists for Peace: CUBA! (Matinee Session)","genre":null,"price":"$69.00","supports":[],"ticketUrl":null,"time":" 4:30pm"},{"categories":["Music"],"eDate":"2025-09-06","eName":"Artists for Peace: CUBA! (Matinee Session)","genre":null,"price":"$69.00","supports":[],"ticketUrl":null,"time":" 7:30pm"},{"categories":["Music"],"eDate":"2025-09-06","eName":"Australian Chamber Orchestra: A Musical Awakening","genre":"Classical","price":"$49.00","supports":[],"ticketUrl":null,"time":" 7:30pm"}],"vName":"Melbourne Recital Centre"},"type":"Feature"},{"geometry":{"coordinates":[144.97711,-37.79833],"type":"Point"},"properties":{"events":[{"categories":["Free","Music"],"eDate":"2025-09-06","eName":"The Phosphenes","genre":null,"price":"Free","supports":["The Delvenes"],"ticketUrl":null,"time":" 3:30pm"},{"categories":["Music"],"eDate":"2025-09-06","eName":"Speed Bumps","genre":"Rock","price":"$19.00","supports":["Last Quokka"," The Rartel"," Handgrenade Hearts"," NAH"],"ticketUrl":null,"time":" 7pm"}],"vName":"Old Bar"},"type":"Feature"},{"geometry":{"coordinates":[144.9615882,-37.7711432],"type":"Point"},"properties":{"events":[{"categories":["Music"],"eDate":"2025-09-06","eName":"Dark 80s: A Live Music & DJ Dance Night Tribute to Depeche Mode, The Cure & New Order","genre":null,"price":"$15.00","supports":["Blood In The Champagne"],"ticketUrl":null,"time":" 7pm"}],"vName":"Retreat Hotel"},"type":"Feature"},{"geometry":{"coordinates":[144.965405,-37.8117457],"type":"Point"},"properties":{"events":[{"categories":["Free","Music"],"eDate":"2025-09-06","eName":"Disco Express","genre":null,"price":"Free","supports":[],"ticketUrl":null,"time":" 6pm"}],"vName":"Section 8"},"type":"Feature"},{"geometry":{"coordinates":[144.9706211,-37.778276],"type":"Point"},"properties":{"events":[{"categories":["Free","Music"],"eDate":"2025-09-06","eName":"Bashka","genre":"Electronic","price":"Free","supports":[],"ticketUrl":null,"time":" 9pm"}],"vName":"The Beast"},"type":"Feature"},{"geometry":{"coordinates":[144.32141,-37.38866],"type":"Point"},"properties":{"events":[{"categories":["Free","Music"],"eDate":"2025-09-06","eName":"Cat Canteri","genre":"Acoustic","price":"Free","supports":[],"ticketUrl":null,"time":" 3pm"}],"vName":"The Cosmopolitan Hotel"},"type":"Feature"},{"geometry":{"coordinates":[144.9770425,-37.8588717],"type":"Point"},"properties":{"events":[{"categories":["Music"],"eDate":"2025-09-06","eName":"The Band She + DJ Shadow","genre":"Rock","price":"Free","supports":[],"ticketUrl":null,"time":" 9pm"}],"vName":"The Fifth Province"},"type":"Feature"},{"geometry":{"coordinates":[144.9521683,-37.7319597],"type":"Point"},"properties":{"events":[{"categories":["Music"],"eDate":"2025-09-06","eName":"Orin Aya Official Afterparty Melbourne","genre":"Electronic","price":"$35.00","supports":["Miss Jade"," Megapixel"," Rizon"," Soul Alignment"," Stewi"," Zephir"],"ticketUrl":null,"time":" 2pm"}],"vName":"The Industrique"},"type":"Feature"},{"geometry":{"coordinates":[144.9708437,-37.7973184],"type":"Point"},"properties":{"events":[{"categories":["Comedy","Theatre"],"eDate":"2025-09-06","eName":"The Big HOO-HAA!","genre":null,"price":"$32.00","supports":[],"ticketUrl":null,"time":" 8:30pm"}],"vName":"The Motley Bauhaus"},"type":"Feature"},{"geometry":{"coordinates":[144.9651425,-37.8119429],"type":"Point"},"properties":{"events":[{"categories":["Free","Music"],"eDate":"2025-09-06","eName":"Sleazy Little Thing","genre":null,"price":"Free","supports":[],"ticketUrl":null,"time":"11pm"}],"vName":"The Toff In Town"},"type":"Feature"}],"type":"FeatureCollection"}