{"features":[{"geometry":{"coordinates":[144.9500257,-37.8032773],"type":"Point"},"properties":{"events":[{"categories":["Free","Art"],"eDate":"2024-03-18","eName":"ನಿರೀಕ್ಷಣೆ nireekshane","genre":null,"price":"Free","supports":[],"ticketUrl":null,"time":"10am"}],"vName":"Arts House"},"type":"Feature"},{"geometry":{"coordinates":[144.978425,-37.79773],"type":"Point"},"properties":{"events":[{"categories":["Music"],"eDate":"2024-03-18","eName":"Bohjass","genre":"Jazz","price":"$5.00","supports":["Will Larsen Band"," Samassin"],"ticketUrl":null,"time":" 6pm"}],"vName":"Bar Open"},"type":"Feature"},{"geometry":{"coordinates":[144.973013,-37.8640582],"type":"Point"},"properties":{"events":[{"categories":["Free","Comedy"],"eDate":"2024-03-18","eName":"Espy Comedy Club","genre":null,"price":"Free","supports":[],"ticketUrl":null,"time":" 7pm"}],"vName":"Hotel Esplanade (aka The Espy)"},"type":"Feature"},{"geometry":{"coordinates":[144.96741062735794,-37.82454855],"type":"Point"},"properties":{"events":[{"categories":["Music"],"eDate":"2024-03-18","eName":"Australian Chamber Orchestra: Beethoven's Emperor","genre":"Classical","price":"$59.00","supports":[],"ticketUrl":null,"time":" 7:30pm"}],"vName":"Melbourne Recital Centre"},"type":"Feature"},{"geometry":{"coordinates":[145.1538674,-37.7277749],"type":"Point"},"properties":{"events":[{"categories":["Theatre","Other \"Film\""],"eDate":"2024-03-18","eName":"Incognita@Montsalvat: Hagen Technique Intensive","genre":null,"price":"$30.00 - 290.00","supports":[],"ticketUrl":null,"time":" 7pm"}],"vName":"Montsalvat Arts Centre"},"type":"Feature"},{"geometry":{"coordinates":[144.998414,-37.771471],"type":"Point"},"properties":{"events":[{"categories":["Free","Music"],"eDate":"2024-03-18","eName":"Social Sanctuary: Foggy Notion + Matt Bourke & The Delusional Drunks + The Noise","genre":"Country/Folk","price":"Free","supports":[],"ticketUrl":null,"time":" 7pm"}],"vName":"Northcote Social Club"},"type":"Feature"}],"type":"FeatureCollection"}