{"features":[{"geometry":{"coordinates":[144.9500257,-37.8032773],"type":"Point"},"properties":{"events":[{"categories":["Free","Art"],"eDate":"2024-03-09","eName":"ನಿರೀಕ್ಷಣೆ nireekshane","genre":null,"price":"Free","supports":[],"ticketUrl":null,"time":"11am"}],"vName":"Arts House"},"type":"Feature"},{"geometry":{"coordinates":[144.9763781,-37.7983136],"type":"Point"},"properties":{"events":[{"categories":["Music"],"eDate":"2024-03-09","eName":"7 Pound Halo","genre":null,"price":"$16.53","supports":["Crushed Lavender"," The Subordinates"," Ambulance"],"ticketUrl":null,"time":" 8:30pm"}],"vName":"Bad Decisions Bar"},"type":"Feature"},{"geometry":{"coordinates":[144.99828116650363,-37.7713296],"type":"Point"},"properties":{"events":[{"categories":["Free","Music"],"eDate":"2024-03-09","eName":"Rudi Sound presents Rudi Soundsystem","genre":null,"price":"Free","supports":["Bronx"],"ticketUrl":null,"time":" 8pm"}],"vName":"Bar 303"},"type":"Feature"},{"geometry":{"coordinates":[144.9713425,-37.8128595],"type":"Point"},"properties":{"events":[{"categories":["Music"],"eDate":"2024-03-09","eName":"The Kittyhawks","genre":"Punk","price":"$22.59","supports":["The PirateSka Rebellion"," The Resignators"," Sanny Veloo"],"ticketUrl":null,"time":" 8pm"}],"vName":"Cherry Bar"},"type":"Feature"},{"geometry":{"coordinates":[144.99266639479475,-37.82488935],"type":"Point"},"properties":{"events":[{"categories":["Music"],"eDate":"2024-03-09","eName":"1927 + Boom Crash Opera","genre":"Rock","price":"$59.00","supports":[],"ticketUrl":null,"time":" 8:30pm"}],"vName":"Corner Hotel"},"type":"Feature"},{"geometry":{"coordinates":[144.9745581,-37.7694446],"type":"Point"},"properties":{"events":[{"categories":["Music"],"eDate":"2024-03-09","eName":"BMF 2024 presents Scott Tinkler & The Antripodean Collective","genre":null,"price":"$10.00","supports":[],"ticketUrl":null,"time":" 8pm"}],"vName":"Cross Street Music Hall"},"type":"Feature"},{"geometry":{"coordinates":[144.9628440552175,-37.76100605],"type":"Point"},"properties":{"events":[{"categories":["Music"],"eDate":"2024-03-09","eName":"Superstar DJ's: DJ Tone Deaf","genre":"Electronic","price":"Free","supports":[],"ticketUrl":null,"time":" 9pm"}],"vName":"Edinburgh Castle Hotel"},"type":"Feature"},{"geometry":{"coordinates":[144.9679835243618,-37.8201575],"type":"Point"},"properties":{"events":[{"categories":["Music"],"eDate":"2024-03-09","eName":"Hopelessly Devoted: A Celebration of Olivia Newton-John (Matinee)","genre":"Pop","price":"$81.00","supports":[],"ticketUrl":null,"time":" 1pm"},{"categories":["Music"],"eDate":"2024-03-09","eName":"Hopelessly Devoted: A Celebration of Olivia Newton-John","genre":"Pop","price":"$81.00","supports":[],"ticketUrl":null,"time":" 7:30pm"}],"vName":"Hamer Hall (Arts Centre Melbourne)"},"type":"Feature"},{"geometry":{"coordinates":[144.9596527,-37.7720304],"type":"Point"},"properties":{"events":[{"categories":["Music"],"eDate":"2024-03-09","eName":"Deadly Dancehall (Tovch 6th Bday)","genre":"Hip Hop","price":"$23.46","supports":["Shottaz"],"ticketUrl":null,"time":" 4:20pm"}],"vName":"Howler"},"type":"Feature"},{"geometry":{"coordinates":[144.9764962,-37.7983139],"type":"Point"},"properties":{"events":[{"categories":["Music"],"eDate":"2024-03-09","eName":"LAUNDRY Saturdays","genre":null,"price":"$16.53","supports":[],"ticketUrl":null,"time":"10pm"}],"vName":"Laundry Bar"},"type":"Feature"},{"geometry":{"coordinates":[144.8971518,-37.8054274],"type":"Point"},"properties":{"events":[{"categories":["Free","Music"],"eDate":"2024-03-09","eName":"Noah & The Coldmen","genre":null,"price":"Free","supports":["Bowlos"," Maïa Mattisse"],"ticketUrl":null,"time":" 7pm"},{"categories":["Free","Music"],"eDate":"2024-03-09","eName":"Noah & The Coldmen","genre":null,"price":"Free","supports":["Bowlos"," Maïa Mattisse"],"ticketUrl":null,"time":" 7pm"}],"vName":"Mamma Chen's"},"type":"Feature"},{"geometry":{"coordinates":[144.9633226,-37.8090286],"type":"Point"},"properties":{"events":[{"categories":["Music"],"eDate":"2024-03-09","eName":"ABSORB(ED) III","genre":null,"price":"$35.00 - 60.00","supports":[],"ticketUrl":null,"time":"12pm"}],"vName":"Miscellania"},"type":"Feature"},{"geometry":{"coordinates":[145.4129639,-37.6917258],"type":"Point"},"properties":{"events":[{"categories":["Festival","Other \"Food & Drink\""],"eDate":"2024-03-09","eName":"Napoleone Cider Festival 2024","genre":"Global","price":"$10.00","supports":[],"ticketUrl":null,"time":"11am"}],"vName":"Napoleone Cider"},"type":"Feature"},{"geometry":{"coordinates":[144.97711,-37.79833],"type":"Point"},"properties":{"events":[{"categories":["Free","Music"],"eDate":"2024-03-09","eName":"Runners & The Young","genre":"Country/Folk","price":"Free","supports":[],"ticketUrl":null,"time":" 3pm"}],"vName":"Old Bar"},"type":"Feature"},{"geometry":{"coordinates":[144.9631913,-37.7617818],"type":"Point"},"properties":{"events":[{"categories":["Music"],"eDate":"2024-03-09","eName":"All the Way Live","genre":"Hip Hop","price":"$15.00","supports":[],"ticketUrl":null,"time":" 8pm"}],"vName":"Ringo Barr"},"type":"Feature"},{"geometry":{"coordinates":[144.965405,-37.8117457],"type":"Point"},"properties":{"events":[{"categories":["Free","Music"],"eDate":"2024-03-09","eName":"Groove Voyage","genre":"Electronic","price":"Free","supports":["Mabel"," Genki Tanaka"," Lay Down The Groove"],"ticketUrl":null,"time":" 6pm"}],"vName":"Section 8"},"type":"Feature"},{"geometry":{"coordinates":[144.9746525926778,-37.823819181966286],"type":"Point"},"properties":{"events":[{"categories":["Music"],"eDate":"2024-03-09","eName":"BJORN AGAIN: Reliving ABBA At The Bowl in 1977","genre":"Pop","price":"$69.90","supports":[],"ticketUrl":null,"time":" 5:30pm"}],"vName":"Sidney Myer Music Bowl"},"type":"Feature"},{"geometry":{"coordinates":[144.9706095,-37.7783326],"type":"Point"},"properties":{"events":[{"categories":["Free","Music"],"eDate":"2024-03-09","eName":"Pretty Moi","genre":"Rock","price":"Free","supports":["Echo Social Club"," Peach Fuzz"],"ticketUrl":null,"time":" 9pm"}],"vName":"The Beast"},"type":"Feature"},{"geometry":{"coordinates":[144.97515565,-37.805788500000006],"type":"Point"},"properties":{"events":[{"categories":["Music"],"eDate":"2024-03-09","eName":"The Holy Soul","genre":"Rock","price":"$21.43","supports":["Lo Carmen"," Mickelson"," Claire Birchall"],"ticketUrl":null,"time":" 7:30pm"}],"vName":"The Catfish"},"type":"Feature"},{"geometry":{"coordinates":[144.9651425,-37.8119429],"type":"Point"},"properties":{"events":[{"categories":["Music"],"eDate":"2024-03-09","eName":"Butceo: André Lima Band","genre":"Global","price":"$17.34 - 28.56","supports":["Lorena Lee"," Jhonny Bunny"," Lixxxtrado"],"ticketUrl":null,"time":" 9pm"}],"vName":"The Toff In Town"},"type":"Feature"},{"geometry":{"coordinates":[144.9983987,-37.7729204],"type":"Point"},"properties":{"events":[{"categories":["Music","Comedy"],"eDate":"2024-03-09","eName":"Mic Conway","genre":"Country/Folk","price":"$28.60","supports":["Gleny Rae Virus"],"ticketUrl":null,"time":" 8pm"}],"vName":"Wesley Anne"},"type":"Feature"},{"geometry":{"coordinates":[144.9618426,-37.8125531],"type":"Point"},"properties":{"events":[{"categories":["Free","Music","Other \"Food & Drink\""],"eDate":"2024-03-09","eName":"Mondo Ritmo presents Pleasure Voyage","genre":null,"price":"Free","supports":[],"ticketUrl":null,"time":" 4pm"}],"vName":"Whitehart Bar"},"type":"Feature"}],"type":"FeatureCollection"}