{"features":[{"geometry":{"coordinates":[144.9679835243618,-37.8201575],"type":"Point"},"properties":{"events":[{"categories":["Comedy"],"eDate":"2024-04-15","eName":"Deadly Funny National Grand Final","genre":null,"price":"$18.00 - 30.00","supports":[],"ticketUrl":null,"time":" 7pm"}],"vName":"Arts Centre Melbourne"},"type":"Feature"},{"geometry":{"coordinates":[144.9500257,-37.8032773],"type":"Point"},"properties":{"events":[{"categories":["Free","Art"],"eDate":"2024-04-15","eName":"ನಿರೀಕ್ಷಣೆ nireekshane","genre":null,"price":"Free","supports":[],"ticketUrl":null,"time":"10am"},{"categories":["Free","Art"],"eDate":"2024-04-15","eName":"ಒಡಲಾಳ Odalala","genre":null,"price":"Free","supports":[],"ticketUrl":null,"time":"10am"}],"vName":"Arts House"},"type":"Feature"},{"geometry":{"coordinates":[144.9712728,-37.8117601],"type":"Point"},"properties":{"events":[{"categories":["Festival","Comedy","Theatre"],"eDate":"2024-04-15","eName":"Damien Vosk - Woo Woo: A Sketch Comedy","genre":null,"price":"$15.00 - 25.00","supports":[],"ticketUrl":null,"time":" 9:15pm"}],"vName":"Bard's Apothecary"},"type":"Feature"},{"geometry":{"coordinates":[144.9679835243618,-37.8201575],"type":"Point"},"properties":{"events":[{"categories":["Music"],"eDate":"2024-04-15","eName":"Nina Ferro: A Century of Women in Song (Morning Session)","genre":"Blues","price":"$20.00 - 33.00","supports":[],"ticketUrl":null,"time":"11am"},{"categories":["Music"],"eDate":"2024-04-15","eName":"Nina Ferro: A Century of Women in Song","genre":"Blues","price":"$20.00 - 33.00","supports":[],"ticketUrl":null,"time":" 1:30pm"},{"categories":["Music"],"eDate":"2024-04-15","eName":"Melbourne Symphony Orchestra presents Bernstein, Gershwin & Chindamo","genre":"Classical","price":"$62.00","supports":[],"ticketUrl":null,"time":" 6:30pm"}],"vName":"Hamer Hall (Arts Centre Melbourne)"},"type":"Feature"},{"geometry":{"coordinates":[144.9712356,-37.812902],"type":"Point"},"properties":{"events":[{"categories":["Comedy"],"eDate":"2024-04-15","eName":"Lehmo: Camper Van Go","genre":null,"price":"$28.00 - 35.50","supports":[],"ticketUrl":null,"time":" 8:15pm"}],"vName":"Morris House"},"type":"Feature"},{"geometry":{"coordinates":[144.998414,-37.771471],"type":"Point"},"properties":{"events":[{"categories":["Free","Music"],"eDate":"2024-04-15","eName":"Social Sanctuary: Aquatico + Face Face + Prokop","genre":"Punk","price":"Free","supports":[],"ticketUrl":null,"time":" 7pm"}],"vName":"Northcote Social Club"},"type":"Feature"}],"type":"FeatureCollection"}