{"features":[{"geometry":{"coordinates":[144.99828116650363,-37.7713296],"type":"Point"},"properties":{"events":[{"categories":["Free","Music"],"eDate":"2023-12-23","eName":"Pinko Collective","genre":"Jazz","price":"Free","supports":[],"ticketUrl":null,"time":" 3:30pm"},{"categories":["Music"],"eDate":"2023-12-23","eName":"HOMEBASS presents TOR","genre":"Electronic","price":"$28.04","supports":["The Oddness"," Kodiak Kid"," Old China"],"ticketUrl":null,"time":" 8pm"}],"vName":"Bar 303"},"type":"Feature"},{"geometry":{"coordinates":[144.978425,-37.79773],"type":"Point"},"properties":{"events":[{"categories":["Free","Music","Other \"Cabaret\""],"eDate":"2023-12-23","eName":"Dilapidated Diva","genre":"Jazz","price":"Free","supports":[],"ticketUrl":null,"time":" 8pm"},{"categories":["Music"],"eDate":"2023-12-23","eName":"Slow Grinding Through The Decades 1923 - 2023","genre":"Soul/Funk","price":"$15.00","supports":[],"ticketUrl":null,"time":" 9pm"}],"vName":"Bar Open"},"type":"Feature"},{"geometry":{"coordinates":[144.9607158,-37.776327],"type":"Point"},"properties":{"events":[{"categories":["Music"],"eDate":"2023-12-23","eName":"Munted Chunt's Annual Holiday Special: A Very Munted Chuntmas!","genre":"Punk","price":"$16.85","supports":["Rattleback"," Replacement Busses"," The Rartel"," Heterophobes"],"ticketUrl":null,"time":" 7pm"}],"vName":"Bergy Bandroom"},"type":"Feature"},{"geometry":{"coordinates":[144.9617018,-37.7704566],"type":"Point"},"properties":{"events":[{"categories":["Music"],"eDate":"2023-12-23","eName":"Rhonda Burchmore & The Jack Earle Big Band: A Red Hot Swingin' Christmas","genre":"Jazz","price":"$54.67","supports":[],"ticketUrl":null,"time":" 8pm"}],"vName":"Brunswick Ballroom"},"type":"Feature"},{"geometry":{"coordinates":[144.9713425,-37.8128595],"type":"Point"},"properties":{"events":[{"categories":["Music"],"eDate":"2023-12-23","eName":"La Furia","genre":"Rock","price":"$27.70","supports":[],"ticketUrl":null,"time":" 8pm"}],"vName":"Cherry Bar"},"type":"Feature"},{"geometry":{"coordinates":[144.99266639479475,-37.82488935],"type":"Point"},"properties":{"events":[{"categories":["Music"],"eDate":"2023-12-23","eName":"Dan & Al","genre":"Global","price":"$39.90","supports":["more"],"ticketUrl":null,"time":" 8pm"}],"vName":"Corner Hotel"},"type":"Feature"},{"geometry":{"coordinates":[144.9875917,-37.7963837],"type":"Point"},"properties":{"events":[{"categories":["Free","Music"],"eDate":"2023-12-23","eName":"The Gem All Stars Christmas Special","genre":null,"price":"Free","supports":[],"ticketUrl":null,"time":" 6pm"}],"vName":"Gem Bar"},"type":"Feature"},{"geometry":{"coordinates":[144.9679835243618,-37.8201575],"type":"Point"},"properties":{"events":[{"categories":["Music"],"eDate":"2023-12-23","eName":"Love Actually in Concert (Matinee Session)","genre":"Classical","price":"$60.05","supports":[],"ticketUrl":null,"time":" 3:30pm"},{"categories":["Music"],"eDate":"2023-12-23","eName":"Love Actually in Concert","genre":"Classical","price":"$60.05","supports":[],"ticketUrl":null,"time":" 7:30pm"}],"vName":"Hamer Hall (Arts Centre Melbourne)"},"type":"Feature"},{"geometry":{"coordinates":[144.9764962,-37.7983139],"type":"Point"},"properties":{"events":[{"categories":["Music"],"eDate":"2023-12-23","eName":"On Repeat: Playboi Carti","genre":"Hip Hop","price":"$12.00","supports":[],"ticketUrl":null,"time":"10pm"}],"vName":"Laundry Bar"},"type":"Feature"},{"geometry":{"coordinates":[144.8971518,-37.8054274],"type":"Point"},"properties":{"events":[{"categories":["Free","Music"],"eDate":"2023-12-23","eName":"Mamma Chen's Last Gig Of The Year!","genre":null,"price":"Free","supports":[],"ticketUrl":null,"time":" 4pm"}],"vName":"Mamma Chen's"},"type":"Feature"},{"geometry":{"coordinates":[144.9712356,-37.812902],"type":"Point"},"properties":{"events":[{"categories":["Comedy"],"eDate":"2023-12-23","eName":"Basement Comedy Club Saturdays","genre":null,"price":"$22.00","supports":["more"],"ticketUrl":null,"time":" 8pm"}],"vName":"Morris House"},"type":"Feature"},{"geometry":{"coordinates":[144.965405,-37.8117457],"type":"Point"},"properties":{"events":[{"categories":["Free","Music"],"eDate":"2023-12-23","eName":"Haus of Funk","genre":"Soul/Funk","price":"Free","supports":[],"ticketUrl":null,"time":" 6pm"}],"vName":"Section 8"},"type":"Feature"},{"geometry":{"coordinates":[144.9746525926778,-37.823819181966286],"type":"Point"},"properties":{"events":[{"categories":["Music","Theatre"],"eDate":"2023-12-23","eName":"Vision Australia's Carols by Candlelight (Rehearsal)","genre":null,"price":"$32.40 - 47.85","supports":[],"ticketUrl":null,"time":" 4pm"}],"vName":"Sidney Myer Music Bowl"},"type":"Feature"},{"geometry":{"coordinates":[144.9706095,-37.7783326],"type":"Point"},"properties":{"events":[{"categories":["Free","Music"],"eDate":"2023-12-23","eName":"Hoodoo Mayhem: Christmas Chaos","genre":"Jazz","price":"Free","supports":[],"ticketUrl":null,"time":"10pm"}],"vName":"The Beast"},"type":"Feature"},{"geometry":{"coordinates":[144.9657057,-37.8061581],"type":"Point"},"properties":{"events":[{"categories":["Music"],"eDate":"2023-12-23","eName":"The Slingers: Slingle Bells Xmas Show","genre":"Rock","price":"$29.99","supports":["Tamara & The Dreams"," Milly Strange"],"ticketUrl":null,"time":" 8:30pm"}],"vName":"The Curtin"},"type":"Feature"},{"geometry":{"coordinates":[144.9846126,-37.7989941],"type":"Point"},"properties":{"events":[{"categories":["Free","Music"],"eDate":"2023-12-23","eName":"Squeaksons Greetings with Roddy & The Rodents","genre":"Rock","price":"Free","supports":["Dirty Harriet"],"ticketUrl":null,"time":" 3pm"},{"categories":["Music"],"eDate":"2023-12-23","eName":"NembutoliK","genre":"Metal","price":"$23.50","supports":["Nothing"," Threat"," Nebulam"],"ticketUrl":null,"time":" 8pm"},{"categories":["Music"],"eDate":"2023-12-23","eName":"Free Palestine Fundraiser Concert","genre":"Rock","price":"$23.50","supports":[],"ticketUrl":null,"time":" 8:30pm"}],"vName":"The Tote Hotel"},"type":"Feature"},{"geometry":{"coordinates":[144.9769450659087,-37.8055776],"type":"Point"},"properties":{"events":[{"categories":["Music"],"eDate":"2023-12-23","eName":"SEND OFF 2023!","genre":null,"price":"$25.00","supports":["Open Kamodo"," Supermodels"," Zen Monkee"," The Danger Dolphins"],"ticketUrl":null,"time":" 7pm"}],"vName":"The Workers Club"},"type":"Feature"},{"geometry":{"coordinates":[144.9618426,-37.8125531],"type":"Point"},"properties":{"events":[{"categories":["Free","Music","Other \"Food & Drink\""],"eDate":"2023-12-23","eName":"Delight Records","genre":"Electronic","price":"Free","supports":[],"ticketUrl":null,"time":" 5pm"}],"vName":"Whitehart Bar"},"type":"Feature"},{"geometry":{"coordinates":[144.9827552,-37.8041303],"type":"Point"},"properties":{"events":[{"categories":["Music"],"eDate":"2023-12-23","eName":"Exiles","genre":"Rock","price":"$15.00","supports":[],"ticketUrl":null,"time":" 9pm"}],"vName":"Yah Yah's"},"type":"Feature"}],"type":"FeatureCollection"}