{"features":[{"geometry":{"coordinates":[145.0048929,-37.8035316],"type":"Point"},"properties":{"events":[{"categories":["Music"],"eDate":"2025-11-29","eName":"Harmonies Du Soir: Festival of French Chamber Music – Versailles – Centre Pompidou – Notre-Dame","genre":"Classical","price":"$40.00","supports":[],"ticketUrl":null,"time":" 1pm"}],"vName":"Abbotsford Convent"},"type":"Feature"},{"geometry":{"coordinates":[144.9982812,-37.7713296],"type":"Point"},"properties":{"events":[{"categories":["Music"],"eDate":"2025-11-29","eName":"The Dozeytones","genre":"Jazz","price":"Free","supports":[],"ticketUrl":null,"time":" 6pm"},{"categories":["Free","Music"],"eDate":"2025-11-29","eName":"Homebass","genre":"Electronic","price":"Free","supports":[],"ticketUrl":null,"time":" 8:30pm"}],"vName":"Bar 303"},"type":"Feature"},{"geometry":{"coordinates":[144.978682,-37.7981225],"type":"Point"},"properties":{"events":[{"categories":["Free","Music"],"eDate":"2025-11-29","eName":"Woody Samson","genre":null,"price":"Free","supports":[],"ticketUrl":null,"time":" 9pm"}],"vName":"Baxter's Lot"},"type":"Feature"},{"geometry":{"coordinates":[144.9891167,-37.7996488],"type":"Point"},"properties":{"events":[{"categories":["Music"],"eDate":"2025-11-29","eName":"Odd Man Out + Half Men","genre":"Punk","price":"$37.00","supports":[],"ticketUrl":null,"time":" 8:30pm"}],"vName":"Bendigo Hotel"},"type":"Feature"},{"geometry":{"coordinates":[144.9607158,-37.776327],"type":"Point"},"properties":{"events":[{"categories":["Music"],"eDate":"2025-11-29","eName":"Flitcraft","genre":"Rock","price":"$9.70 - 18.90","supports":["Aardvark"," Cult of the Night"],"ticketUrl":null,"time":" 1pm"},{"categories":["Music"],"eDate":"2025-11-29","eName":"Divebar Youth","genre":"Indie","price":"$25.00","supports":[],"ticketUrl":null,"time":" 8pm"}],"vName":"Bergy Bandroom"},"type":"Feature"},{"geometry":{"coordinates":[144.9617083,-37.7704205],"type":"Point"},"properties":{"events":[{"categories":["Music"],"eDate":"2025-11-29","eName":"Mikki’s Place: Legends Vol 3 Live","genre":"Hip Hop","price":"$28.15 - 43.96","supports":["Maloney"," Mikki & The Band"],"ticketUrl":null,"time":" 8:30pm"}],"vName":"Brunswick Ballroom"},"type":"Feature"},{"geometry":{"coordinates":[144.9614487,-37.7701405],"type":"Point"},"properties":{"events":[{"categories":["Music"],"eDate":"2025-11-29","eName":"Elsen","genre":"Indie","price":"$15.00","supports":["Lottie Davitt"," Ali Harman"],"ticketUrl":null,"time":" 3pm"}],"vName":"Brunswick Green"},"type":"Feature"},{"geometry":{"coordinates":[145.0004166,-37.7612582],"type":"Point"},"properties":{"events":[{"categories":["Music"],"eDate":"2025-11-29","eName":"Stupid Fuck The Silly Clown","genre":null,"price":"$15.00","supports":["Ebi Nori & The Phantom Fingers"," Trap Card"],"ticketUrl":null,"time":" 8pm"}],"vName":"Cactus Room"},"type":"Feature"},{"geometry":{"coordinates":[145.0002585,-37.7592368],"type":"Point"},"properties":{"events":[{"categories":["Music"],"eDate":"2025-11-29","eName":"Naarm Frontline Medics Fundraiser","genre":null,"price":"$10.00","supports":["Skink Tank"," The Pass"],"ticketUrl":null,"time":" 8pm"}],"vName":"Cafe Gummo"},"type":"Feature"},{"geometry":{"coordinates":[144.9713425,-37.8128595],"type":"Point"},"properties":{"events":[{"categories":["Music"],"eDate":"2025-11-29","eName":"Better Than Wizards","genre":"Rock","price":"$15.43","supports":["Please People"," Dërty Bërd"],"ticketUrl":null,"time":" 8pm"}],"vName":"Cherry Bar"},"type":"Feature"},{"geometry":{"coordinates":[144.9926664,-37.8248893],"type":"Point"},"properties":{"events":[{"categories":["Music"],"eDate":"2025-11-29","eName":"Groove Tunes with Dean Brady","genre":"R&B","price":"$24.00 - 40.40","supports":["Velvet Bloom"," Dani Enli"," Bel Kil"],"ticketUrl":null,"time":" 6:30pm"}],"vName":"Corner Hotel"},"type":"Feature"},{"geometry":{"coordinates":[144.9784379,-37.7975956],"type":"Point"},"properties":{"events":[{"categories":["Free","Music","Other \"Dance \""],"eDate":"2025-11-29","eName":"Banjzig","genre":null,"price":"Free","supports":["Trash & The Treasures"," The Britannia Morris"],"ticketUrl":null,"time":" 1pm"}],"vName":"Creatures of Habit Bar & Bandroom"},"type":"Feature"},{"geometry":{"coordinates":[144.9627513,-37.760963],"type":"Point"},"properties":{"events":[{"categories":["Music"],"eDate":"2025-11-29","eName":"Ania Reynolds","genre":"Jazz","price":"Free","supports":[],"ticketUrl":null,"time":" 8pm"}],"vName":"Edinburgh Castle Hotel"},"type":"Feature"},{"geometry":{"coordinates":[144.9489214,-37.8106039],"type":"Point"},"properties":{"events":[{"categories":["Music"],"eDate":"2025-11-29","eName":"Ehab Tawfik","genre":"Pop","price":"$224.18","supports":[],"ticketUrl":null,"time":" 6:30pm"}],"vName":"Festival Hall"},"type":"Feature"},{"geometry":{"coordinates":[144.9777885,-37.8597831],"type":"Point"},"properties":{"events":[{"categories":["Music"],"eDate":"2025-11-29","eName":"Rodney Guzman","genre":"Acoustic","price":"Free","supports":[],"ticketUrl":null,"time":"11am"},{"categories":["Music"],"eDate":"2025-11-29","eName":"Mixed Tape","genre":"Indie","price":"Free","supports":[],"ticketUrl":null,"time":" 8pm"}],"vName":"Freddie Wimpoles"},"type":"Feature"},{"geometry":{"coordinates":[144.9875792,-37.7963739],"type":"Point"},"properties":{"events":[{"categories":["Music"],"eDate":"2025-11-29","eName":"The Bitter Darlings","genre":"Country/Folk","price":"$13.00","supports":["Doberwomann"],"ticketUrl":null,"time":" 8:30pm"}],"vName":"Gem Bar"},"type":"Feature"},{"geometry":{"coordinates":[144.9787378,-37.7954205],"type":"Point"},"properties":{"events":[{"categories":["Music"],"eDate":"2025-11-29","eName":"Gaskin","genre":"Electronic","price":"$22.09 - 43.62","supports":[],"ticketUrl":null,"time":" 4pm"}],"vName":"Glamorama"},"type":"Feature"},{"geometry":{"coordinates":[144.9679835,-37.8201575],"type":"Point"},"properties":{"events":[{"categories":["Music"],"eDate":"2025-11-29","eName":"New Worlds: Jaime conducts Cheetham Fraillon & Dvořák","genre":"Classical","price":"$51.00","supports":[],"ticketUrl":null,"time":" 2pm"}],"vName":"Hamer Hall (Arts Centre Melbourne)"},"type":"Feature"},{"geometry":{"coordinates":[144.9596527,-37.7720304],"type":"Point"},"properties":{"events":[{"categories":["Music"],"eDate":"2025-11-29","eName":"Summer Breaks: Krafty Kuts","genre":"Electronic","price":"$40.80","supports":[],"ticketUrl":null,"time":" 7pm"}],"vName":"Howler"},"type":"Feature"},{"geometry":{"coordinates":[144.8984802,-37.8111559],"type":"Point"},"properties":{"events":[{"categories":["Music"],"eDate":"2025-11-29","eName":"The Rebelles: Slay-Belles!","genre":null,"price":"$25.00","supports":["The Lonesome Wranglers"],"ticketUrl":null,"time":" 7pm"}],"vName":"Kindred Bandroom"},"type":"Feature"},{"geometry":{"coordinates":[145.0008148,-37.8107158],"type":"Point"},"properties":{"events":[{"categories":["Music"],"eDate":"2025-11-29","eName":"Burden Man","genre":"Metal","price":"$17.85","supports":["Irreparable"," The Nihilistic Front"," Nighteyes"],"ticketUrl":null,"time":" 7:30pm"}],"vName":"Leadbeater Hotel"},"type":"Feature"},{"geometry":{"coordinates":[144.9658499,-37.8147453],"type":"Point"},"properties":{"events":[{"categories":["Music"],"eDate":"2025-11-29","eName":"Dope D.O.D. + R.A. The Rugged Man","genre":"Hip Hop","price":"$49.00 - 54.10","supports":["Benny Holiday"," DJ Illegal"],"ticketUrl":null,"time":" 7pm"}],"vName":"Max Watt's (Melbourne)"},"type":"Feature"},{"geometry":{"coordinates":[144.9675876,-37.8240849],"type":"Point"},"properties":{"events":[{"categories":["Music"],"eDate":"2025-11-29","eName":"Mande Blues Ensemble & Estudiantina of Melbourne: Streets of Bamako to the ports of Piraeus","genre":"Blues","price":"$45.00","supports":[],"ticketUrl":null,"time":" 7pm"}],"vName":"Melbourne Recital Centre"},"type":"Feature"},{"geometry":{"coordinates":[144.9790251,-37.8675008],"type":"Point"},"properties":{"events":[{"categories":["Music"],"eDate":"2025-11-29","eName":"Rocketman: On Reflection","genre":"Pop","price":"$38.54 - 48.29","supports":[],"ticketUrl":null,"time":" 7pm"}],"vName":"Memo Music Hall"},"type":"Feature"},{"geometry":{"coordinates":[144.9712356,-37.812902],"type":"Point"},"properties":{"events":[{"categories":["Comedy","Other \"Trivia \""],"eDate":"2025-11-29","eName":"The Big Animal Quiz with Kirsty Webeck and Ivan Aristeguieta","genre":null,"price":"$30.50","supports":[],"ticketUrl":null,"time":" 4pm"},{"categories":["Comedy"],"eDate":"2025-11-29","eName":"Lloyd Langford: New Bits","genre":null,"price":"$20.00","supports":[],"ticketUrl":null,"time":" 6pm"},{"categories":["Music"],"eDate":"2025-11-29","eName":"Annie FM","genre":"Electronic","price":"Free","supports":[],"ticketUrl":null,"time":" 7pm"}],"vName":"Morris House"},"type":"Feature"},{"geometry":{"coordinates":[144.998414,-37.771471],"type":"Point"},"properties":{"events":[{"categories":["Music"],"eDate":"2025-11-29","eName":"Khan","genre":"Metal","price":"$34.19","supports":["Myriad Drone"," Skin Thief"],"ticketUrl":null,"time":" 8pm"}],"vName":"Northcote Social Club"},"type":"Feature"},{"geometry":{"coordinates":[144.9982706,-37.7737068],"type":"Point"},"properties":{"events":[{"categories":["Music"],"eDate":"2025-11-29","eName":"Lise & Sarah Present Disco Club: Melbourne","genre":"Electronic","price":"Free","supports":[],"ticketUrl":null,"time":" 6pm"}],"vName":"Northcote Theatre"},"type":"Feature"},{"geometry":{"coordinates":[144.97711,-37.79833],"type":"Point"},"properties":{"events":[{"categories":["Free","Music"],"eDate":"2025-11-29","eName":"Canary Bones","genre":"Punk","price":"Free","supports":["The Pass"," All That’s Left Of You"],"ticketUrl":null,"time":" 3:30pm"},{"categories":["Music"],"eDate":"2025-11-29","eName":"Tench","genre":"Metal","price":"$11.25","supports":["Clotheslined"," Pleasers A.D."],"ticketUrl":null,"time":" 8pm"},{"categories":["Music"],"eDate":"2025-11-29","eName":"DJ Danimal","genre":"Rock","price":"Free","supports":[],"ticketUrl":null,"time":"11:30pm"}],"vName":"Old Bar"},"type":"Feature"},{"geometry":{"coordinates":[144.96084,-37.813514],"type":"Point"},"properties":{"events":[{"categories":["Music"],"eDate":"2025-11-29","eName":"Not So Big Band: An Evening In La La Land with Ava McDermott","genre":"Jazz","price":"$48.00","supports":[],"ticketUrl":null,"time":" 6pm"},{"categories":["Music"],"eDate":"2025-11-29","eName":"Nadira & Friends Present: Songs of Nat King Cole","genre":"Jazz","price":"$45.00","supports":[],"ticketUrl":null,"time":" 6:30pm"},{"categories":["Music"],"eDate":"2025-11-29","eName":"Not So Big Band: An Evening In La La Land with Ava McDermott (Later Session)","genre":"Jazz","price":"$48.00","supports":[],"ticketUrl":null,"time":" 9pm"},{"categories":["Music"],"eDate":"2025-11-29","eName":"Rebecca Mendoza With Mark Fitzgibbon","genre":"Jazz","price":"$45.00","supports":[],"ticketUrl":null,"time":" 9:30pm"}],"vName":"Paris Cat Jazz Club"},"type":"Feature"},{"geometry":{"coordinates":[144.9741326,-37.8619943],"type":"Point"},"properties":{"events":[{"categories":["Music"],"eDate":"2025-11-29","eName":"Everclear","genre":"Rock","price":"Free","supports":[],"ticketUrl":null,"time":" 7pm"}],"vName":"Prince Bandroom"},"type":"Feature"},{"geometry":{"coordinates":[144.9607404,-37.7743469],"type":"Point"},"properties":{"events":[{"categories":["Music"],"eDate":"2025-11-29","eName":"FULLY AMTD 2025","genre":"Punk","price":"$40.78","supports":[],"ticketUrl":null,"time":" 6pm"}],"vName":"Stay Gold"},"type":"Feature"},{"geometry":{"coordinates":[144.32141,-37.38866],"type":"Point"},"properties":{"events":[{"categories":["Free","Music"],"eDate":"2025-11-29","eName":"Izzy Summer","genre":"Acoustic","price":"Free","supports":[],"ticketUrl":null,"time":" 3pm"}],"vName":"The Cosmopolitan Hotel"},"type":"Feature"},{"geometry":{"coordinates":[144.9770425,-37.8588717],"type":"Point"},"properties":{"events":[{"categories":["Music"],"eDate":"2025-11-29","eName":"Joshua Batton","genre":"Acoustic","price":"Free","supports":["DJ Aha"],"ticketUrl":null,"time":" 9pm"}],"vName":"The Fifth Province"},"type":"Feature"},{"geometry":{"coordinates":[144.9463641,-37.8047757],"type":"Point"},"properties":{"events":[{"categories":["Music"],"eDate":"2025-11-29","eName":"Toe To Toe","genre":"Metal","price":"Free","supports":["Grim Reality"," L.O.W"," Backhand"," No Grace"," Rat Bait"," Cutters"],"ticketUrl":null,"time":" 7pm"}],"vName":"The Last Chance Rock & Roll Bar"},"type":"Feature"},{"geometry":{"coordinates":[144.9651425,-37.8119429],"type":"Point"},"properties":{"events":[{"categories":["Music"],"eDate":"2025-11-29","eName":"The Residency Episode 3","genre":"Electronic","price":"$28.56","supports":[],"ticketUrl":null,"time":"10pm"}],"vName":"The Toff In Town"},"type":"Feature"},{"geometry":{"coordinates":[144.9870814,-37.799406],"type":"Point"},"properties":{"events":[{"categories":["Music"],"eDate":"2025-11-29","eName":"The Tote 2 Years Reborn: MOLER + Very Special Guest","genre":null,"price":"Free","supports":[],"ticketUrl":null,"time":" 3pm"}],"vName":"The Tote Hotel"},"type":"Feature"},{"geometry":{"coordinates":[144.9618781,-37.8126316],"type":"Point"},"properties":{"events":[{"categories":["Music"],"eDate":"2025-11-29","eName":"DIJOK + Magnus","genre":"Electronic","price":"Free","supports":["Hdsnjmsjr"],"ticketUrl":null,"time":"12pm"}],"vName":"Whitehart Bar"},"type":"Feature"},{"geometry":{"coordinates":[144.9825847,-37.8051825],"type":"Point"},"properties":{"events":[{"categories":["Music"],"eDate":"2025-11-29","eName":"The Crystal Ship live at Yah Yah’s","genre":null,"price":"$15.00","supports":["Samarah On Skin"],"ticketUrl":null,"time":" 9pm"}],"vName":"Yah Yah's"},"type":"Feature"}],"type":"FeatureCollection"}