{"features":[{"geometry":{"coordinates":[144.9715791,-37.8140656],"type":"Point"},"properties":{"events":[{"categories":["Theatre"],"eDate":"2024-06-13","eName":"The Woman in Black","genre":null,"price":"$55.00 - 129.00","supports":[],"ticketUrl":null,"time":" 7pm"},{"categories":["Theatre"],"eDate":"2024-06-13","eName":"The Woman in Black","genre":null,"price":"$55.00 - 129.00","supports":[],"ticketUrl":null,"time":" 7pm"}],"vName":"Athenaeum Theatre"},"type":"Feature"},{"geometry":{"coordinates":[144.9763781,-37.7983136],"type":"Point"},"properties":{"events":[{"categories":["Music"],"eDate":"2024-06-13","eName":"Battle Of The Bands: Heat 7","genre":null,"price":"$11.36","supports":[],"ticketUrl":null,"time":" 8pm"}],"vName":"Bad Decisions Bar"},"type":"Feature"},{"geometry":{"coordinates":[144.99828116650363,-37.7713296],"type":"Point"},"properties":{"events":[{"categories":["Music"],"eDate":"2024-06-13","eName":"ISEULA","genre":"Soul/Funk","price":"$15.00","supports":["Lheon"],"ticketUrl":null,"time":" 6pm"}],"vName":"Bar 303"},"type":"Feature"},{"geometry":{"coordinates":[144.9607158,-37.776327],"type":"Point"},"properties":{"events":[{"categories":["Music"],"eDate":"2024-06-13","eName":"Windwaker","genre":"Rock","price":"$39.00","supports":["Heartline"," Vermont"],"ticketUrl":null,"time":" 7pm"}],"vName":"Bergy Bandroom"},"type":"Feature"},{"geometry":{"coordinates":[144.9945274,-37.8001115],"type":"Point"},"properties":{"events":[{"categories":["Free","Music","Other \"Food & Drink\""],"eDate":"2024-06-13","eName":"IS - Live at Bodriggy","genre":"Jazz","price":"Free","supports":[],"ticketUrl":null,"time":" 7:30pm"}],"vName":"Bodriggy Brewing Company"},"type":"Feature"},{"geometry":{"coordinates":[144.9617018,-37.7704566],"type":"Point"},"properties":{"events":[{"categories":["Music"],"eDate":"2024-06-13","eName":"Mucho Mambo","genre":"Rock","price":"$43.96","supports":[],"ticketUrl":null,"time":" 8pm"}],"vName":"Brunswick Ballroom"},"type":"Feature"},{"geometry":{"coordinates":[144.959768,-37.831777],"type":"Point"},"properties":{"events":[{"categories":["Music"],"eDate":"2024-06-13","eName":"Mel Searle + John Montesante Quintet","genre":"Jazz","price":"$18.00","supports":[],"ticketUrl":null,"time":" 7pm"}],"vName":"Golden Gate Hotel"},"type":"Feature"},{"geometry":{"coordinates":[145.1496717,-37.7125259],"type":"Point"},"properties":{"events":[{"categories":["Music"],"eDate":"2024-06-13","eName":"Joe Camilleri & The Black Sorrows","genre":"Soul/Funk","price":"$75.00","supports":[],"ticketUrl":null,"time":" 9pm"}],"vName":"Missing Gorilla"},"type":"Feature"},{"geometry":{"coordinates":[144.9605705,-37.8132486],"type":"Point"},"properties":{"events":[{"categories":["Music"],"eDate":"2024-06-13","eName":"Gianni Marinucci's Nonet with Emma Gilmartin","genre":"Jazz","price":"$45.00","supports":[],"ticketUrl":null,"time":" 7pm"}],"vName":"Paris Cat Jazz Club"},"type":"Feature"},{"geometry":{"coordinates":[144.9631913,-37.7617818],"type":"Point"},"properties":{"events":[{"categories":["Free","Music"],"eDate":"2024-06-13","eName":"Open Mic Thursdays @ Ringo Barr","genre":"Acoustic","price":"Free","supports":[],"ticketUrl":null,"time":" 7pm"}],"vName":"Ringo Barr"},"type":"Feature"},{"geometry":{"coordinates":[144.9651425,-37.8119429],"type":"Point"},"properties":{"events":[{"categories":["Free","Music"],"eDate":"2024-06-13","eName":"Jazz & Jaffles: WILL LARSEN QUARTET","genre":"Jazz","price":"Free","supports":[],"ticketUrl":null,"time":" 7:30pm"}],"vName":"The Toff In Town"},"type":"Feature"},{"geometry":{"coordinates":[144.9846126,-37.7989941],"type":"Point"},"properties":{"events":[{"categories":["Music"],"eDate":"2024-06-13","eName":"A Stationary Frame","genre":"Rock","price":"$11.25","supports":["No Wuckas"," Fossa Trance"," Lazerlips"],"ticketUrl":null,"time":" 7pm"}],"vName":"The Tote Hotel"},"type":"Feature"},{"geometry":{"coordinates":[144.9985126,-37.7588241],"type":"Point"},"properties":{"events":[{"categories":["Free","Music"],"eDate":"2024-06-13","eName":"Hume Blues Club","genre":"Blues","price":"Free","supports":["Shake Shack Jammers"],"ticketUrl":null,"time":" 7pm"}],"vName":"Thornbury Bowls Club"},"type":"Feature"},{"geometry":{"coordinates":[144.9618426,-37.8125531],"type":"Point"},"properties":{"events":[{"categories":["Free","Music","Other \"Food & Drink\""],"eDate":"2024-06-13","eName":"Inner Sanctuary: DJ JNETT + Jimmy James","genre":"Electronic","price":"Free","supports":[],"ticketUrl":null,"time":" 3pm"}],"vName":"Whitehart Bar"},"type":"Feature"}],"type":"FeatureCollection"}