{"features":[{"geometry":{"coordinates":[144.968386,-37.81843],"type":"Point"},"properties":{"events":[{"categories":["Music","Comedy"],"eDate":"2025-03-30","eName":"Cameron James: Broken Records","genre":"Indie","price":"$25.00 - 35.00","supports":[],"ticketUrl":null,"time":" 6:30pm"}],"vName":"ACMI"},"type":"Feature"},{"geometry":{"coordinates":[144.9679835243618,-37.8201575],"type":"Point"},"properties":{"events":[{"categories":["Music","Comedy","Other \"Cabaret\""],"eDate":"2025-03-30","eName":"Jude Perl: Jude Perl Tries To Finish A Sentence","genre":"Pop","price":"$32.00 - 35.00","supports":[],"ticketUrl":null,"time":" 5pm"},{"categories":["Comedy","Other \"Cabaret\""],"eDate":"2025-03-30","eName":"The Booth Variety Spectacular & Formal Apology Hour!","genre":null,"price":"$23.00 - 33.00","supports":[],"ticketUrl":null,"time":" 5:15pm"},{"categories":["Music","Comedy"],"eDate":"2025-03-30","eName":"Gillian Cosgriff: Fresh New Worries","genre":"Pop","price":"$30.00 - 39.00","supports":[],"ticketUrl":null,"time":" 6:20pm"},{"categories":["Music","Comedy","Other \"Cabaret\""],"eDate":"2025-03-30","eName":"One Man Musical By Flo & Joan","genre":"Classical","price":"$32.00 - 36.00","supports":[],"ticketUrl":null,"time":" 7pm"},{"categories":["Music","Comedy","Other \"Cabaret\""],"eDate":"2025-03-30","eName":"Ali McGregor's: Late-Nite Variety Nite Night","genre":"Pop","price":"$37.00 - 40.00","supports":[],"ticketUrl":null,"time":" 9pm"}],"vName":"Arts Centre Melbourne"},"type":"Feature"},{"geometry":{"coordinates":[144.96918237308262,-37.817775499999996],"type":"Point"},"properties":{"events":[{"categories":["Comedy"],"eDate":"2025-03-30","eName":"Bron Lewis: Who’s Talking?","genre":null,"price":"$25.00 - 30.00","supports":[],"ticketUrl":null,"time":" 5:15pm"}],"vName":"Beer Deluxe"},"type":"Feature"},{"geometry":{"coordinates":[144.9945274,-37.8001115],"type":"Point"},"properties":{"events":[{"categories":["Festival","Comedy","Other \"Food & Drink\""],"eDate":"2025-03-30","eName":"On The Gags: Melbourne Comedy Festival","genre":null,"price":"$27.00","supports":[],"ticketUrl":null,"time":" 7:30pm"}],"vName":"Bodriggy Brewing Company"},"type":"Feature"},{"geometry":{"coordinates":[145.0006024,-37.8837941],"type":"Point"},"properties":{"events":[{"categories":["Music"],"eDate":"2025-03-30","eName":"Joshua Moshe Trio","genre":"Jazz","price":"$30.00","supports":[],"ticketUrl":null,"time":" 7:30pm"}],"vName":"Classic Southside"},"type":"Feature"},{"geometry":{"coordinates":[144.9659879,-37.8147557],"type":"Point"},"properties":{"events":[{"categories":["Comedy"],"eDate":"2025-03-30","eName":"Melanie Bracewell: A Little Treat","genre":null,"price":"$35.00 - 45.00","supports":[],"ticketUrl":null,"time":" 5:15pm"}],"vName":"Max Watt's (Melbourne)"},"type":"Feature"},{"geometry":{"coordinates":[144.9627231,-37.8073581],"type":"Point"},"properties":{"events":[{"categories":["Comedy"],"eDate":"2025-03-30","eName":"Nazeem Hussain: You Paid For This","genre":null,"price":"$35.00 - 45.00","supports":[],"ticketUrl":null,"time":" 5pm"},{"categories":["Comedy"],"eDate":"2025-03-30","eName":"Tom Cashman: 2 Truths, 1 Lie & 17 Slight Exaggerations","genre":null,"price":"$25.00 - 35.00","supports":[],"ticketUrl":null,"time":" 6:40pm"}],"vName":"Melbourne Town Hall"},"type":"Feature"},{"geometry":{"coordinates":[145.1538674,-37.7277749],"type":"Point"},"properties":{"events":[{"categories":["Music"],"eDate":"2025-03-30","eName":"Wilbur Wilde Blowout","genre":"Jazz","price":"$50.00","supports":[],"ticketUrl":null,"time":" 5pm"}],"vName":"Montsalvat Arts Centre"},"type":"Feature"},{"geometry":{"coordinates":[144.9712356,-37.812902],"type":"Point"},"properties":{"events":[{"categories":["Comedy"],"eDate":"2025-03-30","eName":"Guy Williams: If you midly criticise me I’ll say its cancel culture and turn to the alt right","genre":null,"price":"$25.00 - 35.00","supports":[],"ticketUrl":null,"time":" 7:50pm"}],"vName":"Morris House"},"type":"Feature"},{"geometry":{"coordinates":[144.9988348,-37.8525949],"type":"Point"},"properties":{"events":[{"categories":["Music","Other \"Cabaret\""],"eDate":"2025-03-30","eName":"Silhouette","genre":"Electronic","price":"$60.00","supports":[],"ticketUrl":null,"time":" 7pm"}],"vName":"OneSixOne"},"type":"Feature"},{"geometry":{"coordinates":[144.9769450659087,-37.8055776],"type":"Point"},"properties":{"events":[{"categories":["Music"],"eDate":"2025-03-30","eName":"Luna's Dark Secret","genre":"Rock","price":"$15.00","supports":["The Deadwood Pioneer"," Veiled Arch"],"ticketUrl":null,"time":" 7pm"}],"vName":"The Workers Club"},"type":"Feature"},{"geometry":{"coordinates":[144.996401,-37.800341],"type":"Point"},"properties":{"events":[{"categories":["Free","Music"],"eDate":"2025-03-30","eName":"Tim Woodz","genre":"Country/Folk","price":"Free","supports":[],"ticketUrl":null,"time":" 6pm"}],"vName":"The Yarra Hotel"},"type":"Feature"}],"type":"FeatureCollection"}