{"features":[{"geometry":{"coordinates":[144.978682,-37.7981225],"type":"Point"},"properties":{"events":[{"categories":["Music"],"eDate":"2024-07-21","eName":"Will Prescott","genre":null,"price":"Free","supports":[],"ticketUrl":null,"time":" 9:30pm"}],"vName":"Baxter's Lot"},"type":"Feature"},{"geometry":{"coordinates":[144.9607158,-37.776327],"type":"Point"},"properties":{"events":[{"categories":["Music"],"eDate":"2024-07-21","eName":"Caitlin Min Fa by Emma Boult Studios: Artists Live At The Bergy","genre":"Indie","price":"$19.90","supports":[],"ticketUrl":null,"time":" 2pm"}],"vName":"Bergy Bandroom"},"type":"Feature"},{"geometry":{"coordinates":[144.9945274,-37.8001115],"type":"Point"},"properties":{"events":[{"categories":["Free","Music","Other \"Food & Drink\""],"eDate":"2024-07-21","eName":"Gospel Sundays","genre":null,"price":"Free","supports":["Emma Volard"],"ticketUrl":null,"time":" 3pm"}],"vName":"Bodriggy Brewing Company"},"type":"Feature"},{"geometry":{"coordinates":[144.9617018,-37.7704566],"type":"Point"},"properties":{"events":[{"categories":["Music"],"eDate":"2024-07-21","eName":"Damon Smith & Ezra Lee","genre":"Acoustic","price":"$28.15","supports":[],"ticketUrl":null,"time":" 2pm"}],"vName":"Brunswick Ballroom"},"type":"Feature"},{"geometry":{"coordinates":[144.99266639479475,-37.82488935],"type":"Point"},"properties":{"events":[{"categories":["Music"],"eDate":"2024-07-21","eName":"Bon But Not Forgotten","genre":"Rock","price":"$39.90","supports":["The Midnight Devils"],"ticketUrl":null,"time":" 1pm"}],"vName":"Corner Hotel"},"type":"Feature"},{"geometry":{"coordinates":[144.9875917,-37.7963837],"type":"Point"},"properties":{"events":[{"categories":["Free","Music"],"eDate":"2024-07-21","eName":"Freight + Es Muss Sein","genre":"Rock","price":"Free","supports":[],"ticketUrl":null,"time":" 4pm"}],"vName":"Gem Bar"},"type":"Feature"},{"geometry":{"coordinates":[144.973013,-37.8640582],"type":"Point"},"properties":{"events":[{"categories":["Music"],"eDate":"2024-07-21","eName":"Unsigned FReeZA & Rock Academy Australia Present RAWKUS Live","genre":"Rock","price":"$10.75","supports":[],"ticketUrl":null,"time":" 1pm"},{"categories":["Music"],"eDate":"2024-07-21","eName":"Itchy Fingers","genre":"Rock","price":"Free","supports":[],"ticketUrl":null,"time":" 6pm"}],"vName":"Hotel Esplanade (aka The Espy)"},"type":"Feature"},{"geometry":{"coordinates":[144.9596527,-37.7720304],"type":"Point"},"properties":{"events":[{"categories":["Music"],"eDate":"2024-07-21","eName":"Jerro","genre":"Electronic","price":"$33.61 - 43.81","supports":[],"ticketUrl":null,"time":" 3:30pm"},{"categories":["Music"],"eDate":"2024-07-21","eName":"Purna Rai + Daju Bhai Haru","genre":"Rock","price":"$59.67","supports":[],"ticketUrl":null,"time":" 7pm"}],"vName":"Howler"},"type":"Feature"},{"geometry":{"coordinates":[144.96741062735794,-37.82454855],"type":"Point"},"properties":{"events":[{"categories":["Music"],"eDate":"2024-07-21","eName":"MCO presents Crystalline Voices","genre":"Classical","price":"$70.00","supports":[],"ticketUrl":null,"time":" 2:30pm"}],"vName":"Melbourne Recital Centre"},"type":"Feature"},{"geometry":{"coordinates":[144.9786817,-37.8671902],"type":"Point"},"properties":{"events":[{"categories":["Music"],"eDate":"2024-07-21","eName":"Jack Howard & The Ambassadors Of Love presents Bacharach & Beyond","genre":"Soul/Funk","price":"$30.00 - 50.00","supports":[],"ticketUrl":null,"time":" 3pm"}],"vName":"Memo Music Hall"},"type":"Feature"},{"geometry":{"coordinates":[144.9605705,-37.8132486],"type":"Point"},"properties":{"events":[{"categories":["Music"],"eDate":"2024-07-21","eName":"The Songs Of Blossom Dearie: Presented By Jane Clifton","genre":"Jazz","price":"$40.00","supports":[],"ticketUrl":null,"time":" 6:30pm"}],"vName":"Paris Cat Jazz Club"},"type":"Feature"},{"geometry":{"coordinates":[145.0142411,-37.7310367],"type":"Point"},"properties":{"events":[{"categories":["Free","Music"],"eDate":"2024-07-21","eName":"Sunday Sunset Sessions","genre":"Jazz","price":"Free","supports":[],"ticketUrl":null,"time":" 6pm"}],"vName":"Ragtime Tavern"},"type":"Feature"},{"geometry":{"coordinates":[144.9631913,-37.7617818],"type":"Point"},"properties":{"events":[{"categories":["Music"],"eDate":"2024-07-21","eName":"Hello January","genre":"Soul/Funk","price":"$15.00","supports":["Greta & Shai"],"ticketUrl":null,"time":" 8pm"}],"vName":"Ringo Barr"},"type":"Feature"},{"geometry":{"coordinates":[144.9585654,-37.8059962],"type":"Point"},"properties":{"events":[{"categories":["Music"],"eDate":"2024-07-21","eName":"The Connection Review","genre":null,"price":"$10.00","supports":["Trash & The Treasures"," Banjzig"," Elijah Kelly"],"ticketUrl":null,"time":" 2:30pm"}],"vName":"The Last Chance Rock & Roll Bar"},"type":"Feature"}],"type":"FeatureCollection"}