{"features":[{"geometry":{"coordinates":[144.9679369,-37.8120109],"type":"Point"},"properties":{"events":[{"categories":["Music"],"eDate":"2025-05-30","eName":"Ocean Sleeper","genre":"Metal","price":"$62.22","supports":["Heists"," Point North"," Zero 9:36"],"ticketUrl":null,"time":" 7:30pm"}],"vName":"170 Russell"},"type":"Feature"},{"geometry":{"coordinates":[144.9982812,-37.7713296],"type":"Point"},"properties":{"events":[{"categories":["Music"],"eDate":"2025-05-30","eName":"G Tano + Mount Kujo","genre":"Jazz","price":"Free","supports":[],"ticketUrl":null,"time":" 8pm"}],"vName":"Bar 303"},"type":"Feature"},{"geometry":{"coordinates":[144.978682,-37.7981225],"type":"Point"},"properties":{"events":[{"categories":["Free","Music"],"eDate":"2025-05-30","eName":"Lewis Toms","genre":null,"price":"Free","supports":[],"ticketUrl":null,"time":" 9pm"},{"categories":["Free","Music"],"eDate":"2025-05-30","eName":"DJ Paul Sedrak","genre":null,"price":"Free","supports":[],"ticketUrl":null,"time":"10pm"}],"vName":"Baxter's Lot"},"type":"Feature"},{"geometry":{"coordinates":[144.9891167,-37.7996488],"type":"Point"},"properties":{"events":[{"categories":["Music"],"eDate":"2025-05-30","eName":"Rose Tattoo","genre":"Rock","price":"$45.00","supports":[],"ticketUrl":null,"time":" 8pm"}],"vName":"Bendigo Hotel"},"type":"Feature"},{"geometry":{"coordinates":[144.9607158,-37.776327],"type":"Point"},"properties":{"events":[{"categories":["Music"],"eDate":"2025-05-30","eName":"New Delica","genre":"Rock","price":"$17.35 - 23.50","supports":["The Sundials"," Yours"," Georgina"],"ticketUrl":null,"time":" 8pm"}],"vName":"Bergy Bandroom"},"type":"Feature"},{"geometry":{"coordinates":[144.9568039,-37.8111442],"type":"Point"},"properties":{"events":[{"categories":["Music"],"eDate":"2025-05-30","eName":"Cookin on 3 Burners","genre":"Soul/Funk","price":"$38.00","supports":[],"ticketUrl":null,"time":" 6pm"}],"vName":"Bird's Basement"},"type":"Feature"},{"geometry":{"coordinates":[144.9617083,-37.7704205],"type":"Point"},"properties":{"events":[{"categories":["Music"],"eDate":"2025-05-30","eName":"Ella Hooper","genre":"Rock","price":"$43.96","supports":[],"ticketUrl":null,"time":" 8:30pm"}],"vName":"Brunswick Ballroom"},"type":"Feature"},{"geometry":{"coordinates":[144.9713425,-37.8128595],"type":"Point"},"properties":{"events":[{"categories":["Music"],"eDate":"2025-05-30","eName":"The Heavy Kicks","genre":"Blues","price":"Free","supports":[],"ticketUrl":null,"time":" 8pm"}],"vName":"Cherry Bar"},"type":"Feature"},{"geometry":{"coordinates":[144.9926664,-37.8248893],"type":"Point"},"properties":{"events":[{"categories":["Music"],"eDate":"2025-05-30","eName":"The Beautiful Girls: ‘We’re Already Gone’ 20th Anniversary Tour","genre":"Rock","price":"$59.85","supports":[],"ticketUrl":null,"time":" 8:30pm"}],"vName":"Corner Hotel"},"type":"Feature"},{"geometry":{"coordinates":[144.9787378,-37.7954205],"type":"Point"},"properties":{"events":[{"categories":["Music"],"eDate":"2025-05-30","eName":"Interval: IsGwan + DJ Optimism","genre":"Electronic","price":"$15.00 - 25.00","supports":[],"ticketUrl":null,"time":"10pm"}],"vName":"Glamorama"},"type":"Feature"},{"geometry":{"coordinates":[144.973013,-37.8640582],"type":"Point"},"properties":{"events":[{"categories":["Music"],"eDate":"2025-05-30","eName":"Caisha Sprout","genre":"Blues","price":"$22.95","supports":[],"ticketUrl":null,"time":" 7:30pm"},{"categories":["Music"],"eDate":"2025-05-30","eName":"Reece Mastin + The Wolfe Brothers","genre":"Country/Folk","price":"$53.55","supports":[],"ticketUrl":null,"time":" 7:30pm"}],"vName":"Hotel Esplanade (aka The Espy)"},"type":"Feature"},{"geometry":{"coordinates":[145.0314658,-37.8067273],"type":"Point"},"properties":{"events":[{"categories":["Music"],"eDate":"2025-05-30","eName":"Kew Court House Live: Fem Belling – The Hormesis Project","genre":"Jazz","price":"$20.00","supports":[],"ticketUrl":null,"time":" 7:30pm"}],"vName":"Kew Court House"},"type":"Feature"},{"geometry":{"coordinates":[144.8984802,-37.8111559],"type":"Point"},"properties":{"events":[{"categories":["Music"],"eDate":"2025-05-30","eName":"A Night With LYSSA","genre":null,"price":"$27.50","supports":["Katherine Bruzzese"," Kayla Shaw"],"ticketUrl":null,"time":" 7pm"},{"categories":["Music"],"eDate":"2025-05-30","eName":"A Night With Lyssa","genre":"R&B","price":"$30.00","supports":["Kayla Shaw"," Katherine Bruzzese"],"ticketUrl":null,"time":" 7pm"}],"vName":"Kindred Bandroom"},"type":"Feature"},{"geometry":{"coordinates":[145.0008148,-37.8107158],"type":"Point"},"properties":{"events":[{"categories":["Music"],"eDate":"2025-05-30","eName":"Abramelin","genre":"Metal","price":"$28.60","supports":["Golgothan Remains"," Munitions"," Pulverised Cranial Matter"],"ticketUrl":null,"time":" 8pm"}],"vName":"Leadbeater Hotel"},"type":"Feature"},{"geometry":{"coordinates":[144.9658499,-37.8147453],"type":"Point"},"properties":{"events":[{"categories":["Music","Other \"Dance \""],"eDate":"2025-05-30","eName":"CXNTRY","genre":"Country/Folk","price":"$12.25","supports":[],"ticketUrl":null,"time":" 8pm"}],"vName":"Max Watt's (Melbourne)"},"type":"Feature"},{"geometry":{"coordinates":[144.9790251,-37.8675008],"type":"Point"},"properties":{"events":[{"categories":["Music"],"eDate":"2025-05-30","eName":"Guitar Wars: Returns","genre":"Rock","price":"$35.00 - 50.00","supports":[],"ticketUrl":null,"time":" 7pm"}],"vName":"Memo Music Hall"},"type":"Feature"},{"geometry":{"coordinates":[144.9712356,-37.812902],"type":"Point"},"properties":{"events":[{"categories":["Comedy"],"eDate":"2025-05-30","eName":"Basement Comedy Club","genre":null,"price":"$25.00","supports":[],"ticketUrl":null,"time":" 8pm"}],"vName":"Morris House"},"type":"Feature"},{"geometry":{"coordinates":[144.998414,-37.771471],"type":"Point"},"properties":{"events":[{"categories":["Music"],"eDate":"2025-05-30","eName":"Rich Webb & The Liars","genre":"Country/Folk","price":"$18.40","supports":["Alison Ferrier & The Upshots"," Norwood"],"ticketUrl":null,"time":" 8:30pm"}],"vName":"Northcote Social Club"},"type":"Feature"},{"geometry":{"coordinates":[145.0015248,-37.8258878],"type":"Point"},"properties":{"events":[{"categories":["Music"],"eDate":"2025-05-30","eName":"Surrounded By Sound: INXS","genre":"Rock","price":"$12.25","supports":[],"ticketUrl":null,"time":" 7pm"}],"vName":"Odeon Richmond"},"type":"Feature"},{"geometry":{"coordinates":[144.96084,-37.813514],"type":"Point"},"properties":{"events":[{"categories":["Music"],"eDate":"2025-05-30","eName":"Keeping Up with the Joneses: A Tribute to Thad, Hank, and Elvin Jones","genre":"Jazz","price":"$45.00","supports":[],"ticketUrl":null,"time":" 6pm"},{"categories":["Music"],"eDate":"2025-05-30","eName":"Phoebe Sena Presents Love Deluxe: The Sade Tribute show","genre":"R&B","price":"Free","supports":[],"ticketUrl":null,"time":" 6:30pm"},{"categories":["Music"],"eDate":"2025-05-30","eName":"Ollie Shute Cuban Octet","genre":"Jazz","price":"$45.00","supports":[],"ticketUrl":null,"time":" 9pm"},{"categories":["Music"],"eDate":"2025-05-30","eName":"Craig Smith Quintet plays Billy Joel: In a Jazz State of Mind","genre":"Jazz","price":"$45.00","supports":[],"ticketUrl":null,"time":" 9:30pm"}],"vName":"Paris Cat Jazz Club"},"type":"Feature"},{"geometry":{"coordinates":[144.9741326,-37.8619943],"type":"Point"},"properties":{"events":[{"categories":["Music"],"eDate":"2025-05-30","eName":"Rudeboy Takeover","genre":"Jazz","price":"$30.00 - 35.00","supports":[],"ticketUrl":null,"time":" 8pm"}],"vName":"Prince Bandroom"},"type":"Feature"},{"geometry":{"coordinates":[145.3534507,-37.9100746],"type":"Point"},"properties":{"events":[{"categories":["Music"],"eDate":"2025-05-30","eName":"The Coffins","genre":"Punk","price":"$13.30","supports":["Lost Canoe"," Arrows of Desire"],"ticketUrl":null,"time":" 8pm"},{"categories":["Music"],"eDate":"2025-05-30","eName":"Greenhouse Kollective: Sooki Lounge Takeover","genre":"Electronic","price":"Free","supports":[],"ticketUrl":null,"time":" 8pm"}],"vName":"Sooki Lounge"},"type":"Feature"},{"geometry":{"coordinates":[144.9607404,-37.7743469],"type":"Point"},"properties":{"events":[{"categories":["Music"],"eDate":"2025-05-30","eName":"Mr. McClelland’s Finishing School: 80s Night","genre":"Pop","price":"$20.26","supports":[],"ticketUrl":null,"time":" 9pm"}],"vName":"Stay Gold"},"type":"Feature"},{"geometry":{"coordinates":[144.9657057,-37.8061581],"type":"Point"},"properties":{"events":[{"categories":["Music"],"eDate":"2025-05-30","eName":"Jim E. Brown","genre":"Electronic","price":"$36.55 - 38.70","supports":["Andy Burns"," Spürts"],"ticketUrl":null,"time":" 8pm"}],"vName":"The Curtin"},"type":"Feature"},{"geometry":{"coordinates":[144.9586498,-37.766903],"type":"Point"},"properties":{"events":[{"categories":["Music"],"eDate":"2025-05-30","eName":"The Pearly Shells Swing Orchestra","genre":"Jazz","price":"$35.00 - 40.00","supports":[],"ticketUrl":null,"time":" 8pm"}],"vName":"The Jazzlab"},"type":"Feature"},{"geometry":{"coordinates":[144.9708437,-37.7973184],"type":"Point"},"properties":{"events":[{"categories":["Free","Comedy"],"eDate":"2025-05-30","eName":"Script Jam","genre":null,"price":"Free","supports":[],"ticketUrl":null,"time":" 9:45pm"}],"vName":"The Motley Bauhaus"},"type":"Feature"},{"geometry":{"coordinates":[144.9794553,-37.7982653],"type":"Point"},"properties":{"events":[{"categories":["Music"],"eDate":"2025-05-30","eName":"Slauson Malone 1","genre":"Electronic","price":"$55.05","supports":["Nicky Wetherell"],"ticketUrl":null,"time":" 8pm"}],"vName":"The Night Cat"},"type":"Feature"},{"geometry":{"coordinates":[144.9651425,-37.8119429],"type":"Point"},"properties":{"events":[{"categories":["Free","Music"],"eDate":"2025-05-30","eName":"Beats Without Borders","genre":"Electronic","price":"Free","supports":[],"ticketUrl":null,"time":" 9pm"},{"categories":["Music"],"eDate":"2025-05-30","eName":"Joey Coco: Club Palisades","genre":"Electronic","price":"Free","supports":[],"ticketUrl":null,"time":"11pm"}],"vName":"The Toff In Town"},"type":"Feature"},{"geometry":{"coordinates":[144.9870814,-37.799406],"type":"Point"},"properties":{"events":[{"categories":["Music"],"eDate":"2025-05-30","eName":"Lumens","genre":"Metal","price":"$19.99","supports":[],"ticketUrl":null,"time":" 8:30pm"}],"vName":"The Tote Hotel"},"type":"Feature"}],"type":"FeatureCollection"}