{"features":[{"geometry":{"coordinates":[144.9679369,-37.8120109],"type":"Point"},"properties":{"events":[{"categories":["Music"],"eDate":"2024-06-02","eName":"Roy Woods","genre":"Hip Hop","price":"$69.00","supports":[],"ticketUrl":null,"time":" 7:30pm"}],"vName":"170 Russell"},"type":"Feature"},{"geometry":{"coordinates":[144.9945274,-37.8001115],"type":"Point"},"properties":{"events":[{"categories":["Free","Music","Other \"Food & Drink\""],"eDate":"2024-06-02","eName":"The Tommys","genre":null,"price":"Free","supports":[],"ticketUrl":null,"time":" 4pm"},{"categories":["Free","Music"],"eDate":"2024-06-02","eName":"The Tommys","genre":"Rock","price":"Free","supports":[],"ticketUrl":null,"time":" 4pm"}],"vName":"Bodriggy Brewing Company"},"type":"Feature"},{"geometry":{"coordinates":[144.9248037207342,-37.7656716],"type":"Point"},"properties":{"events":[{"categories":["Free","Trivia"],"eDate":"2024-06-02","eName":"Club Clocktower Trivia Night","genre":null,"price":"Free","supports":[],"ticketUrl":null,"time":" 6pm"}],"vName":"Clocktower Centre"},"type":"Feature"},{"geometry":{"coordinates":[144.9688742,-37.8074223],"type":"Point"},"properties":{"events":[{"categories":["Comedy","Theatre"],"eDate":"2024-06-02","eName":"The Odd Couple","genre":null,"price":"$69.90","supports":["Lucy Durack"," Penny McNamee"],"ticketUrl":null,"time":" 6pm"}],"vName":"Comedy Theatre"},"type":"Feature"},{"geometry":{"coordinates":[144.9745581,-37.7694446],"type":"Point"},"properties":{"events":[{"categories":["Music"],"eDate":"2024-06-02","eName":"The Putbacks","genre":null,"price":"$15.00 - 30.00","supports":["Buttered Loaf"," Mandeng Groove"],"ticketUrl":null,"time":" 3:30pm"}],"vName":"Cross Street Music Hall"},"type":"Feature"},{"geometry":{"coordinates":[144.9687111,-37.7977034],"type":"Point"},"properties":{"events":[{"categories":["Theatre"],"eDate":"2024-06-02","eName":"The Audition","genre":null,"price":"$35.00","supports":[],"ticketUrl":null,"time":" 4pm"}],"vName":"La Mama Theatre"},"type":"Feature"},{"geometry":{"coordinates":[144.8971518,-37.8054274],"type":"Point"},"properties":{"events":[{"categories":["Free","Music"],"eDate":"2024-06-02","eName":"Tom Snibson Band","genre":null,"price":"Free","supports":["Looks Like Rain"],"ticketUrl":null,"time":" 3pm"}],"vName":"Mamma Chen's"},"type":"Feature"},{"geometry":{"coordinates":[144.96741062735794,-37.82454855],"type":"Point"},"properties":{"events":[{"categories":["Music"],"eDate":"2024-06-02","eName":"MCO: Blazing Trails","genre":"Classical","price":"$70.00","supports":[],"ticketUrl":null,"time":" 2:30pm"}],"vName":"Melbourne Recital Centre"},"type":"Feature"},{"geometry":{"coordinates":[145.3553553,-37.9078552],"type":"Point"},"properties":{"events":[{"categories":["Free","Music"],"eDate":"2024-06-02","eName":"Chris Hoffmann","genre":"Acoustic","price":"Free","supports":[],"ticketUrl":null,"time":" 1pm"}],"vName":"Micawber Tavern"},"type":"Feature"},{"geometry":{"coordinates":[144.993413,-37.8506652],"type":"Point"},"properties":{"events":[{"categories":["Music"],"eDate":"2024-06-02","eName":"Thick as Thieves presents Winter Series: The Illustrious Blacks","genre":"Electronic","price":"$27.53 - 42.82","supports":[],"ticketUrl":null,"time":" 7am"}],"vName":"Revolver Upstairs"},"type":"Feature"},{"geometry":{"coordinates":[144.9631913,-37.7617818],"type":"Point"},"properties":{"events":[{"categories":["Free","Music"],"eDate":"2024-06-02","eName":"Wobbygong + Kramas","genre":"Rock","price":"Free","supports":[],"ticketUrl":null,"time":" 8pm"}],"vName":"Ringo Barr"},"type":"Feature"},{"geometry":{"coordinates":[144.9846126,-37.7989941],"type":"Point"},"properties":{"events":[{"categories":["Free","Music"],"eDate":"2024-06-02","eName":"Kier Stevens & Friends","genre":"Country/Folk","price":"Free","supports":[],"ticketUrl":null,"time":" 3pm"},{"categories":["Music"],"eDate":"2024-06-02","eName":"Madigan's Wake","genre":null,"price":"$16.35","supports":["The Dead Peasants"," Vernon Surly"," Samara Cullen"],"ticketUrl":null,"time":" 7pm"}],"vName":"The Tote Hotel"},"type":"Feature"},{"geometry":{"coordinates":[144.9618426,-37.8125531],"type":"Point"},"properties":{"events":[{"categories":["Free","Music"],"eDate":"2024-06-02","eName":"Nightwrk","genre":null,"price":"Free","supports":[],"ticketUrl":null,"time":" 3pm"}],"vName":"Whitehart Bar"},"type":"Feature"}],"type":"FeatureCollection"}