{"features":[{"geometry":{"coordinates":[144.9679835,-37.8201575],"type":"Point"},"properties":{"events":[{"categories":["Other \"Dance \""],"eDate":"2026-06-27","eName":"Punk the beat! Let’s W_ack!: Community Showcase","genre":null,"price":"$20.00","supports":[],"ticketUrl":null,"time":" 3pm"}],"vName":"Arts Centre Melbourne"},"type":"Feature"},{"geometry":{"coordinates":[144.9500257,-37.8032773],"type":"Point"},"properties":{"events":[{"categories":["Free","Theatre","Other \"Art \""],"eDate":"2026-06-27","eName":"a bit thing","genre":null,"price":"Free","supports":[],"ticketUrl":null,"time":"11am"}],"vName":"Arts House"},"type":"Feature"},{"geometry":{"coordinates":[144.9982812,-37.7713296],"type":"Point"},"properties":{"events":[{"categories":["Music"],"eDate":"2026-06-27","eName":"Homebass","genre":"Electronic","price":"Free","supports":[],"ticketUrl":null,"time":" 8pm"}],"vName":"Bar 303"},"type":"Feature"},{"geometry":{"coordinates":[144.978682,-37.7981225],"type":"Point"},"properties":{"events":[{"categories":["Free","Music"],"eDate":"2026-06-27","eName":"Harrisen Hughes","genre":null,"price":"Free","supports":[],"ticketUrl":null,"time":" 9pm"}],"vName":"Baxter's Lot"},"type":"Feature"},{"geometry":{"coordinates":[144.9617083,-37.7704205],"type":"Point"},"properties":{"events":[{"categories":["Music"],"eDate":"2026-06-27","eName":"The Story Of The Clash & The Specials","genre":"Punk","price":"$41.82","supports":[],"ticketUrl":null,"time":" 6:30pm"}],"vName":"Brunswick Ballroom"},"type":"Feature"},{"geometry":{"coordinates":[144.9926664,-37.8248893],"type":"Point"},"properties":{"events":[{"categories":["Music"],"eDate":"2026-06-27","eName":"Go-Jo: The Go-Jo Variety Show","genre":"Pop","price":"$40.40","supports":[],"ticketUrl":null,"time":" 8pm"}],"vName":"Corner Hotel"},"type":"Feature"},{"geometry":{"coordinates":[144.9785611,-37.7965465],"type":"Point"},"properties":{"events":[{"categories":["Music"],"eDate":"2026-06-27","eName":"Ruby Jackson","genre":null,"price":"$35.20","supports":[],"ticketUrl":null,"time":" 8pm"}],"vName":"Evelyn Hotel"},"type":"Feature"},{"geometry":{"coordinates":[145.1232659,-38.1461351],"type":"Point"},"properties":{"events":[{"categories":["Music"],"eDate":"2026-06-27","eName":"Vika & Linda: Where Do You Come From?","genre":"Soul/Funk","price":"$89.00","supports":[],"ticketUrl":null,"time":" 7:30pm"}],"vName":"Frankston Arts Centre"},"type":"Feature"},{"geometry":{"coordinates":[144.9777885,-37.8597831],"type":"Point"},"properties":{"events":[{"categories":["Music"],"eDate":"2026-06-27","eName":"Mixed Tape","genre":"Rock","price":"Free","supports":[],"ticketUrl":null,"time":" 8pm"},{"categories":["Music"],"eDate":"2026-06-27","eName":"DJ George Djay","genre":"Rock","price":"Free","supports":[],"ticketUrl":null,"time":"11pm"}],"vName":"Freddie Wimpoles"},"type":"Feature"},{"geometry":{"coordinates":[144.9679835,-37.8201575],"type":"Point"},"properties":{"events":[{"categories":["Music"],"eDate":"2026-06-27","eName":"A Trip to Vienna (Matinee)","genre":"Classical","price":"$20.00 - 139.00","supports":[],"ticketUrl":null,"time":" 2pm"},{"categories":["Music"],"eDate":"2026-06-27","eName":"Spotlight: Bartók’s Concerto for Orchestra plus Mozart and Strauss","genre":"Classical","price":"$75.00","supports":[],"ticketUrl":null,"time":" 2pm"}],"vName":"Hamer Hall (Arts Centre Melbourne)"},"type":"Feature"},{"geometry":{"coordinates":[144.998414,-37.771471],"type":"Point"},"properties":{"events":[{"categories":["Music"],"eDate":"2026-06-27","eName":"Rum Jungle","genre":null,"price":"$18.40","supports":["The Velvet Club"," Champagnemuma"],"ticketUrl":null,"time":"11pm"}],"vName":"Northcote Social Club"},"type":"Feature"},{"geometry":{"coordinates":[144.97711,-37.79833],"type":"Point"},"properties":{"events":[{"categories":["Music"],"eDate":"2026-06-27","eName":"Lunar Lagoon","genre":null,"price":"$15.00","supports":[],"ticketUrl":null,"time":" 8pm"}],"vName":"Old Bar"},"type":"Feature"},{"geometry":{"coordinates":[144.96084,-37.813514],"type":"Point"},"properties":{"events":[{"categories":["Music"],"eDate":"2026-06-27","eName":"Not So Big Band: The Best of Frank & Ella (with Ben McGill & Ava McDermott)","genre":"Jazz","price":"$48.00","supports":[],"ticketUrl":null,"time":" 6pm"},{"categories":["Music"],"eDate":"2026-06-27","eName":"Lounge of the Flamingo: Paris Wells + Finley François","genre":"Jazz","price":"$45.00","supports":[],"ticketUrl":null,"time":" 6:30pm"},{"categories":["Music"],"eDate":"2026-06-27","eName":"Not So Big Band: The Best of Frank & Ella (with Ben McGill & Ava McDermott) (Later Session)","genre":"Jazz","price":"$48.00","supports":[],"ticketUrl":null,"time":" 9pm"},{"categories":["Music"],"eDate":"2026-06-27","eName":"Jazz Messengers: The Music Of Blue Note with Richard Pavlidis","genre":"Jazz","price":"$48.00","supports":[],"ticketUrl":null,"time":" 9:30pm"}],"vName":"Paris Cat Jazz Club"},"type":"Feature"},{"geometry":{"coordinates":[144.9642692,-37.8159084],"type":"Point"},"properties":{"events":[{"categories":["Markets","Other \"Food \""],"eDate":"2026-06-27","eName":"Queen Vic Market Ultimate Truffle Tour","genre":null,"price":"$0.00 - 119.00","supports":[],"ticketUrl":null,"time":"10am"}],"vName":"Queen Vic Market"},"type":"Feature"},{"geometry":{"coordinates":[145.0142411,-37.7310367],"type":"Point"},"properties":{"events":[{"categories":["Music"],"eDate":"2026-06-27","eName":"River Feet","genre":"Jazz","price":"Free","supports":[],"ticketUrl":null,"time":" 6:30pm"},{"categories":["Music"],"eDate":"2026-06-27","eName":"Beatles Night with Adrian Whitehead","genre":"Rock","price":"Free","supports":[],"ticketUrl":null,"time":" 8pm"}],"vName":"Ragtime Tavern"},"type":"Feature"},{"geometry":{"coordinates":[144.9862196,-37.9091087],"type":"Point"},"properties":{"events":[{"categories":["Music"],"eDate":"2026-06-27","eName":"One Night in Vegas","genre":"Soul/Funk","price":"$60.00","supports":[],"ticketUrl":null,"time":" 8pm"}],"vName":"Royal Brighton Yacht Club"},"type":"Feature"},{"geometry":{"coordinates":[145.0013923,-37.7559265],"type":"Point"},"properties":{"events":[{"categories":["Music"],"eDate":"2026-06-27","eName":"The Earthquakes","genre":"Rock","price":"$15.00 - 20.00","supports":["Plastic Section"," Stu Manchu & The Chosen Few"],"ticketUrl":null,"time":" 8pm"}],"vName":"Shotkickers"},"type":"Feature"},{"geometry":{"coordinates":[144.9770425,-37.8588717],"type":"Point"},"properties":{"events":[{"categories":["Music"],"eDate":"2026-06-27","eName":"Joshua Batten + DJ Aha","genre":null,"price":"Free","supports":[],"ticketUrl":null,"time":" 9pm"}],"vName":"The Fifth Province"},"type":"Feature"},{"geometry":{"coordinates":[144.9720579,-37.8121675],"type":"Point"},"properties":{"events":[{"categories":["Comedy","Theatre"],"eDate":"2026-06-27","eName":"The Remix: Live Improv Comedy From A Guest’s True Stories","genre":null,"price":"$24.00","supports":[],"ticketUrl":null,"time":" 8:15pm"}],"vName":"The Improv Conspiracy"},"type":"Feature"},{"geometry":{"coordinates":[144.9463641,-37.8047757],"type":"Point"},"properties":{"events":[{"categories":["Music"],"eDate":"2026-06-27","eName":"Tongue Scum","genre":"Metal","price":"$16.35","supports":["BLame Your GOds"," Hand of Fear"," Headlopper"],"ticketUrl":null,"time":" 2:30pm"}],"vName":"The Last Chance Rock & Roll Bar"},"type":"Feature"},{"geometry":{"coordinates":[144.9879283,-37.7505509],"type":"Point"},"properties":{"events":[{"categories":["Music"],"eDate":"2026-06-27","eName":"Teresa Duffy-Richards","genre":"Country/Folk","price":"Free","supports":[],"ticketUrl":null,"time":" 7pm"}],"vName":"The Merri Bar"},"type":"Feature"},{"geometry":{"coordinates":[144.9708437,-37.7973184],"type":"Point"},"properties":{"events":[{"categories":["Music","Other \"Cabaret\""],"eDate":"2026-06-27","eName":"Still Classy: Ten Years of A Class Act","genre":"Jazz","price":"$32.92","supports":[],"ticketUrl":null,"time":" 8:30pm"},{"categories":["Other \"Cabaret\""],"eDate":"2026-06-27","eName":"Still Classy: Ten Years of A Class Act","genre":null,"price":"$32.92","supports":[],"ticketUrl":null,"time":" 8:30pm"}],"vName":"The Motley Bauhaus"},"type":"Feature"},{"geometry":{"coordinates":[144.9794553,-37.7982653],"type":"Point"},"properties":{"events":[{"categories":["Music"],"eDate":"2026-06-27","eName":"Don Tetto","genre":null,"price":"$75.37","supports":[],"ticketUrl":null,"time":" 8pm"}],"vName":"The Night Cat"},"type":"Feature"},{"geometry":{"coordinates":[144.9531861,-37.7734411],"type":"Point"},"properties":{"events":[{"categories":["Music"],"eDate":"2026-06-27","eName":"Blue Fur + Signal Chain","genre":"Rock","price":"Free","supports":[],"ticketUrl":null,"time":" 8:30pm"}],"vName":"Union Hotel Brunswick"},"type":"Feature"},{"geometry":{"coordinates":[144.9763814,-37.8607022],"type":"Point"},"properties":{"events":[{"categories":["Theatre"],"eDate":"2026-06-27","eName":"An Act Of God by David Javerbaum","genre":null,"price":"$25.00","supports":[],"ticketUrl":null,"time":" 2pm"}],"vName":"Victorian Pride Centre"},"type":"Feature"},{"geometry":{"coordinates":[144.9984324,-37.7729134],"type":"Point"},"properties":{"events":[{"categories":["Music"],"eDate":"2026-06-27","eName":"Accordion Society Bellows & Bevs","genre":"Acoustic","price":"Free","supports":[],"ticketUrl":null,"time":"12pm"},{"categories":["Music"],"eDate":"2026-06-27","eName":"Spyral","genre":"Jazz","price":"Free","supports":[],"ticketUrl":null,"time":" 6pm"},{"categories":["Music"],"eDate":"2026-06-27","eName":"Hannah Acfield","genre":"Country/Folk","price":"$39.30","supports":[],"ticketUrl":null,"time":" 8pm"}],"vName":"Wesley Anne"},"type":"Feature"}],"type":"FeatureCollection"}