{"features":[{"geometry":{"coordinates":[144.978682,-37.7981225],"type":"Point"},"properties":{"events":[{"categories":["Free","Music"],"eDate":"2026-02-28","eName":"Lewis Toms","genre":null,"price":"Free","supports":[],"ticketUrl":null,"time":" 9pm"}],"vName":"Baxter's Lot"},"type":"Feature"},{"geometry":{"coordinates":[144.9568039,-37.8111442],"type":"Point"},"properties":{"events":[{"categories":["Music"],"eDate":"2026-02-28","eName":"Albare & Joe Chindamo Play Jobim","genre":"Jazz","price":"$45.00","supports":[],"ticketUrl":null,"time":" 6pm"}],"vName":"Bird's Basement"},"type":"Feature"},{"geometry":{"coordinates":[144.9617083,-37.7704205],"type":"Point"},"properties":{"events":[{"categories":["Free","Music"],"eDate":"2026-02-28","eName":"Girl Magic","genre":null,"price":"Free","supports":["Liv & The Dream"," Kaiyah Mercedes"],"ticketUrl":null,"time":" 8:30pm"}],"vName":"Brunswick Artists' Bar"},"type":"Feature"},{"geometry":{"coordinates":[144.9617083,-37.7704205],"type":"Point"},"properties":{"events":[{"categories":["Music","Other \"Cabaret\""],"eDate":"2026-02-28","eName":"The Tiger Lillies","genre":null,"price":"$60.79","supports":[],"ticketUrl":null,"time":" 8:30pm"}],"vName":"Brunswick Ballroom"},"type":"Feature"},{"geometry":{"coordinates":[145.0004166,-37.7612582],"type":"Point"},"properties":{"events":[{"categories":["Music"],"eDate":"2026-02-28","eName":"Jacky Winter","genre":null,"price":"$18.90","supports":["Vessa"," Simon J Karis"," Glyconic"],"ticketUrl":null,"time":" 8pm"}],"vName":"Cactus Room"},"type":"Feature"},{"geometry":{"coordinates":[144.9926664,-37.8248893],"type":"Point"},"properties":{"events":[{"categories":["Music"],"eDate":"2026-02-28","eName":"Stella Donnelly","genre":"Indie","price":"Free","supports":[],"ticketUrl":null,"time":" 8:30pm"}],"vName":"Corner Hotel"},"type":"Feature"},{"geometry":{"coordinates":[144.9627513,-37.760963],"type":"Point"},"properties":{"events":[{"categories":["Free","Music"],"eDate":"2026-02-28","eName":"Steamboat Whistlers","genre":"Jazz","price":"Free","supports":[],"ticketUrl":null,"time":" 8pm"}],"vName":"Edinburgh Castle Hotel"},"type":"Feature"},{"geometry":{"coordinates":[144.9679835,-37.8201575],"type":"Point"},"properties":{"events":[{"categories":["Music","Other \"Film\""],"eDate":"2026-02-28","eName":"Hear My Eyes – Terminator 2: Judgment Day (Matinee Session)","genre":null,"price":"$89.00","supports":[],"ticketUrl":null,"time":" 2pm"},{"categories":["Music","Other \"Film\""],"eDate":"2026-02-28","eName":"Hear My Eyes – Terminator 2: Judgment Day","genre":null,"price":"$89.00","supports":[],"ticketUrl":null,"time":" 6pm"}],"vName":"Hamer Hall (Arts Centre Melbourne)"},"type":"Feature"},{"geometry":{"coordinates":[144.9982706,-37.7737068],"type":"Point"},"properties":{"events":[{"categories":["Music"],"eDate":"2026-02-28","eName":"NTS Naarm 2026","genre":null,"price":"$156.77 - 166.36","supports":[],"ticketUrl":null,"time":" 5pm"}],"vName":"Northcote Theatre"},"type":"Feature"},{"geometry":{"coordinates":[144.97711,-37.79833],"type":"Point"},"properties":{"events":[{"categories":["Music"],"eDate":"2026-02-28","eName":"Polly & The Pockets","genre":"Rock","price":"$17.35","supports":["Frons"," Baglicker"],"ticketUrl":null,"time":" 8pm"},{"categories":["Music"],"eDate":"2026-02-28","eName":"DJ Wolfie","genre":"Rock","price":"Free","supports":[],"ticketUrl":null,"time":"11:30pm"}],"vName":"Old Bar"},"type":"Feature"},{"geometry":{"coordinates":[144.96084,-37.813514],"type":"Point"},"properties":{"events":[{"categories":["Music"],"eDate":"2026-02-28","eName":"A Norah Jones Tribute: Georgie Aué Band","genre":"Jazz","price":"$45.00","supports":[],"ticketUrl":null,"time":" 6pm"},{"categories":["Music"],"eDate":"2026-02-28","eName":"Alanna & Old Hat","genre":"Jazz","price":"$45.00","supports":[],"ticketUrl":null,"time":" 6:30pm"},{"categories":["Music"],"eDate":"2026-02-28","eName":"The Wildest Show @ Paris Cat: Music of Louis Prima with Justin Fermino","genre":"Jazz","price":"$45.00","supports":[],"ticketUrl":null,"time":" 9pm"},{"categories":["Music"],"eDate":"2026-02-28","eName":"Celebrating the King of UK Soul Joe Cocker with Andrew Swann & The Impressionists","genre":"Jazz","price":"$45.00","supports":[],"ticketUrl":null,"time":" 9:30pm"}],"vName":"Paris Cat Jazz Club"},"type":"Feature"},{"geometry":{"coordinates":[145.0013923,-37.7559265],"type":"Point"},"properties":{"events":[{"categories":["Music"],"eDate":"2026-02-28","eName":"Brace","genre":null,"price":"$23.45","supports":["Baby Raptor"," The Mess"],"ticketUrl":null,"time":" 8pm"}],"vName":"Shotkickers"},"type":"Feature"},{"geometry":{"coordinates":[144.9607404,-37.7743469],"type":"Point"},"properties":{"events":[{"categories":["Music"],"eDate":"2026-02-28","eName":"PALEDUSK","genre":"Metal","price":"$54.90","supports":["Peni Parker"," Fallweather"," Deficit"],"ticketUrl":null,"time":" 7pm"}],"vName":"Stay Gold"},"type":"Feature"},{"geometry":{"coordinates":[144.9708437,-37.7973184],"type":"Point"},"properties":{"events":[{"categories":["Music"],"eDate":"2026-02-28","eName":"The Hillbilly Goats Show","genre":"Country/Folk","price":"$25.33","supports":[],"ticketUrl":null,"time":" 7pm"}],"vName":"The Motley Bauhaus"},"type":"Feature"},{"geometry":{"coordinates":[145.1818891,-37.8163371],"type":"Point"},"properties":{"events":[{"categories":["Music","Theatre"],"eDate":"2026-02-28","eName":"Rachael Beck: In Their Own Words","genre":"Pop","price":"$60.00","supports":[],"ticketUrl":null,"time":" 1:30pm"},{"categories":["Music","Theatre"],"eDate":"2026-02-28","eName":"Rachael Beck: In Their Own Words (Matinee Session)","genre":"Pop","price":"$60.00","supports":[],"ticketUrl":null,"time":" 1:30pm"}],"vName":"The Round"},"type":"Feature"},{"geometry":{"coordinates":[144.9870814,-37.799406],"type":"Point"},"properties":{"events":[{"categories":["Music","Free"],"eDate":"2026-02-28","eName":"Sleazetacular 5","genre":"Punk","price":"Free","supports":["Kreep 500"],"ticketUrl":null,"time":" 3pm"},{"categories":["Music"],"eDate":"2026-02-28","eName":"Hannah Kate","genre":"Rock","price":"$20.00 - 25.00","supports":["Bad Bangs"," Hobson’s Bay Coast Guard"," Techno 666"],"ticketUrl":null,"time":" 7pm"},{"categories":["Music"],"eDate":"2026-02-28","eName":"DC Maxwell","genre":"Rock","price":"$16.35","supports":["Hot Glue"," Macrocarpa"],"ticketUrl":null,"time":" 8pm"}],"vName":"The Tote Hotel"},"type":"Feature"},{"geometry":{"coordinates":[144.9984324,-37.7729134],"type":"Point"},"properties":{"events":[{"categories":["Music"],"eDate":"2026-02-28","eName":"Georgia Scarlett","genre":"Country/Folk","price":"$28.30","supports":[],"ticketUrl":null,"time":" 8pm"}],"vName":"Wesley Anne"},"type":"Feature"}],"type":"FeatureCollection"}