{"features":[{"geometry":{"coordinates":[144.978682,-37.7981225],"type":"Point"},"properties":{"events":[{"categories":["Music","Free"],"eDate":"2026-04-22","eName":"Tim Richards: Live & Local","genre":null,"price":"Free","supports":[],"ticketUrl":null,"time":" 9pm"}],"vName":"Baxter's Lot"},"type":"Feature"},{"geometry":{"coordinates":[144.9945274,-37.8001115],"type":"Point"},"properties":{"events":[{"categories":["Free","Music","Other \"Food \""],"eDate":"2026-04-22","eName":"The Cosmic Jams","genre":null,"price":"Free","supports":[],"ticketUrl":null,"time":" 7:30pm"}],"vName":"Bodriggy Brewing Company"},"type":"Feature"},{"geometry":{"coordinates":[144.9617083,-37.7704205],"type":"Point"},"properties":{"events":[{"categories":["Music"],"eDate":"2026-04-22","eName":"the hollows","genre":null,"price":"$29.58","supports":["Kash"," michaeleah"],"ticketUrl":null,"time":" 6:30pm"}],"vName":"Brunswick Ballroom"},"type":"Feature"},{"geometry":{"coordinates":[144.9617907,-37.7620474],"type":"Point"},"properties":{"events":[{"categories":["Other \"Art \"","Other \"Spoken Word, Poetry \""],"eDate":"2026-04-22","eName":"No Typewriters / No Talking: Tempo April 2026","genre":null,"price":"$10.00","supports":[],"ticketUrl":null,"time":" 6:30pm"}],"vName":"Tempo Rubato, Brunswick"},"type":"Feature"},{"geometry":{"coordinates":[145.1334272,-37.9135736],"type":"Point"},"properties":{"events":[{"categories":["Music"],"eDate":"2026-04-22","eName":"Live at The Count’s: Nat Bartsch","genre":"Jazz","price":"$15.00 - 30.00","supports":[],"ticketUrl":null,"time":" 7:30pm"}],"vName":"The Ian Potter Centre for Performing Arts"},"type":"Feature"},{"geometry":{"coordinates":[145.1818891,-37.8163371],"type":"Point"},"properties":{"events":[{"categories":["Comedy"],"eDate":"2026-04-22","eName":"Melbourne International Comedy Festival Roadshow 2026","genre":null,"price":"$55.00","supports":[],"ticketUrl":null,"time":" 8pm"}],"vName":"The Round"},"type":"Feature"}],"type":"FeatureCollection"}