{"features":[{"geometry":{"coordinates":[144.9679369,-37.8120109],"type":"Point"},"properties":{"events":[{"categories":["Music","Other \"Trivia \""],"eDate":"2025-05-17","eName":"Bingo Loco presents Day Shift","genre":"Electronic","price":"$47.94 - 50.49","supports":[],"ticketUrl":null,"time":" 6pm"}],"vName":"170 Russell"},"type":"Feature"},{"geometry":{"coordinates":[144.9982812,-37.7713296],"type":"Point"},"properties":{"events":[{"categories":["Free","Music"],"eDate":"2025-05-17","eName":"Pinko Collective","genre":"Rock","price":"Free","supports":[],"ticketUrl":null,"time":" 3:30pm"},{"categories":["Free","Music"],"eDate":"2025-05-17","eName":"Rudi Sound System","genre":"Electronic","price":"Free","supports":["Sasquatch Soundsystem"],"ticketUrl":null,"time":" 8pm"}],"vName":"Bar 303"},"type":"Feature"},{"geometry":{"coordinates":[144.978425,-37.79773],"type":"Point"},"properties":{"events":[{"categories":["Music"],"eDate":"2025-05-17","eName":"Sonic Reducer: SQUEEZE","genre":"Rock","price":"$17.35","supports":[],"ticketUrl":null,"time":" 8:30pm"}],"vName":"Bar Open"},"type":"Feature"},{"geometry":{"coordinates":[144.978682,-37.7981225],"type":"Point"},"properties":{"events":[{"categories":["Free","Music"],"eDate":"2025-05-17","eName":"Woody Samson","genre":null,"price":"Free","supports":[],"ticketUrl":null,"time":" 9pm"}],"vName":"Baxter's Lot"},"type":"Feature"},{"geometry":{"coordinates":[144.9891167,-37.7996488],"type":"Point"},"properties":{"events":[{"categories":["Music"],"eDate":"2025-05-17","eName":"Dead By Daylight IV: Rebirth","genre":"Metal","price":"$25.00","supports":[],"ticketUrl":null,"time":" 7pm"}],"vName":"Bendigo Hotel"},"type":"Feature"},{"geometry":{"coordinates":[144.9607158,-37.776327],"type":"Point"},"properties":{"events":[{"categories":["Music"],"eDate":"2025-05-17","eName":"Renee Alison","genre":"Country/Folk","price":"$18.90","supports":["Jasmine Butera"," Moss Rose"],"ticketUrl":null,"time":" 1pm"},{"categories":["Music"],"eDate":"2025-05-17","eName":"nightlight","genre":"Punk","price":"$22.95","supports":["A Swift Farewell"," Benchcup"," This Space Is Ours"],"ticketUrl":null,"time":" 7pm"}],"vName":"Bergy Bandroom"},"type":"Feature"},{"geometry":{"coordinates":[144.9568039,-37.8111442],"type":"Point"},"properties":{"events":[{"categories":["Music"],"eDate":"2025-05-17","eName":"B# Big Band with Sarah C & Dom Bagnato","genre":"Jazz","price":"$40.00","supports":[],"ticketUrl":null,"time":" 7:30pm"}],"vName":"Bird's Basement"},"type":"Feature"},{"geometry":{"coordinates":[144.9617083,-37.7704205],"type":"Point"},"properties":{"events":[{"categories":["Music"],"eDate":"2025-05-17","eName":"Jo Meares’ Silver Bullets + Sand Pebbles","genre":"Country/Folk","price":"$23.05","supports":[],"ticketUrl":null,"time":" 2pm"},{"categories":["Music"],"eDate":"2025-05-17","eName":"Steve Kilbey","genre":"Rock","price":"$64.87","supports":["Jack Frost"," Grant McLennan"],"ticketUrl":null,"time":" 8:30pm"}],"vName":"Brunswick Ballroom"},"type":"Feature"},{"geometry":{"coordinates":[144.9951224,-37.8476521],"type":"Point"},"properties":{"events":[{"categories":["Music"],"eDate":"2025-05-17","eName":"Thndo","genre":"Soul/Funk","price":"$45.00 - 55.00","supports":[],"ticketUrl":null,"time":" 8pm"}],"vName":"Chapel Off Chapel"},"type":"Feature"},{"geometry":{"coordinates":[144.9945123,-37.8459118],"type":"Point"},"properties":{"events":[{"categories":["Music"],"eDate":"2025-05-17","eName":"Supersonic90s: Britpop & Electronic Beats","genre":"Pop","price":"$22.00","supports":[],"ticketUrl":null,"time":" 9pm"}],"vName":"Chasers Nightclub"},"type":"Feature"},{"geometry":{"coordinates":[144.9926664,-37.8248893],"type":"Point"},"properties":{"events":[{"categories":["Music","Other \"Dance \""],"eDate":"2025-05-17","eName":"Country Struts: Line Dancing Class & Party","genre":"Country/Folk","price":"$24.00","supports":[],"ticketUrl":null,"time":" 7pm"}],"vName":"Corner Hotel"},"type":"Feature"},{"geometry":{"coordinates":[144.9693768,-37.8164414],"type":"Point"},"properties":{"events":[{"categories":["Music"],"eDate":"2025-05-17","eName":"Holy Holy","genre":"Rock","price":"$80.00","supports":[],"ticketUrl":null,"time":" 8pm"}],"vName":"Forum Melbourne"},"type":"Feature"},{"geometry":{"coordinates":[144.9463874,-37.8432917],"type":"Point"},"properties":{"events":[{"categories":["Music"],"eDate":"2025-05-17","eName":"Andrea Krakovská: Aerial Guitarist Show","genre":"Rock","price":"$49.00 - 98.00","supports":[],"ticketUrl":null,"time":" 7:30pm"}],"vName":"Gasworks Arts Park"},"type":"Feature"},{"geometry":{"coordinates":[144.9875792,-37.7963739],"type":"Point"},"properties":{"events":[{"categories":["Free","Music"],"eDate":"2025-05-17","eName":"Krul","genre":"Rock","price":"Free","supports":["The Antics"," Public House"],"ticketUrl":null,"time":" 8pm"}],"vName":"Gem Bar"},"type":"Feature"},{"geometry":{"coordinates":[144.9679835,-37.8201575],"type":"Point"},"properties":{"events":[{"categories":["Comedy","Other \"Spoken Word, Poetry \""],"eDate":"2025-05-17","eName":"The Australian Dream? with Tim Ross","genre":null,"price":"$49.00","supports":[],"ticketUrl":null,"time":" 4pm"},{"categories":["Comedy"],"eDate":"2025-05-17","eName":"Up Next","genre":null,"price":"$20.00","supports":[],"ticketUrl":null,"time":" 6pm"},{"categories":["Music","Comedy","Other \"Spoken Word, Poetry \""],"eDate":"2025-05-17","eName":"MOTEL with Tim Ross & Kit Warhurst","genre":"Acoustic","price":"$79.00","supports":[],"ticketUrl":null,"time":" 6pm"},{"categories":["Music"],"eDate":"2025-05-17","eName":"An Evening of Fairy Tales","genre":"Classical","price":"$51.00","supports":[],"ticketUrl":null,"time":" 7:30pm"},{"categories":["Music"],"eDate":"2025-05-17","eName":"An Evening of Fairy Tales","genre":"Classical","price":"$75.00 - 139.00","supports":[],"ticketUrl":null,"time":" 7:30pm"}],"vName":"Hamer Hall (Arts Centre Melbourne)"},"type":"Feature"},{"geometry":{"coordinates":[144.9596527,-37.7720304],"type":"Point"},"properties":{"events":[{"categories":["Music"],"eDate":"2025-05-17","eName":"Valhalore","genre":"Metal","price":"$38.76","supports":[],"ticketUrl":null,"time":" 7:30pm"}],"vName":"Howler"},"type":"Feature"},{"geometry":{"coordinates":[145.0008148,-37.8107158],"type":"Point"},"properties":{"events":[{"categories":["Music"],"eDate":"2025-05-17","eName":"Crazy Nights","genre":"Rock","price":"$17.85","supports":["Powerslave"," Best Shot"],"ticketUrl":null,"time":" 7:30pm"}],"vName":"Leadbeater Hotel"},"type":"Feature"},{"geometry":{"coordinates":[144.8975289,-37.8022392],"type":"Point"},"properties":{"events":[{"categories":["Music"],"eDate":"2025-05-17","eName":"Mayhem at Mamma Chen’s","genre":null,"price":"$15.00 - 20.00","supports":["Outer Control"," In The Esky"," This Sinking Ship"],"ticketUrl":null,"time":" 7pm"}],"vName":"Mamma Chen's"},"type":"Feature"},{"geometry":{"coordinates":[144.9675876,-37.8240849],"type":"Point"},"properties":{"events":[{"categories":["Music"],"eDate":"2025-05-17","eName":"Australian Chamber Orchestra: Theremin & Beyond","genre":"Electronic","price":"$49.00","supports":[],"ticketUrl":null,"time":" 7:30pm"}],"vName":"Melbourne Recital Centre"},"type":"Feature"},{"geometry":{"coordinates":[144.9790251,-37.8675008],"type":"Point"},"properties":{"events":[{"categories":["Music"],"eDate":"2025-05-17","eName":"Hank Marvin Gypsy Jazz","genre":"Jazz","price":"$59.00 - 89.00","supports":[],"ticketUrl":null,"time":" 6:30pm"}],"vName":"Memo Music Hall"},"type":"Feature"},{"geometry":{"coordinates":[144.9712356,-37.812902],"type":"Point"},"properties":{"events":[{"categories":["Comedy"],"eDate":"2025-05-17","eName":"Basement Comedy Club","genre":null,"price":"$25.00","supports":[],"ticketUrl":null,"time":" 8pm"}],"vName":"Morris House"},"type":"Feature"},{"geometry":{"coordinates":[144.9982706,-37.7737068],"type":"Point"},"properties":{"events":[{"categories":["Music"],"eDate":"2025-05-17","eName":"Dan McCabe","genre":"Country/Folk","price":"$80.27","supports":[],"ticketUrl":null,"time":" 7:30pm"}],"vName":"Northcote Theatre"},"type":"Feature"},{"geometry":{"coordinates":[145.0015248,-37.8258878],"type":"Point"},"properties":{"events":[{"categories":["Music"],"eDate":"2025-05-17","eName":"Glendi: Estudiantina of Melbourne & Demotika","genre":"Global","price":"$28.60","supports":[],"ticketUrl":null,"time":" 7pm"}],"vName":"Odeon Richmond"},"type":"Feature"},{"geometry":{"coordinates":[144.97711,-37.79833],"type":"Point"},"properties":{"events":[{"categories":["Music"],"eDate":"2025-05-17","eName":"Ferla","genre":"Rock","price":"$19.40","supports":["Cong Josie & The Hell Racers"," Public Figures"],"ticketUrl":null,"time":" 8pm"}],"vName":"Old Bar"},"type":"Feature"},{"geometry":{"coordinates":[144.96084,-37.813514],"type":"Point"},"properties":{"events":[{"categories":["Music"],"eDate":"2025-05-17","eName":"Dean’s Martini","genre":"Jazz","price":"$45.00","supports":[],"ticketUrl":null,"time":" 6:30pm"},{"categories":["Music"],"eDate":"2025-05-17","eName":"A Celebration of BB King & Etta James with Nardia & Jimi Hocking","genre":"Jazz","price":"Free","supports":[],"ticketUrl":null,"time":" 6:30pm"},{"categories":["Music"],"eDate":"2025-05-17","eName":"Paris Nocturne: A Celebration of the Women of Paris with Nikki Nouveau","genre":"Jazz","price":"$45.00","supports":[],"ticketUrl":null,"time":" 9pm"},{"categories":["Music"],"eDate":"2025-05-17","eName":"A Celebration of BB King & Etta James with Nardia & Jimi Hocking","genre":"Jazz","price":"$45.00","supports":[],"ticketUrl":null,"time":" 9:30pm"}],"vName":"Paris Cat Jazz Club"},"type":"Feature"},{"geometry":{"coordinates":[144.9661336,-37.7358243],"type":"Point"},"properties":{"events":[{"categories":["Music"],"eDate":"2025-05-17","eName":"Spoonful","genre":"Rock","price":"Free","supports":[],"ticketUrl":null,"time":" 9pm"}],"vName":"Post Office Hotel"},"type":"Feature"},{"geometry":{"coordinates":[144.9615882,-37.7711432],"type":"Point"},"properties":{"events":[{"categories":["Music"],"eDate":"2025-05-17","eName":"The Dozeytones","genre":"Jazz","price":"Free","supports":[],"ticketUrl":null,"time":" 2pm"},{"categories":["Music"],"eDate":"2025-05-17","eName":"Ghost Medium","genre":"Indie","price":"$20.00","supports":["Flickering Stars"],"ticketUrl":null,"time":" 7:30pm"}],"vName":"Retreat Hotel"},"type":"Feature"},{"geometry":{"coordinates":[144.993413,-37.8506652],"type":"Point"},"properties":{"events":[{"categories":["Music"],"eDate":"2025-05-17","eName":"Electric Funeral","genre":"Metal","price":"$21.42","supports":["Rawtism"," Vault Hill"," Thallium"],"ticketUrl":null,"time":" 7pm"}],"vName":"Revolver Upstairs"},"type":"Feature"},{"geometry":{"coordinates":[145.3534507,-37.9100746],"type":"Point"},"properties":{"events":[{"categories":["Music"],"eDate":"2025-05-17","eName":"HDC","genre":"Electronic","price":"Free","supports":[],"ticketUrl":null,"time":" 9pm"}],"vName":"Sooki Lounge"},"type":"Feature"},{"geometry":{"coordinates":[144.9607404,-37.7743469],"type":"Point"},"properties":{"events":[{"categories":["Music"],"eDate":"2025-05-17","eName":"Castles In Paris: Peep vs $B Appreciation Night","genre":"Hip Hop","price":"$13.80 - 22.00","supports":[],"ticketUrl":null,"time":"11pm"}],"vName":"Stay Gold"},"type":"Feature"},{"geometry":{"coordinates":[144.9995955,-37.762377],"type":"Point"},"properties":{"events":[{"categories":["Music"],"eDate":"2025-05-17","eName":"The Lemonheads","genre":"Rock","price":"Free","supports":[],"ticketUrl":null,"time":" 8pm"}],"vName":"The Croxton"},"type":"Feature"},{"geometry":{"coordinates":[144.9586498,-37.766903],"type":"Point"},"properties":{"events":[{"categories":["Music"],"eDate":"2025-05-17","eName":"David Bridie","genre":"Jazz","price":"$35.00 - 40.00","supports":[],"ticketUrl":null,"time":" 8pm"}],"vName":"The Jazzlab"},"type":"Feature"},{"geometry":{"coordinates":[144.9879283,-37.7505509],"type":"Point"},"properties":{"events":[{"categories":["Music"],"eDate":"2025-05-17","eName":"Lady Fern","genre":"Acoustic","price":"Free","supports":[],"ticketUrl":null,"time":" 7pm"}],"vName":"The Merri Bar"},"type":"Feature"},{"geometry":{"coordinates":[144.9708437,-37.7973184],"type":"Point"},"properties":{"events":[{"categories":["Free","Music"],"eDate":"2025-05-17","eName":"Elaura & Pia","genre":"Soul/Funk","price":"Free","supports":[],"ticketUrl":null,"time":" 5pm"},{"categories":["Music"],"eDate":"2025-05-17","eName":"Out of the Shadows: A Hidden Curiosity","genre":"Classical","price":"$40.52","supports":[],"ticketUrl":null,"time":" 5:30pm"},{"categories":["Music"],"eDate":"2025-05-17","eName":"Motley Jazz Jam","genre":"Jazz","price":"Free","supports":[],"ticketUrl":null,"time":" 7:30pm"},{"categories":["Comedy","Theatre"],"eDate":"2025-05-17","eName":"The Big HOO-HAA!","genre":null,"price":"$32.00","supports":[],"ticketUrl":null,"time":" 8:30pm"}],"vName":"The Motley Bauhaus"},"type":"Feature"},{"geometry":{"coordinates":[144.9794553,-37.7982653],"type":"Point"},"properties":{"events":[{"categories":["Music"],"eDate":"2025-05-17","eName":"Music in Exile: 5th Anniversary","genre":"Electronic","price":"$23.45 - 29.57","supports":["No Era"],"ticketUrl":null,"time":" 7:30pm"}],"vName":"The Night Cat"},"type":"Feature"},{"geometry":{"coordinates":[145.1818891,-37.8163371],"type":"Point"},"properties":{"events":[{"categories":["Music"],"eDate":"2025-05-17","eName":"Totally Swift: The Eras Experience","genre":"Pop","price":"$69.00","supports":[],"ticketUrl":null,"time":" 1:30pm"}],"vName":"The Round"},"type":"Feature"},{"geometry":{"coordinates":[144.9651425,-37.8119429],"type":"Point"},"properties":{"events":[{"categories":["Music"],"eDate":"2025-05-17","eName":"The Regnans","genre":"Rock","price":"$17.34","supports":["The Liffeys"," The Defibs"],"ticketUrl":null,"time":" 2pm"}],"vName":"The Toff In Town"},"type":"Feature"},{"geometry":{"coordinates":[144.9870814,-37.799406],"type":"Point"},"properties":{"events":[{"categories":["Music"],"eDate":"2025-05-17","eName":"Brutefest 2025","genre":"Metal","price":"$63.25","supports":["Pizza Death"," Permafog"," Bastardizer"," Vexation"," Mortuary Sickness"," Sufferance"," Choof"," Burnout"],"ticketUrl":null,"time":" 4pm"}],"vName":"The Tote Hotel"},"type":"Feature"},{"geometry":{"coordinates":[144.9920349,-37.8074016],"type":"Point"},"properties":{"events":[{"categories":["Free","Music"],"eDate":"2025-05-17","eName":"Paul Hicks & The Yard Dogs","genre":"Blues","price":"Free","supports":[],"ticketUrl":null,"time":" 7:30pm"}],"vName":"The Yorkshire Stingo Hotel"},"type":"Feature"}],"type":"FeatureCollection"}