{"features":[{"geometry":{"coordinates":[144.99828116650363,-37.7713296],"type":"Point"},"properties":{"events":[{"categories":["Music"],"eDate":"2024-09-19","eName":"Hawker Heights","genre":"Soul/Funk","price":"$20.99","supports":[],"ticketUrl":null,"time":" 8pm"}],"vName":"Bar 303"},"type":"Feature"},{"geometry":{"coordinates":[144.978682,-37.7981225],"type":"Point"},"properties":{"events":[{"categories":["Free","Music"],"eDate":"2024-09-19","eName":"BOADZ","genre":null,"price":"Free","supports":[],"ticketUrl":null,"time":" 9:30pm"}],"vName":"Baxter's Lot"},"type":"Feature"},{"geometry":{"coordinates":[144.9607158,-37.776327],"type":"Point"},"properties":{"events":[{"categories":["Music"],"eDate":"2024-09-19","eName":"merci, mercy","genre":"Pop","price":"$35.00","supports":["Lashes"],"ticketUrl":null,"time":" 8pm"}],"vName":"Bergy Bandroom"},"type":"Feature"},{"geometry":{"coordinates":[144.9945274,-37.8001115],"type":"Point"},"properties":{"events":[{"categories":["Free","Music","Festival","Dance","Other \"Food & Drink\""],"eDate":"2024-09-19","eName":"Hasta Pronto!: Alcides Neto","genre":null,"price":"Free","supports":[],"ticketUrl":null,"time":" 7pm"}],"vName":"Bodriggy Brewing Company"},"type":"Feature"},{"geometry":{"coordinates":[144.9713425,-37.8128595],"type":"Point"},"properties":{"events":[{"categories":["Music"],"eDate":"2024-09-19","eName":"Child","genre":"Rock","price":"$20.00","supports":[],"ticketUrl":null,"time":" 9pm"}],"vName":"Cherry Bar"},"type":"Feature"},{"geometry":{"coordinates":[144.96947,-37.816565],"type":"Point"},"properties":{"events":[{"categories":["Music"],"eDate":"2024-09-19","eName":"Spiderbait","genre":"Rock","price":"$89.90","supports":["Private Function"," Destrends"],"ticketUrl":null,"time":" 6:30pm"}],"vName":"Forum Melbourne"},"type":"Feature"},{"geometry":{"coordinates":[144.9875917,-37.7963837],"type":"Point"},"properties":{"events":[{"categories":["Free","Music"],"eDate":"2024-09-19","eName":"K. Walsh & The Podium Babies + Sweet Nothings","genre":"Rock","price":"Free","supports":[],"ticketUrl":null,"time":" 8pm"}],"vName":"Gem Bar"},"type":"Feature"},{"geometry":{"coordinates":[144.959768,-37.831777],"type":"Point"},"properties":{"events":[{"categories":["Music"],"eDate":"2024-09-19","eName":"Craig Schneider + John Montesante Quintet","genre":"Jazz","price":"$18.00","supports":[],"ticketUrl":null,"time":" 7pm"}],"vName":"Golden Gate Hotel"},"type":"Feature"},{"geometry":{"coordinates":[144.9596527,-37.7720304],"type":"Point"},"properties":{"events":[{"categories":["Music"],"eDate":"2024-09-19","eName":"An Evening Adventure With Clare Bowditch","genre":"Indie","price":"$54.57","supports":[],"ticketUrl":null,"time":" 7:30pm"}],"vName":"Howler"},"type":"Feature"},{"geometry":{"coordinates":[144.9936498,-37.8000264],"type":"Point"},"properties":{"events":[{"categories":["Free","Music"],"eDate":"2024-09-19","eName":"Jesse Redwing","genre":"Rock","price":"Free","supports":["The 6v6s"],"ticketUrl":null,"time":" 9pm"}],"vName":"Lulie Tavern"},"type":"Feature"},{"geometry":{"coordinates":[144.8971518,-37.8054274],"type":"Point"},"properties":{"events":[{"categories":["Music"],"eDate":"2024-09-19","eName":"Unspoken Rule","genre":null,"price":"$15.00 - 18.00","supports":["Dead Ed"," motionblur."],"ticketUrl":null,"time":" 7pm"}],"vName":"Mamma Chen's"},"type":"Feature"},{"geometry":{"coordinates":[144.96741062735794,-37.82454855],"type":"Point"},"properties":{"events":[{"categories":["Music"],"eDate":"2024-09-19","eName":"Guitarra","genre":"Acoustic","price":"$99.00","supports":[],"ticketUrl":null,"time":" 8pm"}],"vName":"Melbourne Recital Centre"},"type":"Feature"},{"geometry":{"coordinates":[144.9605705,-37.8132486],"type":"Point"},"properties":{"events":[{"categories":["Music"],"eDate":"2024-09-19","eName":"The Daimon Brunton Quintet: The Hip Sessions","genre":"Jazz","price":"$40.00","supports":[],"ticketUrl":null,"time":" 9pm"}],"vName":"Paris Cat Jazz Club"},"type":"Feature"},{"geometry":{"coordinates":[144.9615882,-37.7711432],"type":"Point"},"properties":{"events":[{"categories":["Free","Music"],"eDate":"2024-09-19","eName":"Hannie Day","genre":null,"price":"Free","supports":["Private Mountain"," Lucy Harrington"],"ticketUrl":null,"time":" 7:30pm"}],"vName":"Retreat Hotel"},"type":"Feature"},{"geometry":{"coordinates":[144.9631913,-37.7617818],"type":"Point"},"properties":{"events":[{"categories":["Free","Music"],"eDate":"2024-09-19","eName":"Open Mic @ Ringo Barr","genre":"Acoustic","price":"Free","supports":[],"ticketUrl":null,"time":" 7pm"}],"vName":"Ringo Barr"},"type":"Feature"},{"geometry":{"coordinates":[145.001392343033,-37.75592655],"type":"Point"},"properties":{"events":[{"categories":["Music"],"eDate":"2024-09-19","eName":"SunSeeds","genre":null,"price":"$15.29","supports":["KAiMáN JiMéNeZ"],"ticketUrl":null,"time":" 8pm"}],"vName":"Shotkickers"},"type":"Feature"},{"geometry":{"coordinates":[144.9585654,-37.8059962],"type":"Point"},"properties":{"events":[{"categories":["Music"],"eDate":"2024-09-19","eName":"Sonic Realms: An Evening with Obdurate","genre":"Metal","price":"$11.25","supports":["No Wuckas"," Straight Edges"," Naked Mannequin"],"ticketUrl":null,"time":" 7pm"}],"vName":"The Last Chance Rock & Roll Bar"},"type":"Feature"},{"geometry":{"coordinates":[144.9651425,-37.8119429],"type":"Point"},"properties":{"events":[{"categories":["Free","Music"],"eDate":"2024-09-19","eName":"Jazz & Jaffles","genre":"Jazz","price":"Free","supports":["Kurt Rainbow"," Moor Street DJs"],"ticketUrl":null,"time":" 7:30pm"}],"vName":"The Toff In Town"},"type":"Feature"},{"geometry":{"coordinates":[144.9769450659087,-37.8055776],"type":"Point"},"properties":{"events":[{"categories":["Music"],"eDate":"2024-09-19","eName":"Scarlet","genre":null,"price":"$17.85","supports":["Finn Watson-Hook"," Chiara"],"ticketUrl":null,"time":" 7pm"}],"vName":"The Workers Club"},"type":"Feature"},{"geometry":{"coordinates":[144.9618426,-37.8125531],"type":"Point"},"properties":{"events":[{"categories":["Free","Music","Other \"Food & Drink\""],"eDate":"2024-09-19","eName":"Inner Sanctuary: DJ JNETT + Jimmy James","genre":"Electronic","price":"Free","supports":[],"ticketUrl":null,"time":" 3pm"}],"vName":"Whitehart Bar"},"type":"Feature"}],"type":"FeatureCollection"}