{"features":[{"geometry":{"coordinates":[144.9679835243618,-37.8201575],"type":"Point"},"properties":{"events":[{"categories":["Comedy"],"eDate":"2024-04-14","eName":"Kaboom!","genre":null,"price":"$25.00 - 115.00","supports":[],"ticketUrl":null,"time":" 1:15pm"},{"categories":["Comedy","Other \"Food & Drink\""],"eDate":"2024-04-14","eName":"Merrick Watts: An Idiot's Guide to Wine - Volume Two","genre":null,"price":"$60.00 - 70.00","supports":[],"ticketUrl":null,"time":" 2pm"},{"categories":["Comedy"],"eDate":"2024-04-14","eName":"Geraldine Hickey: Don't Tease Me About My Gloves","genre":null,"price":"$35.00 - 48.00","supports":[],"ticketUrl":null,"time":" 5:15pm"},{"categories":["Comedy","Theatre"],"eDate":"2024-04-14","eName":"Circus Oz: Smash It!","genre":null,"price":"$20.00 - 111.00","supports":[],"ticketUrl":null,"time":" 7pm"},{"categories":["Comedy"],"eDate":"2024-04-14","eName":"Josh Thomas: Let's Tidy Up","genre":null,"price":"$49.00 - 59.00","supports":[],"ticketUrl":null,"time":" 7:30pm"}],"vName":"Arts Centre Melbourne"},"type":"Feature"},{"geometry":{"coordinates":[144.978425,-37.79773],"type":"Point"},"properties":{"events":[{"categories":["Free","Music"],"eDate":"2024-04-14","eName":"Evan Carydakis","genre":"Jazz","price":"Free","supports":[],"ticketUrl":null,"time":" 5:30pm"}],"vName":"Bar Open"},"type":"Feature"},{"geometry":{"coordinates":[144.9945274,-37.8001115],"type":"Point"},"properties":{"events":[{"categories":["Free","Festival","Comedy","Other \"Food & Drink\""],"eDate":"2024-04-14","eName":"On The Gags Comedy Fest Extravaganza","genre":"Indie","price":"$25.00","supports":[],"ticketUrl":null,"time":" 7:30pm"}],"vName":"Bodriggy Brewing Company"},"type":"Feature"},{"geometry":{"coordinates":[144.9679835243618,-37.8201575],"type":"Point"},"properties":{"events":[{"categories":["Music"],"eDate":"2024-04-14","eName":"Aryana Sayeed","genre":"Pop","price":"$95.00","supports":[],"ticketUrl":null,"time":" 8pm"}],"vName":"Hamer Hall (Arts Centre Melbourne)"},"type":"Feature"},{"geometry":{"coordinates":[144.90043927513608,-37.8115247],"type":"Point"},"properties":{"events":[{"categories":["Music"],"eDate":"2024-04-14","eName":"Lucid Dreaming with Catherine McQuade's Perfect Storm","genre":"Jazz","price":"$32.74","supports":["Sally Ford & The Idiomatics"," Rosie Westbrook"],"ticketUrl":null,"time":" 3pm"},{"categories":["Music"],"eDate":"2024-04-14","eName":"Lucid Dreaming","genre":null,"price":"$30.00","supports":[],"ticketUrl":null,"time":" 3pm"}],"vName":"Kindred Bandroom"},"type":"Feature"},{"geometry":{"coordinates":[144.8971518,-37.8054274],"type":"Point"},"properties":{"events":[{"categories":["Free","Music"],"eDate":"2024-04-14","eName":"Free KARAOKE: Hosted by Prue Brown","genre":null,"price":"Free","supports":[],"ticketUrl":null,"time":" 6pm"}],"vName":"Mamma Chen's"},"type":"Feature"},{"geometry":{"coordinates":[144.9627231,-37.8073581],"type":"Point"},"properties":{"events":[{"categories":["Comedy"],"eDate":"2024-04-14","eName":"Paul Williams: Mamiya 7","genre":null,"price":"$25.00 - 35.00","supports":[],"ticketUrl":null,"time":" 6:40pm"}],"vName":"Melbourne Town Hall"},"type":"Feature"},{"geometry":{"coordinates":[145.3553553,-37.9078552],"type":"Point"},"properties":{"events":[{"categories":["Free","Music"],"eDate":"2024-04-14","eName":"John Crosbie","genre":null,"price":"Free","supports":[],"ticketUrl":null,"time":" 1pm"}],"vName":"Micawber Tavern"},"type":"Feature"},{"geometry":{"coordinates":[144.9712356,-37.812902],"type":"Point"},"properties":{"events":[{"categories":["Comedy"],"eDate":"2024-04-14","eName":"Do Go On: Live Podcasts (Early Session)","genre":null,"price":"$25.50 - 65.50","supports":[],"ticketUrl":null,"time":" 1:45pm"},{"categories":["Comedy"],"eDate":"2024-04-14","eName":"Do Go On: Live Podcasts","genre":null,"price":"$25.50 - 65.50","supports":[],"ticketUrl":null,"time":" 3:30pm"},{"categories":["Comedy"],"eDate":"2024-04-14","eName":"Tom Cashman: Everything","genre":null,"price":"$25.50 - 35.50","supports":[],"ticketUrl":null,"time":" 7:45pm"}],"vName":"Morris House"},"type":"Feature"},{"geometry":{"coordinates":[144.9977626,-37.7755001],"type":"Point"},"properties":{"events":[{"categories":["Free","Music","Markets"],"eDate":"2024-04-14","eName":"Northcote Theatre Record Fair","genre":"Rock","price":"Free","supports":[],"ticketUrl":null,"time":"11am"}],"vName":"Northcote Theatre"},"type":"Feature"},{"geometry":{"coordinates":[144.97711,-37.79833],"type":"Point"},"properties":{"events":[{"categories":["Music"],"eDate":"2024-04-14","eName":"Maxine Gillon: Old Bar Residency","genre":"Indie","price":"$10.00","supports":["Popular Music"],"ticketUrl":null,"time":" 7pm"}],"vName":"Old Bar"},"type":"Feature"},{"geometry":{"coordinates":[145.0142411,-37.7310367],"type":"Point"},"properties":{"events":[{"categories":["Free","Music"],"eDate":"2024-04-14","eName":"Sunday Sunset Sessions","genre":"Jazz","price":"Free","supports":[],"ticketUrl":null,"time":" 6pm"}],"vName":"Ragtime Tavern"},"type":"Feature"},{"geometry":{"coordinates":[144.9631913,-37.7617818],"type":"Point"},"properties":{"events":[{"categories":["Free","Music"],"eDate":"2024-04-14","eName":"Alethia","genre":"R&B","price":"Free","supports":[],"ticketUrl":null,"time":" 8pm"},{"categories":["Music"],"eDate":"2024-04-14","eName":"Andie + John Joseph Matthews","genre":"Indie","price":"$15.00","supports":[],"ticketUrl":null,"time":" 8pm"}],"vName":"Ringo Barr"},"type":"Feature"},{"geometry":{"coordinates":[144.9948802,-37.8431403],"type":"Point"},"properties":{"events":[{"categories":["Free","Music","Other \"Food & Drink\""],"eDate":"2024-04-14","eName":"Sunday Sessions @ Temperance Hotel","genre":"Acoustic","price":"Free","supports":[],"ticketUrl":null,"time":" 3pm"}],"vName":"Temperance Hotel"},"type":"Feature"},{"geometry":{"coordinates":[144.9651425,-37.8119429],"type":"Point"},"properties":{"events":[{"categories":["Comedy"],"eDate":"2024-04-14","eName":"Best Of The Festival: Comedy Superstars","genre":null,"price":"$30.00 - 35.00","supports":[],"ticketUrl":null,"time":" 5pm"},{"categories":["Comedy"],"eDate":"2024-04-14","eName":"Simon Taylor: Big Time","genre":null,"price":"$28.50 - 35.50","supports":[],"ticketUrl":null,"time":" 6:15pm"},{"categories":["Comedy"],"eDate":"2024-04-14","eName":"Mel & Sam: The Platonic Human Centipede","genre":null,"price":"$35.50","supports":[],"ticketUrl":null,"time":" 8:45pm"}],"vName":"The Toff In Town"},"type":"Feature"},{"geometry":{"coordinates":[144.9846126,-37.7989941],"type":"Point"},"properties":{"events":[{"categories":["Music"],"eDate":"2024-04-14","eName":"COFFIN","genre":"Rock","price":"$34.20","supports":[],"ticketUrl":null,"time":" 1pm"},{"categories":["Free","Music"],"eDate":"2024-04-14","eName":"Plastic Section + The Vibrajets","genre":"Rock","price":"Free","supports":[],"ticketUrl":null,"time":" 3pm"},{"categories":["Music"],"eDate":"2024-04-14","eName":"Flower Field Folly","genre":"Rock","price":"$11.25","supports":["GetJaxxed"," They Might Be Dead Frogs"," Crushed Lavender"],"ticketUrl":null,"time":" 7pm"}],"vName":"The Tote Hotel"},"type":"Feature"}],"type":"FeatureCollection"}