{"features":[{"geometry":{"coordinates":[144.9500257,-37.8032773],"type":"Point"},"properties":{"events":[{"categories":["Theatre"],"eDate":"2026-05-31","eName":"1154 Days","genre":null,"price":"$40.00","supports":[],"ticketUrl":null,"time":" 5pm"}],"vName":"Arts House"},"type":"Feature"},{"geometry":{"coordinates":[144.978682,-37.7981225],"type":"Point"},"properties":{"events":[{"categories":["Free","Music"],"eDate":"2026-05-31","eName":"Xander Cuming","genre":null,"price":"Free","supports":[],"ticketUrl":null,"time":" 9pm"}],"vName":"Baxter's Lot"},"type":"Feature"},{"geometry":{"coordinates":[144.9607158,-37.776327],"type":"Point"},"properties":{"events":[{"categories":["Music"],"eDate":"2026-05-31","eName":"The Get Down 23: Melbourne’s Ultimate Hip-Hop Showcase","genre":"Hip Hop","price":"$16.85","supports":["more"],"ticketUrl":null,"time":" 4pm"}],"vName":"Bergy Bandroom"},"type":"Feature"},{"geometry":{"coordinates":[144.9945274,-37.8001115],"type":"Point"},"properties":{"events":[{"categories":["Free","Music","Other \"Food \""],"eDate":"2026-05-31","eName":"Gospel Sundays + The Hornstars","genre":null,"price":"Free","supports":[],"ticketUrl":null,"time":" 3pm"}],"vName":"Bodriggy Brewing Company"},"type":"Feature"},{"geometry":{"coordinates":[144.9501312,-37.8042459],"type":"Point"},"properties":{"events":[{"categories":["Comedy"],"eDate":"2026-05-31","eName":"Sunday Night Comedy","genre":null,"price":"$10.00","supports":[],"ticketUrl":null,"time":" 7:30pm"}],"vName":"Club Voltaire"},"type":"Feature"},{"geometry":{"coordinates":[144.9679835,-37.8201575],"type":"Point"},"properties":{"events":[{"categories":["Music"],"eDate":"2026-05-31","eName":"Thee Sacred Souls","genre":"Soul/Funk","price":"$89.90","supports":["DJ Stucky"],"ticketUrl":null,"time":" 6pm"}],"vName":"Hamer Hall (Arts Centre Melbourne)"},"type":"Feature"},{"geometry":{"coordinates":[144.9596527,-37.7720304],"type":"Point"},"properties":{"events":[{"categories":["Music"],"eDate":"2026-05-31","eName":"aleksiah","genre":"Pop","price":"$39.78","supports":[],"ticketUrl":null,"time":" 7pm"}],"vName":"Howler"},"type":"Feature"},{"geometry":{"coordinates":[144.9675876,-37.8240849],"type":"Point"},"properties":{"events":[{"categories":["Music"],"eDate":"2026-05-31","eName":"100 years Mimis Plessas: A Living Tribute with Dimitris Basis","genre":"Global","price":"$59.00 - 130.00","supports":[],"ticketUrl":null,"time":" 6pm"}],"vName":"Melbourne Recital Centre"},"type":"Feature"},{"geometry":{"coordinates":[144.8997171,-37.8004117],"type":"Point"},"properties":{"events":[{"categories":["Free","Music"],"eDate":"2026-05-31","eName":"Brass & Beats","genre":null,"price":"Free","supports":[],"ticketUrl":null,"time":" 6pm"}],"vName":"Misfits"},"type":"Feature"},{"geometry":{"coordinates":[144.9895284,-37.7993224],"type":"Point"},"properties":{"events":[{"categories":["Music"],"eDate":"2026-05-31","eName":"Capital Noise presents: “NOTHING LEFT BUT NOISE” Compilation Launch","genre":null,"price":"$15.00","supports":["Cornea"],"ticketUrl":null,"time":" 2pm"}],"vName":"Nighthawks"},"type":"Feature"},{"geometry":{"coordinates":[144.9583409,-37.7664168],"type":"Point"},"properties":{"events":[{"categories":["Free","Music"],"eDate":"2026-05-31","eName":"Laneous Duos","genre":"Acoustic","price":"Free","supports":[],"ticketUrl":null,"time":" 3pm"}],"vName":"Quadraphonic Club"},"type":"Feature"},{"geometry":{"coordinates":[144.9615882,-37.7711432],"type":"Point"},"properties":{"events":[{"categories":["Music"],"eDate":"2026-05-31","eName":"The Hybernators","genre":"Punk","price":"Free","supports":["NAH"," The Plutonics"],"ticketUrl":null,"time":" 2pm"},{"categories":["Free","Music"],"eDate":"2026-05-31","eName":"Old Time Jam Session: Double Dole String Band","genre":"Country/Folk","price":"Free","supports":[],"ticketUrl":null,"time":" 6:30pm"}],"vName":"Retreat Hotel"},"type":"Feature"},{"geometry":{"coordinates":[145.0013923,-37.7559265],"type":"Point"},"properties":{"events":[{"categories":["Music"],"eDate":"2026-05-31","eName":"Desert Fire","genre":"Rock","price":"$12.00","supports":["Leather Bound Pounds"," Cicadastone"],"ticketUrl":null,"time":" 2pm"}],"vName":"Shotkickers"},"type":"Feature"},{"geometry":{"coordinates":[144.9617907,-37.7620474],"type":"Point"},"properties":{"events":[{"categories":["Music","Other \"Art \"","Other \"Spoken Word, Poetry \""],"eDate":"2026-05-31","eName":"Oscar Lush presents The Quarter Inch Bells with Khyaal Vocal Ensemble","genre":"Experimental","price":"$25.00","supports":[],"ticketUrl":null,"time":" 4pm"}],"vName":"Tempo Rubato, Brunswick"},"type":"Feature"},{"geometry":{"coordinates":[145.1818891,-37.8163371],"type":"Point"},"properties":{"events":[{"categories":["Music"],"eDate":"2026-05-31","eName":"The 5th Yut Cheung Cantonese Singing Competition","genre":"Global","price":"$30.00","supports":[],"ticketUrl":null,"time":" 2pm"}],"vName":"The Round"},"type":"Feature"},{"geometry":{"coordinates":[144.9998797,-37.7616512],"type":"Point"},"properties":{"events":[{"categories":["Music"],"eDate":"2026-05-31","eName":"Katankin","genre":"Indie","price":"Free","supports":[],"ticketUrl":null,"time":" 5pm"}],"vName":"The Thornbury Local"},"type":"Feature"},{"geometry":{"coordinates":[144.9769451,-37.8055776],"type":"Point"},"properties":{"events":[{"categories":["Music"],"eDate":"2026-05-31","eName":"Hot Milk Machine","genre":"Punk","price":"$12.75","supports":["The Noise"," Penalty"],"ticketUrl":null,"time":" 1pm"}],"vName":"The Workers Club"},"type":"Feature"},{"geometry":{"coordinates":[144.9984324,-37.7729134],"type":"Point"},"properties":{"events":[{"categories":["Music"],"eDate":"2026-05-31","eName":"The Reg Cole Quartet","genre":"Jazz","price":"$34.20","supports":[],"ticketUrl":null,"time":" 3pm"},{"categories":["Music"],"eDate":"2026-05-31","eName":"Latin Lava","genre":"Country/Folk","price":"Free","supports":[],"ticketUrl":null,"time":" 6pm"}],"vName":"Wesley Anne"},"type":"Feature"}],"type":"FeatureCollection"}