{"features":[{"geometry":{"coordinates":[144.978425,-37.79773],"type":"Point"},"properties":{"events":[{"categories":["Music"],"eDate":"2025-01-12","eName":"The Graduation Gig","genre":"Indie","price":"$15.00","supports":[],"ticketUrl":null,"time":" 6:30pm"},{"categories":["Free","Music"],"eDate":"2025-01-12","eName":"Fusion Express","genre":"Jazz","price":"Free","supports":[],"ticketUrl":null,"time":" 6:30pm"}],"vName":"Bar Open"},"type":"Feature"},{"geometry":{"coordinates":[144.978682,-37.7981225],"type":"Point"},"properties":{"events":[{"categories":["Free","Music"],"eDate":"2025-01-12","eName":"Harrisen Hughes","genre":null,"price":"Free","supports":[],"ticketUrl":null,"time":" 9pm"}],"vName":"Baxter's Lot"},"type":"Feature"},{"geometry":{"coordinates":[144.8971518,-37.8054274],"type":"Point"},"properties":{"events":[{"categories":["Free","Music"],"eDate":"2025-01-12","eName":"Kat Greta","genre":null,"price":"$12.00 - 20.00","supports":["Hilda GreeN"," Renee Alison"],"ticketUrl":null,"time":" 2pm"}],"vName":"Mamma Chen's"},"type":"Feature"},{"geometry":{"coordinates":[144.9254729,-37.8284751],"type":"Point"},"properties":{"events":[{"categories":["Music"],"eDate":"2025-01-12","eName":"Marlon Hoffstadt","genre":"Electronic","price":"$109.90","supports":[],"ticketUrl":null,"time":" 4pm"}],"vName":"PICA (Port Melbourne Industrial Centre for the Arts)"},"type":"Feature"},{"geometry":{"coordinates":[144.9605705,-37.8132486],"type":"Point"},"properties":{"events":[{"categories":["Music"],"eDate":"2025-01-12","eName":"Georga Byrne Presents: Gatsby Jazz With A Twist","genre":"Jazz","price":"$45.00","supports":[],"ticketUrl":null,"time":" 6pm"},{"categories":["Music"],"eDate":"2025-01-12","eName":"Rainee Blake performs Joni Mitchell Plus More","genre":"Country/Folk","price":"$45.00","supports":[],"ticketUrl":null,"time":" 6:30pm"}],"vName":"Paris Cat Jazz Club"},"type":"Feature"},{"geometry":{"coordinates":[144.97515565,-37.805788500000006],"type":"Point"},"properties":{"events":[{"categories":["Free","Music"],"eDate":"2025-01-12","eName":"Craig Woodward & Friends","genre":null,"price":"Free","supports":[],"ticketUrl":null,"time":" 4pm"}],"vName":"The Catfish"},"type":"Feature"},{"geometry":{"coordinates":[144.9555612,-37.8066759],"type":"Point"},"properties":{"events":[{"categories":["Free","Music"],"eDate":"2025-01-12","eName":"Steamboat Whistlers","genre":null,"price":"Free","supports":[],"ticketUrl":null,"time":" 6pm"}],"vName":"The Drunken Poet"},"type":"Feature"},{"geometry":{"coordinates":[144.9846126,-37.7989941],"type":"Point"},"properties":{"events":[{"categories":["Music"],"eDate":"2025-01-12","eName":"Eastferns","genre":"Rock","price":"$13.80","supports":[],"ticketUrl":null,"time":" 7pm"}],"vName":"The Tote Hotel"},"type":"Feature"}],"type":"FeatureCollection"}