{"features":[{"geometry":{"coordinates":[144.978682,-37.7981225],"type":"Point"},"properties":{"events":[{"categories":["Free","Music"],"eDate":"2025-12-21","eName":"Final Show 2025 @ Baxter’s","genre":null,"price":"Free","supports":["more"],"ticketUrl":null,"time":" 9pm"}],"vName":"Baxter's Lot"},"type":"Feature"},{"geometry":{"coordinates":[144.9891167,-37.7996488],"type":"Point"},"properties":{"events":[{"categories":["Free","Music"],"eDate":"2025-12-21","eName":"Hazy Sundays: Plastic Section + Gold Coast Leathers","genre":"Rock","price":"Free","supports":[],"ticketUrl":null,"time":" 3pm"}],"vName":"Bendigo Hotel"},"type":"Feature"},{"geometry":{"coordinates":[144.9945274,-37.8001115],"type":"Point"},"properties":{"events":[{"categories":["Free","Music","Other \"Food \""],"eDate":"2025-12-21","eName":"Gospel Sundays","genre":null,"price":"Free","supports":[],"ticketUrl":null,"time":" 2pm"}],"vName":"Bodriggy Brewing Company"},"type":"Feature"},{"geometry":{"coordinates":[144.9720318,-37.8656234],"type":"Point"},"properties":{"events":[{"categories":["Music","Other \"Food \""],"eDate":"2025-12-21","eName":"Baxter Sunseeker","genre":"Acoustic","price":"Free","supports":[],"ticketUrl":null,"time":"12pm"}],"vName":"Captain Baxter"},"type":"Feature"},{"geometry":{"coordinates":[144.9248037,-37.7656716],"type":"Point"},"properties":{"events":[{"categories":["Music","Theatre"],"eDate":"2025-12-21","eName":"Carols at the Clocktower","genre":null,"price":"$20.00","supports":[],"ticketUrl":null,"time":" 6:30pm"}],"vName":"Clocktower Centre"},"type":"Feature"},{"geometry":{"coordinates":[144.9785611,-37.7965465],"type":"Point"},"properties":{"events":[{"categories":["Music"],"eDate":"2025-12-21","eName":"Upstairs Neighbour End of Year Rap Up","genre":"Hip Hop","price":"$29.10 - 40.30","supports":["HVXEEM"," Fred the Conqueror"," Choc"," Adnam"," Skratcha"," Indi the Giant"," Kill Travis"," Chonzu"],"ticketUrl":null,"time":" 6pm"}],"vName":"Evelyn Hotel"},"type":"Feature"},{"geometry":{"coordinates":[144.9936498,-37.8000264],"type":"Point"},"properties":{"events":[{"categories":["Music"],"eDate":"2025-12-21","eName":"Deadnecks: A Grateful Dead Tribute","genre":"Rock","price":"Free","supports":[],"ticketUrl":null,"time":" 5pm"}],"vName":"Lulie Tavern"},"type":"Feature"},{"geometry":{"coordinates":[144.97711,-37.79833],"type":"Point"},"properties":{"events":[{"categories":["Music"],"eDate":"2025-12-21","eName":"Brian El Dorado & The Tuesday People","genre":"Rock","price":"$15.00","supports":["The Elliotts"," The Moops"],"ticketUrl":null,"time":" 7pm"}],"vName":"Old Bar"},"type":"Feature"},{"geometry":{"coordinates":[144.9615882,-37.7711432],"type":"Point"},"properties":{"events":[{"categories":["Music"],"eDate":"2025-12-21","eName":"Gig For Gaza","genre":null,"price":"$25.00","supports":["more"],"ticketUrl":null,"time":" 4pm"}],"vName":"Retreat Hotel"},"type":"Feature"},{"geometry":{"coordinates":[144.993413,-37.8506652],"type":"Point"},"properties":{"events":[{"categories":["Music"],"eDate":"2025-12-21","eName":"Revolver Sundays","genre":"Electronic","price":"Free","supports":["more"],"ticketUrl":null,"time":" 7am"},{"categories":["Music"],"eDate":"2025-12-21","eName":"Sidney Charles","genre":"Electronic","price":"$32.62 - 47.92","supports":[],"ticketUrl":null,"time":" 9pm"}],"vName":"Revolver Upstairs"},"type":"Feature"},{"geometry":{"coordinates":[145.0013923,-37.7559265],"type":"Point"},"properties":{"events":[{"categories":["Music"],"eDate":"2025-12-21","eName":"Dane Blacklock & The Preacher’s Daughter","genre":"Rock","price":"$28.80","supports":[],"ticketUrl":null,"time":" 8pm"}],"vName":"Shotkickers"},"type":"Feature"},{"geometry":{"coordinates":[144.9879283,-37.7505509],"type":"Point"},"properties":{"events":[{"categories":["Music","Free"],"eDate":"2025-12-21","eName":"Merri Fest ’25","genre":null,"price":"Free","supports":[],"ticketUrl":null,"time":" 3pm"}],"vName":"The Merri Bar"},"type":"Feature"},{"geometry":{"coordinates":[144.9785414,-37.8674567],"type":"Point"},"properties":{"events":[{"categories":["Music"],"eDate":"2025-12-21","eName":"DJ Mike Wasalsky","genre":"Electronic","price":"Free","supports":[],"ticketUrl":null,"time":" 5pm"},{"categories":["Music"],"eDate":"2025-12-21","eName":"Josh Cashman","genre":"Indie","price":"Free","supports":[],"ticketUrl":null,"time":" 7pm"},{"categories":["Music"],"eDate":"2025-12-21","eName":"Tinderbox FEAT: Lemonade","genre":"Rock","price":"Free","supports":[],"ticketUrl":null,"time":" 9pm"}],"vName":"The Vineyard Restaurant & Bar"},"type":"Feature"}],"type":"FeatureCollection"}