{"features":[{"geometry":{"coordinates":[144.9500257,-37.8032773],"type":"Point"},"properties":{"events":[{"categories":["Theatre","Trivia"],"eDate":"2024-03-24","eName":"Dissent: Daley Rangi","genre":null,"price":"$35.00","supports":[],"ticketUrl":null,"time":" 5pm"}],"vName":"Arts House"},"type":"Feature"},{"geometry":{"coordinates":[144.9617018,-37.7704566],"type":"Point"},"properties":{"events":[{"categories":["Music"],"eDate":"2024-03-24","eName":"Dave Hole","genre":"Blues","price":"$53.14","supports":[],"ticketUrl":null,"time":" 2pm"},{"categories":["Music"],"eDate":"2024-03-24","eName":"Alma Zygier & Monique Dimattina: Rhapsody in Blue","genre":"Jazz","price":"$38.86","supports":[],"ticketUrl":null,"time":" 7pm"}],"vName":"Brunswick Ballroom"},"type":"Feature"},{"geometry":{"coordinates":[144.9713425,-37.8128595],"type":"Point"},"properties":{"events":[{"categories":["Music"],"eDate":"2024-03-24","eName":"Cherry Blues: 6v6s","genre":"Blues","price":"Free","supports":[],"ticketUrl":null,"time":" 3pm"}],"vName":"Cherry Bar"},"type":"Feature"},{"geometry":{"coordinates":[144.96564318571427,-37.745964314285715],"type":"Point"},"properties":{"events":[{"categories":["Music"],"eDate":"2024-03-24","eName":"Tuxeedos","genre":"Blues","price":"Free","supports":[],"ticketUrl":null,"time":" 6pm"}],"vName":"Coburg RSL Club"},"type":"Feature"},{"geometry":{"coordinates":[144.9875917,-37.7963837],"type":"Point"},"properties":{"events":[{"categories":["Free","Music"],"eDate":"2024-03-24","eName":"Dan Brodie & The Shadows of Love + J. Taylor Bell & The Ding Dongs","genre":"Country/Folk","price":"Free","supports":[],"ticketUrl":null,"time":" 4pm"}],"vName":"Gem Bar"},"type":"Feature"},{"geometry":{"coordinates":[144.973013,-37.8640582],"type":"Point"},"properties":{"events":[{"categories":["Free","Music"],"eDate":"2024-03-24","eName":"The Chuck Berry Revue","genre":"Blues","price":"Free","supports":[],"ticketUrl":null,"time":" 6pm"}],"vName":"Hotel Esplanade (aka The Espy)"},"type":"Feature"},{"geometry":{"coordinates":[144.8971518,-37.8054274],"type":"Point"},"properties":{"events":[{"categories":["Free","Music"],"eDate":"2024-03-24","eName":"Melbourne Chiptune Academy: March Meetup","genre":null,"price":"Free","supports":[],"ticketUrl":null,"time":" 7pm"}],"vName":"Mamma Chen's"},"type":"Feature"},{"geometry":{"coordinates":[145.3553553,-37.9078552],"type":"Point"},"properties":{"events":[{"categories":["Free","Music"],"eDate":"2024-03-24","eName":"Zak Gully","genre":null,"price":"Free","supports":[],"ticketUrl":null,"time":" 2pm"}],"vName":"Micawber Tavern"},"type":"Feature"},{"geometry":{"coordinates":[145.1538674,-37.7277749],"type":"Point"},"properties":{"events":[{"categories":["Music"],"eDate":"2024-03-24","eName":"Flinders Quartet","genre":"Classical","price":"$45.00","supports":[],"ticketUrl":null,"time":" 2:30pm"}],"vName":"Montsalvat Arts Centre"},"type":"Feature"},{"geometry":{"coordinates":[144.9846126,-37.7989941],"type":"Point"},"properties":{"events":[{"categories":["Music"],"eDate":"2024-03-24","eName":"Liam Wright & His Band","genre":"Country/Folk","price":"$15.00","supports":["Freya Josephine Hollick"," Ellen James"],"ticketUrl":null,"time":" 5pm"}],"vName":"Nighthawks"},"type":"Feature"},{"geometry":{"coordinates":[144.998414,-37.771471],"type":"Point"},"properties":{"events":[{"categories":["Other \"Spoken Word\"","Other \"Poetry & Forums\""],"eDate":"2024-03-24","eName":"Me That You See by Anne Freeman (Book Launch)","genre":null,"price":"$13.30","supports":[],"ticketUrl":null,"time":" 1pm"}],"vName":"Northcote Social Club"},"type":"Feature"},{"geometry":{"coordinates":[144.97711,-37.79833],"type":"Point"},"properties":{"events":[{"categories":["Free","Music"],"eDate":"2024-03-24","eName":"Ruby Lou + Seren","genre":"Acoustic","price":"Free","supports":[],"ticketUrl":null,"time":" 4pm"}],"vName":"Old Bar"},"type":"Feature"},{"geometry":{"coordinates":[145.0142411,-37.7310367],"type":"Point"},"properties":{"events":[{"categories":["Free","Music"],"eDate":"2024-03-24","eName":"Sunday Sunset Sessions","genre":"Jazz","price":"Free","supports":[],"ticketUrl":null,"time":" 6pm"}],"vName":"Ragtime Tavern"},"type":"Feature"},{"geometry":{"coordinates":[144.9631913,-37.7617818],"type":"Point"},"properties":{"events":[{"categories":["Free","Music"],"eDate":"2024-03-24","eName":"Rice On Fire","genre":"Rock","price":"Free","supports":[],"ticketUrl":null,"time":" 2pm"},{"categories":["Free","Music"],"eDate":"2024-03-24","eName":"Kimberly + Liv Mirrington","genre":"Indie","price":"Free","supports":[],"ticketUrl":null,"time":" 8pm"}],"vName":"Ringo Barr"},"type":"Feature"},{"geometry":{"coordinates":[145.001392343033,-37.75592655],"type":"Point"},"properties":{"events":[{"categories":["Music"],"eDate":"2024-03-24","eName":"Big Soap (Live Funk)","genre":"Soul/Funk","price":"$15.00 - 20.00","supports":["Adam Halliwell"],"ticketUrl":null,"time":" 8pm"}],"vName":"Shotkickers"},"type":"Feature"},{"geometry":{"coordinates":[144.9618426,-37.8125531],"type":"Point"},"properties":{"events":[{"categories":["Free","Music","Other \"Food & Drink\""],"eDate":"2024-03-24","eName":"Slow","genre":null,"price":"Free","supports":["Olive Yaah"," Poli Pearl"],"ticketUrl":null,"time":" 5pm"}],"vName":"Whitehart Bar"},"type":"Feature"}],"type":"FeatureCollection"}