{"features":[{"geometry":{"coordinates":[144.9982812,-37.7713296],"type":"Point"},"properties":{"events":[{"categories":["Music"],"eDate":"2026-02-05","eName":"The Artie Styles Quartet","genre":"Jazz","price":"Free","supports":[],"ticketUrl":null,"time":" 9pm"}],"vName":"Bar 303"},"type":"Feature"},{"geometry":{"coordinates":[144.978682,-37.7981225],"type":"Point"},"properties":{"events":[{"categories":["Music","Free"],"eDate":"2026-02-05","eName":"Mya Rogers","genre":null,"price":"Free","supports":[],"ticketUrl":null,"time":" 9pm"}],"vName":"Baxter's Lot"},"type":"Feature"},{"geometry":{"coordinates":[144.9568039,-37.8111442],"type":"Point"},"properties":{"events":[{"categories":["Music"],"eDate":"2026-02-05","eName":"The Jazz Alchemists","genre":"Jazz","price":"$35.00","supports":[],"ticketUrl":null,"time":" 7:30pm"}],"vName":"Bird's Basement"},"type":"Feature"},{"geometry":{"coordinates":[144.9945274,-37.8001115],"type":"Point"},"properties":{"events":[{"categories":["Other \"Food \"","Music","Free"],"eDate":"2026-02-05","eName":"Araminta","genre":null,"price":"Free","supports":[],"ticketUrl":null,"time":" 7:30pm"},{"categories":["Other \"Food \"","Comedy"],"eDate":"2026-02-05","eName":"On The Gags Comedy: Grand Returno","genre":null,"price":"$15.00","supports":[],"ticketUrl":null,"time":" 8pm"}],"vName":"Bodriggy Brewing Company"},"type":"Feature"},{"geometry":{"coordinates":[145.0004166,-37.7612582],"type":"Point"},"properties":{"events":[{"categories":["Free","Music"],"eDate":"2026-02-05","eName":"Billy May (Full Band)","genre":null,"price":"Free","supports":["Darcy Forever"," Felix Worner"],"ticketUrl":null,"time":" 7pm"}],"vName":"Cactus Room"},"type":"Feature"},{"geometry":{"coordinates":[144.9926664,-37.8248893],"type":"Point"},"properties":{"events":[{"categories":["Music"],"eDate":"2026-02-05","eName":"Hazlett","genre":"Rock","price":"$69.90","supports":[],"ticketUrl":null,"time":" 7:30pm"}],"vName":"Corner Hotel"},"type":"Feature"},{"geometry":{"coordinates":[144.9706211,-37.778276],"type":"Point"},"properties":{"events":[{"categories":["Music"],"eDate":"2026-02-05","eName":"Snailgun","genre":"Rock","price":"Free","supports":["The Gurr"," Flocks"],"ticketUrl":null,"time":" 7pm"}],"vName":"Creature Bar"},"type":"Feature"},{"geometry":{"coordinates":[145.0008148,-37.8107158],"type":"Point"},"properties":{"events":[{"categories":["Music"],"eDate":"2026-02-05","eName":"Georgia Triske","genre":"Rock","price":"$15.00","supports":["Kalo"," Samantha Chard"],"ticketUrl":null,"time":" 7pm"}],"vName":"Leadbeater Hotel"},"type":"Feature"},{"geometry":{"coordinates":[144.96084,-37.813514],"type":"Point"},"properties":{"events":[{"categories":["Music"],"eDate":"2026-02-05","eName":"Play Another Slow Jam III","genre":"Soul/Funk","price":"$45.00","supports":[],"ticketUrl":null,"time":" 7:30pm"},{"categories":["Music"],"eDate":"2026-02-05","eName":"The Music of Dr Who with The Western Brothers","genre":"Jazz","price":"$45.00","supports":[],"ticketUrl":null,"time":" 8pm"}],"vName":"Paris Cat Jazz Club"},"type":"Feature"},{"geometry":{"coordinates":[144.9655352,-37.8097696],"type":"Point"},"properties":{"events":[{"categories":["Music"],"eDate":"2026-02-05","eName":"Midsumma Festival: Library Up Late X Creative Acts","genre":"Electronic","price":"$27.00 - 136.00","supports":[],"ticketUrl":null,"time":" 7:30pm"}],"vName":"State Library Victoria"},"type":"Feature"},{"geometry":{"coordinates":[144.9607404,-37.7743469],"type":"Point"},"properties":{"events":[{"categories":["Music"],"eDate":"2026-02-05","eName":"Sumac","genre":"Metal","price":"$73.80","supports":[],"ticketUrl":null,"time":" 7pm"}],"vName":"Stay Gold"},"type":"Feature"},{"geometry":{"coordinates":[144.9984324,-37.7729134],"type":"Point"},"properties":{"events":[{"categories":["Music"],"eDate":"2026-02-05","eName":"Tony J King","genre":"Blues","price":"Free","supports":[],"ticketUrl":null,"time":" 6pm"}],"vName":"Wesley Anne"},"type":"Feature"}],"type":"FeatureCollection"}