{"features":[{"geometry":{"coordinates":[144.9763781,-37.7983136],"type":"Point"},"properties":{"events":[{"categories":["Music"],"eDate":"2025-03-14","eName":"The Big Gig","genre":"Rock","price":"$16.23","supports":["Killstroke"," Drova"],"ticketUrl":null,"time":" 7pm"}],"vName":"Bad Decisions Bar"},"type":"Feature"},{"geometry":{"coordinates":[144.99828116650363,-37.7713296],"type":"Point"},"properties":{"events":[{"categories":["Music"],"eDate":"2025-03-14","eName":"ALPA Reggae Band + Uncle B","genre":"Global","price":"$17.19","supports":[],"ticketUrl":null,"time":" 6pm"}],"vName":"Bar 303"},"type":"Feature"},{"geometry":{"coordinates":[144.978425,-37.79773],"type":"Point"},"properties":{"events":[{"categories":["Free","Music"],"eDate":"2025-03-14","eName":"The Four Scoops","genre":"Jazz","price":"Free","supports":[],"ticketUrl":null,"time":" 6:30pm"},{"categories":["Free","Music"],"eDate":"2025-03-14","eName":"Smoking Vinyl","genre":"Jazz","price":"Free","supports":[],"ticketUrl":null,"time":" 8:30pm"},{"categories":["Music"],"eDate":"2025-03-14","eName":"Humane","genre":"Rock","price":"$17.35","supports":["Chaise Egan"," Abraham Kenny"],"ticketUrl":null,"time":" 8:30pm"}],"vName":"Bar Open"},"type":"Feature"},{"geometry":{"coordinates":[144.978682,-37.7981225],"type":"Point"},"properties":{"events":[{"categories":["Free","Music"],"eDate":"2025-03-14","eName":"Harrisen Hughes","genre":null,"price":"Free","supports":[],"ticketUrl":null,"time":" 9pm"},{"categories":["Music"],"eDate":"2025-03-14","eName":"DJ Nomar Jr","genre":"Electronic","price":"Free","supports":[],"ticketUrl":null,"time":"10pm"}],"vName":"Baxter's Lot"},"type":"Feature"},{"geometry":{"coordinates":[144.98911674151407,-37.79964875],"type":"Point"},"properties":{"events":[{"categories":["Music"],"eDate":"2025-03-14","eName":"Justice For The Damned + Threshold","genre":"Metal","price":"$30.00","supports":[],"ticketUrl":null,"time":" 8pm"}],"vName":"Bendigo Hotel"},"type":"Feature"},{"geometry":{"coordinates":[144.9567859,-37.8111049],"type":"Point"},"properties":{"events":[{"categories":["Music"],"eDate":"2025-03-14","eName":"Movin' Melvin Brown","genre":"Soul/Funk","price":"$65.00","supports":[],"ticketUrl":null,"time":" 6pm"}],"vName":"Bird's Basement"},"type":"Feature"},{"geometry":{"coordinates":[144.9617018,-37.7704566],"type":"Point"},"properties":{"events":[{"categories":["Music"],"eDate":"2025-03-14","eName":"Skerryvore","genre":"Country/Folk","price":"$59.77","supports":[],"ticketUrl":null,"time":" 8:30pm"}],"vName":"Brunswick Ballroom"},"type":"Feature"},{"geometry":{"coordinates":[144.9668096,-37.8133834],"type":"Point"},"properties":{"events":[{"categories":["Comedy"],"eDate":"2025-03-14","eName":"Asian Comedy Showcase","genre":null,"price":"$30.00","supports":[],"ticketUrl":null,"time":" 6pm"}],"vName":"Comedy Republic"},"type":"Feature"},{"geometry":{"coordinates":[144.99266639479475,-37.82488935],"type":"Point"},"properties":{"events":[{"categories":["Music"],"eDate":"2025-03-14","eName":"Ceres","genre":"Rock","price":"$51.10","supports":["Armlock"],"ticketUrl":null,"time":" 8pm"}],"vName":"Corner Hotel"},"type":"Feature"},{"geometry":{"coordinates":[144.950359,-37.8100202],"type":"Point"},"properties":{"events":[{"categories":["Music"],"eDate":"2025-03-14","eName":"Alexisonfire","genre":null,"price":"$119.90","supports":["Underoath"," Gel"],"ticketUrl":null,"time":" 6pm"}],"vName":"Festival Hall"},"type":"Feature"},{"geometry":{"coordinates":[144.96947,-37.816565],"type":"Point"},"properties":{"events":[{"categories":["Music"],"eDate":"2025-03-14","eName":"Dan Sultan","genre":"Country/Folk","price":"$59.95","supports":["Eleanor Jawurlngali"],"ticketUrl":null,"time":" 7:30pm"}],"vName":"Forum Melbourne"},"type":"Feature"},{"geometry":{"coordinates":[144.98535244416098,-37.79426315],"type":"Point"},"properties":{"events":[{"categories":["Music"],"eDate":"2025-03-14","eName":"The Noise","genre":"Rock","price":"$10.00","supports":[],"ticketUrl":null,"time":" 7pm"}],"vName":"Gasometer Hotel"},"type":"Feature"},{"geometry":{"coordinates":[144.9875917,-37.7963837],"type":"Point"},"properties":{"events":[{"categories":["Music"],"eDate":"2025-03-14","eName":"Beat Panic","genre":"Rock","price":"$7.90 - 13.00","supports":["Super X"," Low Monroe & The Fugitives"],"ticketUrl":null,"time":" 7:30pm"}],"vName":"Gem Bar"},"type":"Feature"},{"geometry":{"coordinates":[144.9787445,-37.7967357],"type":"Point"},"properties":{"events":[{"categories":["Music"],"eDate":"2025-03-14","eName":"Interval Fridays: Maruwa + Mordi","genre":"Electronic","price":"$15.00 - 25.00","supports":["Chicago Waffle"," Ham"," Shagalicious"," Shoges"],"ticketUrl":null,"time":"10pm"}],"vName":"Glamorama"},"type":"Feature"},{"geometry":{"coordinates":[144.9679835243618,-37.8201575],"type":"Point"},"properties":{"events":[{"categories":["Music"],"eDate":"2025-03-14","eName":"Nils Frahm","genre":"Classical","price":"$59.00","supports":[],"ticketUrl":null,"time":" 7:30pm"}],"vName":"Hamer Hall (Arts Centre Melbourne)"},"type":"Feature"},{"geometry":{"coordinates":[144.90043927513608,-37.8115247],"type":"Point"},"properties":{"events":[{"categories":["Music"],"eDate":"2025-03-14","eName":"Otomo Yoshihide","genre":"Rock","price":"$30.00","supports":["Tomomi Adachi"," more"],"ticketUrl":null,"time":" 7pm"}],"vName":"Kindred Bandroom"},"type":"Feature"},{"geometry":{"coordinates":[145.0355738,-37.8205529],"type":"Point"},"properties":{"events":[{"categories":["Music"],"eDate":"2025-03-14","eName":"Eamon McNelis'","genre":"Jazz","price":"$25.00 - 30.00","supports":[],"ticketUrl":null,"time":" 8pm"}],"vName":"Lido Jazz Room"},"type":"Feature"},{"geometry":{"coordinates":[144.8971518,-37.8054274],"type":"Point"},"properties":{"events":[{"categories":["Music"],"eDate":"2025-03-14","eName":"Baillie's Bazaar for Unwanted Oddities","genre":null,"price":"$12.00 - 15.00","supports":["Annaliese Rose"," Homeward"],"ticketUrl":null,"time":" 7pm"}],"vName":"Mamma Chen's"},"type":"Feature"},{"geometry":{"coordinates":[144.9659879,-37.8147557],"type":"Point"},"properties":{"events":[{"categories":["Music"],"eDate":"2025-03-14","eName":"Kalya Scintilla","genre":"Experimental","price":"$49.00 - 71.95","supports":[],"ticketUrl":null,"time":" 8pm"}],"vName":"Max Watt's (Melbourne)"},"type":"Feature"},{"geometry":{"coordinates":[144.9786817,-37.8671902],"type":"Point"},"properties":{"events":[{"categories":["Music"],"eDate":"2025-03-14","eName":"Stefan Hauk + Shannon Bourne & The Midnight Fang","genre":"Blues","price":"$35.00 - 45.00","supports":[],"ticketUrl":null,"time":" 7pm"}],"vName":"Memo Music Hall"},"type":"Feature"},{"geometry":{"coordinates":[144.9712356,-37.812902],"type":"Point"},"properties":{"events":[{"categories":["Comedy"],"eDate":"2025-03-14","eName":"Basement Comedy Club","genre":null,"price":"$24.00","supports":[],"ticketUrl":null,"time":" 8pm"}],"vName":"Morris House"},"type":"Feature"},{"geometry":{"coordinates":[144.998414,-37.771471],"type":"Point"},"properties":{"events":[{"categories":["Music"],"eDate":"2025-03-14","eName":"Sorcha Richardson","genre":"Indie","price":"$63.00","supports":[],"ticketUrl":null,"time":" 8:30pm"}],"vName":"Northcote Social Club"},"type":"Feature"},{"geometry":{"coordinates":[144.97711,-37.79833],"type":"Point"},"properties":{"events":[{"categories":["Music"],"eDate":"2025-03-14","eName":"Billy Cart","genre":"Rock","price":"$10.00 - 15.00","supports":["Wilding"," Liam Watts"],"ticketUrl":null,"time":" 8pm"}],"vName":"Old Bar"},"type":"Feature"},{"geometry":{"coordinates":[144.9605705,-37.8132486],"type":"Point"},"properties":{"events":[{"categories":["Music"],"eDate":"2025-03-14","eName":"Not So Big Band: A Tribute To Kind of Blue with Gianni Marinucci","genre":"Jazz","price":"$45.00","supports":[],"ticketUrl":null,"time":" 6pm"},{"categories":["Music"],"eDate":"2025-03-14","eName":"The Music of Mobley","genre":"Jazz","price":"$45.00","supports":[],"ticketUrl":null,"time":" 6:30pm"},{"categories":["Music"],"eDate":"2025-03-14","eName":"All I Ask: Elly Poletti Sings Adele","genre":"Jazz","price":"$48.00","supports":[],"ticketUrl":null,"time":" 9pm"},{"categories":["Music"],"eDate":"2025-03-14","eName":"Mel Searle: An Ella Fitzgerald Tribute with Louis & Ella Duets","genre":"Jazz","price":"$45.00","supports":[],"ticketUrl":null,"time":" 9:30pm"}],"vName":"Paris Cat Jazz Club"},"type":"Feature"},{"geometry":{"coordinates":[144.90239079583333,-37.79990865],"type":"Point"},"properties":{"events":[{"categories":["Comedy","Trivia"],"eDate":"2025-03-14","eName":"Pride Drag Bingo","genre":null,"price":"$10.00","supports":[],"ticketUrl":null,"time":" 7pm"}],"vName":"Pride Of Our Footscray Community Bar"},"type":"Feature"},{"geometry":{"coordinates":[144.9828155,-37.8567825],"type":"Point"},"properties":{"events":[{"categories":["Music"],"eDate":"2025-03-14","eName":"Chase Rice","genre":"Country/Folk","price":"$71.30","supports":["Bella Mackenzie"],"ticketUrl":null,"time":" 7:30pm"}],"vName":"Prince Bandroom"},"type":"Feature"},{"geometry":{"coordinates":[145.35345070507591,-37.9100746],"type":"Point"},"properties":{"events":[{"categories":["Music"],"eDate":"2025-03-14","eName":"The Wet Whistles","genre":"Country/Folk","price":"$29.90","supports":["Drunk Mums"," Mannequin Death Squad"],"ticketUrl":null,"time":" 7pm"}],"vName":"Sooki Lounge"},"type":"Feature"},{"geometry":{"coordinates":[144.9607404,-37.7743469],"type":"Point"},"properties":{"events":[{"categories":["Music"],"eDate":"2025-03-14","eName":"Nancy & The Jam Fancys","genre":"Rock","price":"$17.48","supports":["Big Cat"," The Whyb Project"],"ticketUrl":null,"time":" 7pm"},{"categories":["Music"],"eDate":"2025-03-14","eName":"AM//PM Emo Night: Alexisonfire Afterparty","genre":"Punk","price":"$23.75","supports":["Wade Macneil"],"ticketUrl":null,"time":"10pm"}],"vName":"Stay Gold"},"type":"Feature"},{"geometry":{"coordinates":[144.9657057,-37.8061581],"type":"Point"},"properties":{"events":[{"categories":["Music"],"eDate":"2025-03-14","eName":"Rain Dogs","genre":"Rock","price":"$22.85","supports":["Linen"," NPCEDE"," Vanessa Worm"],"ticketUrl":null,"time":" 8pm"}],"vName":"The Curtin"},"type":"Feature"},{"geometry":{"coordinates":[144.9840598,-37.7827901],"type":"Point"},"properties":{"events":[{"categories":["Music"],"eDate":"2025-03-14","eName":"Mikelangelo & The Long Lost Friends","genre":null,"price":"$28.00","supports":["Anushka in the Woods"],"ticketUrl":null,"time":" 8pm"}],"vName":"The Fitzroy Pinnacle"},"type":"Feature"},{"geometry":{"coordinates":[144.958676,-37.7669571],"type":"Point"},"properties":{"events":[{"categories":["Music"],"eDate":"2025-03-14","eName":"Grace Knight","genre":"Jazz","price":"$55.00","supports":[],"ticketUrl":null,"time":" 8pm"}],"vName":"The Jazzlab"},"type":"Feature"},{"geometry":{"coordinates":[144.9708437,-37.7973184],"type":"Point"},"properties":{"events":[{"categories":["Free","Music"],"eDate":"2025-03-14","eName":"Mark Morand's Jazz Fridays","genre":"Jazz","price":"Free","supports":[],"ticketUrl":null,"time":" 6:30pm"},{"categories":["Dance"],"eDate":"2025-03-14","eName":"Bauhaus Burlesque","genre":null,"price":"$37.48","supports":[],"ticketUrl":null,"time":" 8:30pm"}],"vName":"The Motley Bauhaus"},"type":"Feature"},{"geometry":{"coordinates":[144.9830837,-37.7988316],"type":"Point"},"properties":{"events":[{"categories":["Music"],"eDate":"2025-03-14","eName":"Laurel","genre":"Pop","price":"$66.17","supports":[],"ticketUrl":null,"time":" 7:30pm"},{"categories":["Music"],"eDate":"2025-03-14","eName":"3065 Partygirl","genre":"Electronic","price":"$10.00","supports":["Dirty Versachi"],"ticketUrl":null,"time":"11pm"}],"vName":"The Night Cat"},"type":"Feature"},{"geometry":{"coordinates":[144.9622,-37.7679857],"type":"Point"},"properties":{"events":[{"categories":["Free","Music"],"eDate":"2025-03-14","eName":"Big Band Frequency","genre":"Jazz","price":"Free","supports":[],"ticketUrl":null,"time":" 8pm"}],"vName":"The Penny Black"},"type":"Feature"},{"geometry":{"coordinates":[144.9651425,-37.8119429],"type":"Point"},"properties":{"events":[{"categories":["Other \"Cabaret\""],"eDate":"2025-03-14","eName":"In Bed With Amy & Friends","genre":null,"price":"$43.86","supports":[],"ticketUrl":null,"time":" 7:30pm"}],"vName":"The Toff In Town"},"type":"Feature"},{"geometry":{"coordinates":[144.9846126,-37.7989941],"type":"Point"},"properties":{"events":[{"categories":["Music"],"eDate":"2025-03-14","eName":"Benny The Greek","genre":"Hip Hop","price":"$16.35 - 20.40","supports":["Obi Ill Terrors"," Peter James"],"ticketUrl":null,"time":" 8pm"},{"categories":["Music"],"eDate":"2025-03-14","eName":"Grace Cummings","genre":"Rock","price":"$44.40","supports":["Palm Springs"," Laura Norda"],"ticketUrl":null,"time":" 8:30pm"}],"vName":"The Tote Hotel"},"type":"Feature"},{"geometry":{"coordinates":[144.2195296,-37.0651041],"type":"Point"},"properties":{"events":[{"categories":["Music"],"eDate":"2025-03-14","eName":"Ruthie Foster Heartshine Australian Tour 2025","genre":"Blues","price":"$82.15","supports":[],"ticketUrl":null,"time":" 7pm"}],"vName":"Theatre Royal Castlemaine"},"type":"Feature"},{"geometry":{"coordinates":[144.9983987,-37.7729204],"type":"Point"},"properties":{"events":[{"categories":["Music"],"eDate":"2025-03-14","eName":"Puttin' on the Spritz","genre":"Jazz","price":"$30.00","supports":[],"ticketUrl":null,"time":" 6pm"},{"categories":["Music"],"eDate":"2025-03-14","eName":"Rhys Thompson","genre":"Country/Folk","price":"$22.44","supports":["Yours"," Georgina"],"ticketUrl":null,"time":" 8pm"}],"vName":"Wesley Anne"},"type":"Feature"},{"geometry":{"coordinates":[144.9827552,-37.8041303],"type":"Point"},"properties":{"events":[{"categories":["Free","Music"],"eDate":"2025-03-14","eName":"Pretty Uglys","genre":"Punk","price":"Free","supports":["Stimpies"],"ticketUrl":null,"time":" 6pm"}],"vName":"Yah Yah's"},"type":"Feature"}],"type":"FeatureCollection"}