{"features":[{"geometry":{"coordinates":[144.9762881,-37.798246],"type":"Point"},"properties":{"events":[{"categories":["Music","Other \"Dance \"","Other \"Wrestling\""],"eDate":"2025-10-31","eName":"Halloween II: Body Harvest Night 1","genre":"Metal","price":"$16.31 - 25.00","supports":["Tiger Driver"," Project: Ultimate Satan"," Parmy Dhillon"," Bambi Valentine"],"ticketUrl":null,"time":" 7pm"}],"vName":"Bad Decisions Bar"},"type":"Feature"},{"geometry":{"coordinates":[144.978682,-37.7981225],"type":"Point"},"properties":{"events":[{"categories":["Free","Music"],"eDate":"2025-10-31","eName":"Harrisen Hughes","genre":null,"price":"Free","supports":[],"ticketUrl":null,"time":" 9pm"}],"vName":"Baxter's Lot"},"type":"Feature"},{"geometry":{"coordinates":[144.9891167,-37.7996488],"type":"Point"},"properties":{"events":[{"categories":["Music"],"eDate":"2025-10-31","eName":"Halloween At The Bendigo Hotel: The Best Of Electric Wizard Performed By Isua","genre":"Metal","price":"$33.70","supports":["Burial Pit"," Ghostsmoker"],"ticketUrl":null,"time":" 8pm"}],"vName":"Bendigo Hotel"},"type":"Feature"},{"geometry":{"coordinates":[144.9568039,-37.8111442],"type":"Point"},"properties":{"events":[{"categories":["Music"],"eDate":"2025-10-31","eName":"The Burt Bacharach Songbook","genre":"Jazz","price":"$40.00","supports":[],"ticketUrl":null,"time":" 6pm"}],"vName":"Bird's Basement"},"type":"Feature"},{"geometry":{"coordinates":[144.9552495,-37.8146155],"type":"Point"},"properties":{"events":[{"categories":["Music"],"eDate":"2025-10-31","eName":"Nerve Melbourne 2025","genre":"Electronic","price":"$11.67 - 30.00","supports":[],"ticketUrl":null,"time":"10pm"}],"vName":"Brown Alley"},"type":"Feature"},{"geometry":{"coordinates":[144.9617083,-37.7704205],"type":"Point"},"properties":{"events":[{"categories":["Free","Music"],"eDate":"2025-10-31","eName":"The 3rd Annual Clever/Scary Halloween Party","genre":null,"price":"Free","supports":[],"ticketUrl":null,"time":" 8pm"}],"vName":"Brunswick Artists' Bar"},"type":"Feature"},{"geometry":{"coordinates":[144.9617083,-37.7704205],"type":"Point"},"properties":{"events":[{"categories":["Music"],"eDate":"2025-10-31","eName":"Monstr: The Best of MTV Unplugged","genre":null,"price":"$54.67","supports":["Errin Kelly"],"ticketUrl":null,"time":" 6:30pm"},{"categories":["Music"],"eDate":"2025-10-31","eName":"MONSTR: The Songs Of MTV","genre":"Rock","price":"$54.67","supports":[],"ticketUrl":null,"time":" 8:30pm"}],"vName":"Brunswick Ballroom"},"type":"Feature"},{"geometry":{"coordinates":[145.0004166,-37.7612582],"type":"Point"},"properties":{"events":[{"categories":["Music"],"eDate":"2025-10-31","eName":"Cacoween","genre":null,"price":"$20.00 - 25.00","supports":["Super X"," Bughunt"," Strange Kind Of Future"," Winternationale"],"ticketUrl":null,"time":" 7pm"}],"vName":"Cactus Room"},"type":"Feature"},{"geometry":{"coordinates":[145.0002585,-37.7592368],"type":"Point"},"properties":{"events":[{"categories":["Music"],"eDate":"2025-10-31","eName":"Halloween at Gummo","genre":null,"price":"$15.00","supports":["Hormones"," LXRP"," Super Tart"],"ticketUrl":null,"time":" 8pm"}],"vName":"Cafe Gummo"},"type":"Feature"},{"geometry":{"coordinates":[144.9713425,-37.8128595],"type":"Point"},"properties":{"events":[{"categories":["Music"],"eDate":"2025-10-31","eName":"OASIS Pre & Post Drinks Party","genre":"Rock","price":"$20.00","supports":[],"ticketUrl":null,"time":" 2pm"},{"categories":["Music"],"eDate":"2025-10-31","eName":"Megalomania: The Australian Black Sabbath Tribute Show","genre":"Metal","price":"$22.59","supports":[],"ticketUrl":null,"time":" 7pm"}],"vName":"Cherry Bar"},"type":"Feature"},{"geometry":{"coordinates":[144.9926664,-37.8248893],"type":"Point"},"properties":{"events":[{"categories":["Music"],"eDate":"2025-10-31","eName":"Boom Crash Opera + Models","genre":"Rock","price":"$65.00","supports":[],"ticketUrl":null,"time":" 8pm"}],"vName":"Corner Hotel"},"type":"Feature"},{"geometry":{"coordinates":[144.1430697,-37.3414953],"type":"Point"},"properties":{"events":[{"categories":["Theatre"],"eDate":"2025-10-31","eName":"Sass & Secrets: Halloween Special","genre":null,"price":"Free","supports":[],"ticketUrl":null,"time":" 5:30pm"}],"vName":"Daylesford Hotel"},"type":"Feature"},{"geometry":{"coordinates":[144.9627513,-37.760963],"type":"Point"},"properties":{"events":[{"categories":["Music"],"eDate":"2025-10-31","eName":"Steamboat Whistlers","genre":"Jazz","price":"Free","supports":[],"ticketUrl":null,"time":" 8pm"}],"vName":"Edinburgh Castle Hotel"},"type":"Feature"},{"geometry":{"coordinates":[144.9489214,-37.8106039],"type":"Point"},"properties":{"events":[{"categories":["Music"],"eDate":"2025-10-31","eName":"Treaty Oak Revival","genre":"Country/Folk","price":"Free","supports":["Wade Forster"],"ticketUrl":null,"time":" 7pm"}],"vName":"Festival Hall"},"type":"Feature"},{"geometry":{"coordinates":[144.9875792,-37.7963739],"type":"Point"},"properties":{"events":[{"categories":["Music"],"eDate":"2025-10-31","eName":"Halloween: Creeping Fearwater Survival + Crystal Lake Counselors","genre":"Rock","price":"$18.10","supports":[],"ticketUrl":null,"time":" 8:30pm"}],"vName":"Gem Bar"},"type":"Feature"},{"geometry":{"coordinates":[144.983442,-37.804851],"type":"Point"},"properties":{"events":[{"categories":["Music"],"eDate":"2025-10-31","eName":"Ritual Systems","genre":"Electronic","price":"Free","supports":["Arsam Samadi"," R Hunter"," Solar Logos Sect"," edm"," Darcy Justice"," Tiaki"," DJ Scar"],"ticketUrl":null,"time":" 8pm"}],"vName":"Grace Darling Hotel"},"type":"Feature"},{"geometry":{"coordinates":[144.973013,-37.8640582],"type":"Point"},"properties":{"events":[{"categories":["Music"],"eDate":"2025-10-31","eName":"Club Gaga: Halloween Party","genre":"Pop","price":"$14.80 - 22.95","supports":[],"ticketUrl":null,"time":" 9pm"}],"vName":"Hotel Esplanade (aka The Espy)"},"type":"Feature"},{"geometry":{"coordinates":[145.0314658,-37.8067273],"type":"Point"},"properties":{"events":[{"categories":["Music"],"eDate":"2025-10-31","eName":"Kew Court House Live: Stella Anning","genre":null,"price":"$20.00","supports":[],"ticketUrl":null,"time":" 7:30pm"}],"vName":"Kew Court House"},"type":"Feature"},{"geometry":{"coordinates":[144.8984802,-37.8111559],"type":"Point"},"properties":{"events":[{"categories":["Music"],"eDate":"2025-10-31","eName":"Felicity Urquhart & Josh Cunningham","genre":"Country/Folk","price":"$45.00","supports":[],"ticketUrl":null,"time":" 7pm"},{"categories":["Music"],"eDate":"2025-10-31","eName":"Felicity Urquhart & Josh Cunningham","genre":"Country/Folk","price":"$45.00","supports":[],"ticketUrl":null,"time":" 7:30pm"}],"vName":"Kindred Bandroom"},"type":"Feature"},{"geometry":{"coordinates":[144.976354,-37.798248],"type":"Point"},"properties":{"events":[{"categories":["Music","Other \"Dance \""],"eDate":"2025-10-31","eName":"Doom Gen Presents: Halloween Hell Rave","genre":"Electronic","price":"$25.00 - 45.00","supports":[],"ticketUrl":null,"time":" 9pm"}],"vName":"Laundry Bar"},"type":"Feature"},{"geometry":{"coordinates":[145.0008148,-37.8107158],"type":"Point"},"properties":{"events":[{"categories":["Music"],"eDate":"2025-10-31","eName":"Halloween for Humanity","genre":"Rock","price":"$12.75","supports":[],"ticketUrl":null,"time":" 8pm"}],"vName":"Leadbeater Hotel"},"type":"Feature"},{"geometry":{"coordinates":[145.0355738,-37.8205529],"type":"Point"},"properties":{"events":[{"categories":["Music"],"eDate":"2025-10-31","eName":"The Michelle Nicolle Band","genre":"Jazz","price":"$27.00 - 32.00","supports":[],"ticketUrl":null,"time":" 8pm"}],"vName":"Lido Jazz Room"},"type":"Feature"},{"geometry":{"coordinates":[144.9658499,-37.8147453],"type":"Point"},"properties":{"events":[{"categories":["Music"],"eDate":"2025-10-31","eName":"Torren Foot + Airwolf Paradise","genre":"Electronic","price":"$44.90","supports":[],"ticketUrl":null,"time":" 8pm"}],"vName":"Max Watt's (Melbourne)"},"type":"Feature"},{"geometry":{"coordinates":[144.9675876,-37.8240849],"type":"Point"},"properties":{"events":[{"categories":["Other \"Dance \""],"eDate":"2025-10-31","eName":"Trick or Treat","genre":null,"price":"$60.00","supports":[],"ticketUrl":null,"time":" 6pm"}],"vName":"Melbourne Recital Centre"},"type":"Feature"},{"geometry":{"coordinates":[144.9790251,-37.8675008],"type":"Point"},"properties":{"events":[{"categories":["Music"],"eDate":"2025-10-31","eName":"The Rocky Horror Picture Show Soundtrack","genre":"Jazz","price":"$40.00 - 50.00","supports":[],"ticketUrl":null,"time":" 7pm"}],"vName":"Memo Music Hall"},"type":"Feature"},{"geometry":{"coordinates":[144.998414,-37.771471],"type":"Point"},"properties":{"events":[{"categories":["Music"],"eDate":"2025-10-31","eName":"Sienna Thornton","genre":"Indie","price":"$20.00 - 40.00","supports":["Punko"," Ostraaly"],"ticketUrl":null,"time":" 7:30pm"}],"vName":"Northcote Social Club"},"type":"Feature"},{"geometry":{"coordinates":[144.97711,-37.79833],"type":"Point"},"properties":{"events":[{"categories":["Music"],"eDate":"2025-10-31","eName":"Hearts & Rockets Halloween Party","genre":"Rock","price":"Free","supports":[],"ticketUrl":null,"time":" 8pm"}],"vName":"Old Bar"},"type":"Feature"},{"geometry":{"coordinates":[144.96084,-37.813514],"type":"Point"},"properties":{"events":[{"categories":["Music"],"eDate":"2025-10-31","eName":"Rachel Ross Quintet","genre":"Jazz","price":"$45.00","supports":[],"ticketUrl":null,"time":" 6pm"},{"categories":["Music"],"eDate":"2025-10-31","eName":"Pat Powell sings Nat King Cole","genre":"Jazz","price":"$45.00","supports":[],"ticketUrl":null,"time":" 6:30pm"},{"categories":["Music"],"eDate":"2025-10-31","eName":"No Regrets: The Edith Piaf Story with Nikki Nouveau","genre":"Jazz","price":"$48.00","supports":[],"ticketUrl":null,"time":" 9pm"},{"categories":["Music"],"eDate":"2025-10-31","eName":"Phoebe Sena Presents Love Deluxe: The Sade Tribute show","genre":"R&B","price":"Free","supports":[],"ticketUrl":null,"time":" 9:30pm"}],"vName":"Paris Cat Jazz Club"},"type":"Feature"},{"geometry":{"coordinates":[144.9741326,-37.8619943],"type":"Point"},"properties":{"events":[{"categories":["Music"],"eDate":"2025-10-31","eName":"Azymuth + Sabrina Malheiros","genre":"Jazz","price":"$79.90","supports":[],"ticketUrl":null,"time":" 7pm"}],"vName":"Prince Bandroom"},"type":"Feature"},{"geometry":{"coordinates":[144.9583409,-37.7664168],"type":"Point"},"properties":{"events":[{"categories":["Music","Comedy","Theatre","Other \"Cabaret\""],"eDate":"2025-10-31","eName":"Stupid Fuck the Silly Clown: Halloween Special","genre":"Electronic","price":"$27.40 - 32.90","supports":[],"ticketUrl":null,"time":" 6pm"}],"vName":"Quadraphonic Club"},"type":"Feature"},{"geometry":{"coordinates":[144.9607404,-37.7743469],"type":"Point"},"properties":{"events":[{"categories":["Music"],"eDate":"2025-10-31","eName":"Halloween Crazy At Stay Gold: Nightmare Fuel","genre":"Metal","price":"$25.33","supports":["Phantom Panda Power Wizard Master Smasher"," Chief Whip"],"ticketUrl":null,"time":" 7pm"},{"categories":["Music"],"eDate":"2025-10-31","eName":"Taking Back Saturday Halloween: Emo & Pop Punk Party","genre":"Punk","price":"$17.85 - 29.60","supports":[],"ticketUrl":null,"time":"11pm"}],"vName":"Stay Gold"},"type":"Feature"},{"geometry":{"coordinates":[144.9657057,-37.8061581],"type":"Point"},"properties":{"events":[{"categories":["Music"],"eDate":"2025-10-31","eName":"Riff Raff: 70s Bon Scott Era AC/DC Live Show","genre":"Rock","price":"$27.95","supports":[],"ticketUrl":null,"time":" 8pm"}],"vName":"The Curtin"},"type":"Feature"},{"geometry":{"coordinates":[144.9770425,-37.8588717],"type":"Point"},"properties":{"events":[{"categories":["Music"],"eDate":"2025-10-31","eName":"MD Duo + DJ Bec","genre":"Acoustic","price":"Free","supports":[],"ticketUrl":null,"time":" 9pm"}],"vName":"The Fifth Province"},"type":"Feature"},{"geometry":{"coordinates":[144.9463641,-37.8047757],"type":"Point"},"properties":{"events":[{"categories":["Music"],"eDate":"2025-10-31","eName":"The Resignators","genre":"Punk","price":"$16.35","supports":[],"ticketUrl":null,"time":" 8pm"}],"vName":"The Last Chance Rock & Roll Bar"},"type":"Feature"},{"geometry":{"coordinates":[144.996838,-37.7794356],"type":"Point"},"properties":{"events":[{"categories":["Music"],"eDate":"2025-10-31","eName":"Matt Malone & The Holy Spirits + Esther Rivers (Halloween Show)","genre":"Blues","price":"$16.66","supports":[],"ticketUrl":null,"time":" 8pm"}],"vName":"The Merri Creek Tavern"},"type":"Feature"},{"geometry":{"coordinates":[144.9708437,-37.7973184],"type":"Point"},"properties":{"events":[{"categories":["Theatre","Other \"Art \""],"eDate":"2025-10-31","eName":"Whisky Falls Presents: The Redhaus","genre":null,"price":"$40.52 - 67.47","supports":[],"ticketUrl":null,"time":" 7:30pm"},{"categories":["Free","Comedy"],"eDate":"2025-10-31","eName":"Script Jam","genre":null,"price":"Free","supports":[],"ticketUrl":null,"time":" 9:45pm"}],"vName":"The Motley Bauhaus"},"type":"Feature"},{"geometry":{"coordinates":[145.1818891,-37.8163371],"type":"Point"},"properties":{"events":[{"categories":["Comedy"],"eDate":"2025-10-31","eName":"Tom Gleeson: Out of Touch","genre":null,"price":"$64.90","supports":[],"ticketUrl":null,"time":" 6:30pm"},{"categories":["Music"],"eDate":"2025-10-31","eName":"A Night with Tina","genre":"Soul/Funk","price":"$65.00","supports":[],"ticketUrl":null,"time":" 8:30pm"}],"vName":"The Round"},"type":"Feature"},{"geometry":{"coordinates":[144.9998797,-37.7616512],"type":"Point"},"properties":{"events":[{"categories":["Music"],"eDate":"2025-10-31","eName":"Simon Phillips","genre":"Acoustic","price":"Free","supports":[],"ticketUrl":null,"time":" 8pm"}],"vName":"The Thornbury Local"},"type":"Feature"},{"geometry":{"coordinates":[144.9651425,-37.8119429],"type":"Point"},"properties":{"events":[{"categories":["Music"],"eDate":"2025-10-31","eName":"PULSE Presents: The Sound Of The Underground","genre":"Electronic","price":"$23.46","supports":[],"ticketUrl":null,"time":"11pm"}],"vName":"The Toff In Town"},"type":"Feature"},{"geometry":{"coordinates":[144.9769451,-37.8055776],"type":"Point"},"properties":{"events":[{"categories":["Music"],"eDate":"2025-10-31","eName":"Malicy (Halloween Show)","genre":"Metal","price":"$10.00 - 17.85","supports":["Monroe"," Projectile Dysfunction"," Valenta"],"ticketUrl":null,"time":" 8pm"}],"vName":"The Workers Club"},"type":"Feature"}],"type":"FeatureCollection"}