{"features":[{"geometry":{"coordinates":[144.9982812,-37.7713296],"type":"Point"},"properties":{"events":[{"categories":["Music"],"eDate":"2026-01-23","eName":"Tangled Orbits","genre":"Jazz","price":"Free","supports":[],"ticketUrl":null,"time":" 8pm"}],"vName":"Bar 303"},"type":"Feature"},{"geometry":{"coordinates":[144.978682,-37.7981225],"type":"Point"},"properties":{"events":[{"categories":["Free","Music"],"eDate":"2026-01-23","eName":"Woody Samson","genre":null,"price":"Free","supports":[],"ticketUrl":null,"time":" 9pm"}],"vName":"Baxter's Lot"},"type":"Feature"},{"geometry":{"coordinates":[144.9568039,-37.8111442],"type":"Point"},"properties":{"events":[{"categories":["Music"],"eDate":"2026-01-23","eName":"The Australian Joe Cocker Show","genre":"Rock","price":"$40.00","supports":[],"ticketUrl":null,"time":" 7:30pm"}],"vName":"Bird's Basement"},"type":"Feature"},{"geometry":{"coordinates":[145.0002585,-37.7592368],"type":"Point"},"properties":{"events":[{"categories":["Music"],"eDate":"2026-01-23","eName":"Dolls","genre":null,"price":"$15.00","supports":["Bughunt"," Hail Mary Jane"],"ticketUrl":null,"time":" 8pm"}],"vName":"Cafe Gummo"},"type":"Feature"},{"geometry":{"coordinates":[144.9248037,-37.7656716],"type":"Point"},"properties":{"events":[{"categories":["Other \"Dance \""],"eDate":"2026-01-23","eName":"The Western Ballet Project presents Mary Stuart: The Escape From Loch Leven","genre":null,"price":"$50.00","supports":[],"ticketUrl":null,"time":" 6:30pm"}],"vName":"Clocktower Centre"},"type":"Feature"},{"geometry":{"coordinates":[144.9501312,-37.8042459],"type":"Point"},"properties":{"events":[{"categories":["Comedy"],"eDate":"2026-01-23","eName":"Comedy Party 3 @ Club Voltaire","genre":null,"price":"$11.90","supports":[],"ticketUrl":null,"time":" 9pm"}],"vName":"Club Voltaire"},"type":"Feature"},{"geometry":{"coordinates":[144.9926664,-37.8248893],"type":"Point"},"properties":{"events":[{"categories":["Music"],"eDate":"2026-01-23","eName":"Fly By Midnight","genre":"Indie","price":"$59.90","supports":["Charlie Pittman"],"ticketUrl":null,"time":" 8:30pm"}],"vName":"Corner Hotel"},"type":"Feature"},{"geometry":{"coordinates":[144.9627513,-37.760963],"type":"Point"},"properties":{"events":[{"categories":["Free","Music"],"eDate":"2026-01-23","eName":"Tim Scanlan & Mana Okubo","genre":null,"price":"Free","supports":[],"ticketUrl":null,"time":" 8pm"}],"vName":"Edinburgh Castle Hotel"},"type":"Feature"},{"geometry":{"coordinates":[144.9787378,-37.7954205],"type":"Point"},"properties":{"events":[{"categories":["Music"],"eDate":"2026-01-23","eName":"Interval: D Stone + Jex Opolis","genre":"Electronic","price":"$15.00 - 25.00","supports":["Bethany"," Char"," Kovach"," Lilian"],"ticketUrl":null,"time":"10pm"}],"vName":"Glamorama"},"type":"Feature"},{"geometry":{"coordinates":[144.983442,-37.804851],"type":"Point"},"properties":{"events":[{"categories":["Music"],"eDate":"2026-01-23","eName":"Inter.Sonix 07","genre":null,"price":"$25.00 - 30.00","supports":["Jules Reidy"," Enter"," Jean-Philippe Gross"],"ticketUrl":null,"time":" 8pm"}],"vName":"Grace Darling Hotel"},"type":"Feature"},{"geometry":{"coordinates":[145.0008148,-37.8107158],"type":"Point"},"properties":{"events":[{"categories":["Music"],"eDate":"2026-01-23","eName":"Epoch: A Odyssey in Sound","genre":"Metal","price":"$23.75","supports":[],"ticketUrl":null,"time":" 7pm"}],"vName":"Leadbeater Hotel"},"type":"Feature"},{"geometry":{"coordinates":[144.9546069,-37.8211068],"type":"Point"},"properties":{"events":[{"categories":["Music"],"eDate":"2026-01-23","eName":"Seafaring Strangers","genre":null,"price":"$25.00","supports":[],"ticketUrl":null,"time":" 7pm"}],"vName":"Mission to Seafarers"},"type":"Feature"},{"geometry":{"coordinates":[144.9833121,-37.8062477],"type":"Point"},"properties":{"events":[{"categories":["Music"],"eDate":"2026-01-23","eName":"Psychedelic Bush Disco x Flow Music Presents: Nhii + HOVR","genre":"Electronic","price":"$25.00 - 35.00","supports":["Deep Ghosh"," The Huntress"],"ticketUrl":null,"time":"10pm"}],"vName":"New Guernica"},"type":"Feature"},{"geometry":{"coordinates":[144.998414,-37.771471],"type":"Point"},"properties":{"events":[{"categories":["Music"],"eDate":"2026-01-23","eName":"Romy Vager","genre":null,"price":"$30.00","supports":["Milly Strange"," No Turns"],"ticketUrl":null,"time":" 8pm"}],"vName":"Northcote Social Club"},"type":"Feature"},{"geometry":{"coordinates":[144.97711,-37.79833],"type":"Point"},"properties":{"events":[{"categories":["Music"],"eDate":"2026-01-23","eName":"Acid Arrow","genre":null,"price":"$23.50","supports":["Team Love"," Jess Parker"],"ticketUrl":null,"time":" 8pm"}],"vName":"Old Bar"},"type":"Feature"},{"geometry":{"coordinates":[144.96084,-37.813514],"type":"Point"},"properties":{"events":[{"categories":["Music"],"eDate":"2026-01-23","eName":"The Musical Evolution of Miles Davis","genre":"Jazz","price":"$45.00","supports":[],"ticketUrl":null,"time":" 6pm"},{"categories":["Music"],"eDate":"2026-01-23","eName":"Margie Lou Dyer Quintet","genre":"Jazz","price":"$45.00","supports":[],"ticketUrl":null,"time":" 6:30pm"},{"categories":["Music"],"eDate":"2026-01-23","eName":"Not So Big Band: The Music of Frank Sinatra (with Ben McGill)","genre":"Jazz","price":"$48.00","supports":[],"ticketUrl":null,"time":" 9pm"},{"categories":["Music"],"eDate":"2026-01-23","eName":"Jazz Messengers: The Music Of Blue Note With Richard Pavlidis","genre":"Jazz","price":"$45.00","supports":[],"ticketUrl":null,"time":" 9:30pm"}],"vName":"Paris Cat Jazz Club"},"type":"Feature"},{"geometry":{"coordinates":[145.0013923,-37.7559265],"type":"Point"},"properties":{"events":[{"categories":["Music"],"eDate":"2026-01-23","eName":"Malcura","genre":null,"price":"$20.00","supports":["Maggie Alley"," Mishto! Collective"," Family Dog"],"ticketUrl":null,"time":" 7pm"}],"vName":"Shotkickers"},"type":"Feature"},{"geometry":{"coordinates":[145.1818891,-37.8163371],"type":"Point"},"properties":{"events":[{"categories":["Comedy","Other \"Spoken Word, Poetry \""],"eDate":"2026-01-23","eName":"The Silly Stories Spectacular (Early Session)","genre":null,"price":"$35.00","supports":[],"ticketUrl":null,"time":"10am"},{"categories":["Comedy","Other \"Spoken Word, Poetry \""],"eDate":"2026-01-23","eName":"The Silly Stories Spectacular","genre":null,"price":"$35.00","supports":[],"ticketUrl":null,"time":" 4pm"}],"vName":"The Round"},"type":"Feature"},{"geometry":{"coordinates":[144.9651425,-37.8119429],"type":"Point"},"properties":{"events":[{"categories":["Music"],"eDate":"2026-01-23","eName":"Marsh Long","genre":"Electronic","price":"$17.34","supports":["Chris Vav"," Tranq"],"ticketUrl":null,"time":" 9pm"}],"vName":"The Toff In Town"},"type":"Feature"},{"geometry":{"coordinates":[144.9661635,-37.8176298],"type":"Point"},"properties":{"events":[{"categories":["Free","Music"],"eDate":"2026-01-23","eName":"DJ Lady Erica","genre":"Electronic","price":"Free","supports":[],"ticketUrl":null,"time":" 9pm"}],"vName":"Wax Music Lounge"},"type":"Feature"},{"geometry":{"coordinates":[144.9984324,-37.7729134],"type":"Point"},"properties":{"events":[{"categories":["Music"],"eDate":"2026-01-23","eName":"Rosario De Marco","genre":"Jazz","price":"Free","supports":[],"ticketUrl":null,"time":" 7pm"}],"vName":"Wesley Anne"},"type":"Feature"}],"type":"FeatureCollection"}