{"features":[{"geometry":{"coordinates":[144.9500257,-37.8032773],"type":"Point"},"properties":{"events":[{"categories":["Other \"Dance \""],"eDate":"2025-06-08","eName":"Joel Bray Dance presents MONOLITH","genre":null,"price":"$49.00","supports":[],"ticketUrl":null,"time":" 5pm"}],"vName":"Arts House"},"type":"Feature"},{"geometry":{"coordinates":[145.0192156,-37.7562323],"type":"Point"},"properties":{"events":[{"categories":["Music"],"eDate":"2025-06-08","eName":"New Rampant Optimism Roadshow: Ned Collette & Friends","genre":"Country/Folk","price":"$49.00","supports":["Leah Senior"," Michael Beach"," Thalia Zedek"],"ticketUrl":null,"time":" 7pm"}],"vName":"Athenaeum Theatre"},"type":"Feature"},{"geometry":{"coordinates":[144.978682,-37.7981225],"type":"Point"},"properties":{"events":[{"categories":["Music","Free"],"eDate":"2025-06-08","eName":"Harrisen Hughes","genre":null,"price":"Free","supports":[],"ticketUrl":null,"time":" 9pm"}],"vName":"Baxter's Lot"},"type":"Feature"},{"geometry":{"coordinates":[145.3339412,-37.9158104],"type":"Point"},"properties":{"events":[{"categories":["Music"],"eDate":"2025-06-08","eName":"Mick Harvey & Amanda Acevedo","genre":"Indie","price":"$59.90","supports":[],"ticketUrl":null,"time":" 8pm"}],"vName":"Burrinja Cultural Centre"},"type":"Feature"},{"geometry":{"coordinates":[144.9658499,-37.8147453],"type":"Point"},"properties":{"events":[{"categories":["Music"],"eDate":"2025-06-08","eName":"Pete & Bas","genre":"Hip Hop","price":"$59.00","supports":[],"ticketUrl":null,"time":" 9pm"}],"vName":"Max Watt's (Melbourne)"},"type":"Feature"},{"geometry":{"coordinates":[144.9664313,-37.8146299],"type":"Point"},"properties":{"events":[{"categories":["Music","Free"],"eDate":"2025-06-08","eName":"SHOUSE Communitas","genre":"Acoustic","price":"Free","supports":[],"ticketUrl":null,"time":" 4pm"},{"categories":["Other \"Dance \"","Music"],"eDate":"2025-06-08","eName":"Country Struts Winter Hoedown","genre":"Country/Folk","price":"$30.00","supports":[],"ticketUrl":null,"time":" 8pm"}],"vName":"Melbourne Town Hall"},"type":"Feature"},{"geometry":{"coordinates":[144.998414,-37.771471],"type":"Point"},"properties":{"events":[{"categories":["Music"],"eDate":"2025-06-08","eName":"Chasing Ghosts","genre":"Punk","price":"$29.90","supports":["The Comfort"," Cordiform"],"ticketUrl":null,"time":" 7pm"}],"vName":"Northcote Social Club"},"type":"Feature"},{"geometry":{"coordinates":[144.9782244,-37.8589249],"type":"Point"},"properties":{"events":[{"categories":["Music"],"eDate":"2025-06-08","eName":"The Tonalists","genre":null,"price":"Free","supports":[],"ticketUrl":null,"time":" 7pm"}],"vName":"St Kilda Sports Club"},"type":"Feature"},{"geometry":{"coordinates":[144.9751557,-37.8057885],"type":"Point"},"properties":{"events":[{"categories":["Music"],"eDate":"2025-06-08","eName":"Craig Woodward & Friends","genre":null,"price":"Free","supports":[],"ticketUrl":null,"time":" 4pm"}],"vName":"The Catfish"},"type":"Feature"}],"type":"FeatureCollection"}