{"features":[{"geometry":{"coordinates":[144.9720318,-37.8656234],"type":"Point"},"properties":{"events":[{"categories":["Music"],"eDate":"2026-01-01","eName":"New Years Day","genre":"Electronic","price":"$79.00","supports":[],"ticketUrl":null,"time":" 2pm"}],"vName":"Captain Baxter"},"type":"Feature"},{"geometry":{"coordinates":[144.973013,-37.8640582],"type":"Point"},"properties":{"events":[{"categories":["Free","Music"],"eDate":"2026-01-01","eName":"SUMMER OF UGLY: Disco Dom","genre":"Electronic","price":"Free","supports":[],"ticketUrl":null,"time":" 5pm"}],"vName":"Hotel Esplanade (aka The Espy)"},"type":"Feature"},{"geometry":{"coordinates":[144.9596527,-37.7720304],"type":"Point"},"properties":{"events":[{"categories":["Music"],"eDate":"2026-01-01","eName":"Closet NYD 2026","genre":"Electronic","price":"$36.72 - 48.45","supports":["more"],"ticketUrl":null,"time":" 3pm"}],"vName":"Howler"},"type":"Feature"},{"geometry":{"coordinates":[144.9833121,-37.8062477],"type":"Point"},"properties":{"events":[{"categories":["Music"],"eDate":"2026-01-01","eName":"Final Girl X Clubhaus: NYD 2026","genre":"Electronic","price":"$31.80 - 75.65","supports":[],"ticketUrl":null,"time":" 7pm"}],"vName":"New Guernica"},"type":"Feature"},{"geometry":{"coordinates":[144.9770425,-37.8588717],"type":"Point"},"properties":{"events":[{"categories":["Music"],"eDate":"2026-01-01","eName":"Dan & Cyril","genre":"Acoustic","price":"Free","supports":[],"ticketUrl":null,"time":" 8pm"}],"vName":"The Fifth Province"},"type":"Feature"}],"type":"FeatureCollection"}