{"features":[{"geometry":{"coordinates":[145.0049159,-37.8035366],"type":"Point"},"properties":{"events":[{"categories":["Art","Other \"Spoken Word\"","Other \"Poetry & Forums\""],"eDate":"2025-03-01","eName":"International Women's Day Event: You're Invited to Our Dinner Party","genre":null,"price":"$24.84","supports":[],"ticketUrl":null,"time":" 3pm"}],"vName":"Abbotsford Convent"},"type":"Feature"},{"geometry":{"coordinates":[144.978682,-37.7981225],"type":"Point"},"properties":{"events":[{"categories":["Free","Music"],"eDate":"2025-03-01","eName":"Harrisen Hughes","genre":null,"price":"Free","supports":[],"ticketUrl":null,"time":" 9pm"},{"categories":["Music"],"eDate":"2025-03-01","eName":"DJ Lewy C","genre":"Electronic","price":"Free","supports":[],"ticketUrl":null,"time":"10pm"}],"vName":"Baxter's Lot"},"type":"Feature"},{"geometry":{"coordinates":[144.9607158,-37.776327],"type":"Point"},"properties":{"events":[{"categories":["Music"],"eDate":"2025-03-01","eName":"Divebar Youth","genre":"Indie","price":"$22.95","supports":["Matahara"," Kit Genesis"],"ticketUrl":null,"time":" 8pm"}],"vName":"Bergy Bandroom"},"type":"Feature"},{"geometry":{"coordinates":[144.9567859,-37.8111049],"type":"Point"},"properties":{"events":[{"categories":["Music"],"eDate":"2025-03-01","eName":"Songbirds","genre":"Pop","price":"$40.00","supports":[],"ticketUrl":null,"time":" 6pm"}],"vName":"Bird's Basement"},"type":"Feature"},{"geometry":{"coordinates":[145.0006024,-37.8837941],"type":"Point"},"properties":{"events":[{"categories":["Music"],"eDate":"2025-03-01","eName":"The Rick Freeman Trio","genre":"Jazz","price":"$30.00","supports":[],"ticketUrl":null,"time":" 8pm"},{"categories":["Music"],"eDate":"2025-03-01","eName":"The Rick Freeman Quartet","genre":"Jazz","price":"$25.00 - 30.00","supports":[],"ticketUrl":null,"time":" 8pm"}],"vName":"Classic Southside"},"type":"Feature"},{"geometry":{"coordinates":[144.98535244416098,-37.79426315],"type":"Point"},"properties":{"events":[{"categories":["Music"],"eDate":"2025-03-01","eName":"Franjafest 2","genre":"Rock","price":"$35.00 - 51.00","supports":["more"],"ticketUrl":null,"time":" 2pm"}],"vName":"Gasometer Hotel"},"type":"Feature"},{"geometry":{"coordinates":[144.9679835243618,-37.8201575],"type":"Point"},"properties":{"events":[{"categories":["Music"],"eDate":"2025-03-01","eName":"Ryman Healthcare Season Opening Gala: Mahler's Resurrection Symphony","genre":"Classical","price":"$81.00","supports":[],"ticketUrl":null,"time":" 7:30pm"}],"vName":"Hamer Hall (Arts Centre Melbourne)"},"type":"Feature"},{"geometry":{"coordinates":[144.9977626,-37.7755001],"type":"Point"},"properties":{"events":[{"categories":["Free","Music"],"eDate":"2025-03-01","eName":"Scribbly Improv Sessions","genre":"Experimental","price":"Free","supports":[],"ticketUrl":null,"time":" 2pm"}],"vName":"High Note"},"type":"Feature"},{"geometry":{"coordinates":[144.973013,-37.8640582],"type":"Point"},"properties":{"events":[{"categories":["Free","Music"],"eDate":"2025-03-01","eName":"St Kilda Blues Festival: Shake","genre":"Blues","price":"Free","supports":[],"ticketUrl":null,"time":" 3pm"},{"categories":["Free","Music"],"eDate":"2025-03-01","eName":"St Kilda Blues Festival: Heavy Medicine","genre":"Blues","price":"Free","supports":[],"ticketUrl":null,"time":" 7:30pm"}],"vName":"Hotel Esplanade (aka The Espy)"},"type":"Feature"},{"geometry":{"coordinates":[144.9596527,-37.7720304],"type":"Point"},"properties":{"events":[{"categories":["Music"],"eDate":"2025-03-01","eName":"Platform x HER 他: dinner AFTER parties","genre":null,"price":"$15.00 - 25.00","supports":[],"ticketUrl":null,"time":" 8pm"}],"vName":"Howler"},"type":"Feature"},{"geometry":{"coordinates":[145.0355738,-37.8205529],"type":"Point"},"properties":{"events":[{"categories":["Music"],"eDate":"2025-03-01","eName":"The Jennifer Salisbury + Mark Morand Quartet","genre":"Jazz","price":"$25.00 - 30.00","supports":[],"ticketUrl":null,"time":" 8pm"}],"vName":"Lido Jazz Room"},"type":"Feature"},{"geometry":{"coordinates":[144.8971518,-37.8054274],"type":"Point"},"properties":{"events":[{"categories":["Music"],"eDate":"2025-03-01","eName":"Dog Riot: Charity Show","genre":null,"price":"$10.00 - 15.00","supports":["Flynn Teal"," Gorrister"," Wax Man"," The Salmon Sisters"],"ticketUrl":null,"time":" 7pm"}],"vName":"Mamma Chen's"},"type":"Feature"},{"geometry":{"coordinates":[144.9659879,-37.8147557],"type":"Point"},"properties":{"events":[{"categories":["Music"],"eDate":"2025-03-01","eName":"The Aristocrats","genre":"Rock","price":"$116.80","supports":["Toehider"],"ticketUrl":null,"time":" 7:30pm"}],"vName":"Max Watt's (Melbourne)"},"type":"Feature"},{"geometry":{"coordinates":[144.9786817,-37.8671902],"type":"Point"},"properties":{"events":[{"categories":["Music"],"eDate":"2025-03-01","eName":"Caitlin + Tim Rizzoli","genre":"Indie","price":"$40.00 - 60.00","supports":[],"ticketUrl":null,"time":" 7pm"}],"vName":"Memo Music Hall"},"type":"Feature"},{"geometry":{"coordinates":[144.9712356,-37.812902],"type":"Point"},"properties":{"events":[{"categories":["Comedy"],"eDate":"2025-03-01","eName":"RAW Comedy: Heat #7","genre":null,"price":"$15.00","supports":[],"ticketUrl":null,"time":"12:30pm"},{"categories":["Comedy"],"eDate":"2025-03-01","eName":"Basement Comedy Club","genre":null,"price":"$25.00","supports":[],"ticketUrl":null,"time":" 8pm"}],"vName":"Morris House"},"type":"Feature"},{"geometry":{"coordinates":[144.9605705,-37.8132486],"type":"Point"},"properties":{"events":[{"categories":["Music"],"eDate":"2025-03-01","eName":"Sangria Serenades with Sergio Ercole","genre":"Global","price":"$40.00","supports":[],"ticketUrl":null,"time":" 6pm"},{"categories":["Music"],"eDate":"2025-03-01","eName":"Miss George: Tribute to Diana Krall","genre":"Jazz","price":"$45.00","supports":[],"ticketUrl":null,"time":" 6:30pm"},{"categories":["Music"],"eDate":"2025-03-01","eName":"Rebecca Mendoza Sings Billie Holiday","genre":"Jazz","price":"$45.00","supports":[],"ticketUrl":null,"time":" 9pm"},{"categories":["Music"],"eDate":"2025-03-01","eName":"Solomon Sisay & His Band","genre":"Jazz","price":"$45.00","supports":[],"ticketUrl":null,"time":" 9:30pm"}],"vName":"Paris Cat Jazz Club"},"type":"Feature"},{"geometry":{"coordinates":[144.90239079583333,-37.79990865],"type":"Point"},"properties":{"events":[{"categories":["Other \"Spoken Word\"","Other \"Poetry & Forums\"","Other \"Cabaret\""],"eDate":"2025-03-01","eName":"Queen of Hearts Gay Speed Dating","genre":null,"price":"$20.00","supports":[],"ticketUrl":null,"time":" 6pm"},{"categories":["Free","Music"],"eDate":"2025-03-01","eName":"Saturday Night Party","genre":"Electronic","price":"Free","supports":[],"ticketUrl":null,"time":"10pm"}],"vName":"Pride Of Our Footscray Community Bar"},"type":"Feature"},{"geometry":{"coordinates":[144.9615882,-37.7711432],"type":"Point"},"properties":{"events":[{"categories":["Free","Music"],"eDate":"2025-03-01","eName":"Quality Used Cars","genre":"Indie","price":"Free","supports":[],"ticketUrl":null,"time":" 2pm"},{"categories":["Music"],"eDate":"2025-03-01","eName":"The Ska Vendors","genre":"Jazz","price":"$27.50","supports":["Miss Skatonic"," DJ Larrabee"],"ticketUrl":null,"time":" 7:30pm"}],"vName":"Retreat Hotel"},"type":"Feature"},{"geometry":{"coordinates":[144.9878631,-37.9220954],"type":"Point"},"properties":{"events":[{"categories":["Music"],"eDate":"2025-03-01","eName":"La Mauvaise Réputation","genre":"Jazz","price":"$50.00","supports":[],"ticketUrl":null,"time":" 8pm"}],"vName":"Royal Brighton Yacht Club"},"type":"Feature"},{"geometry":{"coordinates":[144.965405,-37.8117457],"type":"Point"},"properties":{"events":[{"categories":["Free","Music"],"eDate":"2025-03-01","eName":"Section 8 Beach Party: Day Six - Soul Sessions","genre":null,"price":"Free","supports":[],"ticketUrl":null,"time":" 6pm"}],"vName":"Section 8"},"type":"Feature"},{"geometry":{"coordinates":[144.958676,-37.7669571],"type":"Point"},"properties":{"events":[{"categories":["Music"],"eDate":"2025-03-01","eName":"Audrey Powne","genre":"Jazz","price":"$35.00 - 40.00","supports":[],"ticketUrl":null,"time":" 8pm"}],"vName":"The Jazzlab"},"type":"Feature"},{"geometry":{"coordinates":[144.9968036,-37.7794807],"type":"Point"},"properties":{"events":[{"categories":["Music"],"eDate":"2025-03-01","eName":"Social Afterparty","genre":"Rock","price":"$10.00","supports":["Narciso"],"ticketUrl":null,"time":" 8:30pm"}],"vName":"The Merri Creek Tavern"},"type":"Feature"},{"geometry":{"coordinates":[144.9622,-37.7679857],"type":"Point"},"properties":{"events":[{"categories":["Free","Music"],"eDate":"2025-03-01","eName":"Merkani","genre":"Indie","price":"Free","supports":["The Slinkys"," SANd"],"ticketUrl":null,"time":" 9pm"}],"vName":"The Penny Black"},"type":"Feature"},{"geometry":{"coordinates":[144.9769450659087,-37.8055776],"type":"Point"},"properties":{"events":[{"categories":["Music"],"eDate":"2025-03-01","eName":"Xmusic Live: Heavy Onslaught","genre":"Metal","price":"$17.85","supports":["Karly Jewell"," Rise From Ashes"],"ticketUrl":null,"time":" 8pm"}],"vName":"The Workers Club"},"type":"Feature"}],"type":"FeatureCollection"}