{"features":[{"geometry":{"coordinates":[144.9715791,-37.8140656],"type":"Point"},"properties":{"events":[{"categories":["Theatre"],"eDate":"2024-06-15","eName":"The Woman in Black (Matinee)","genre":null,"price":"$55.00 - 129.00","supports":[],"ticketUrl":null,"time":" 2pm"},{"categories":["Theatre"],"eDate":"2024-06-15","eName":"The Woman in Black","genre":null,"price":"$55.00 - 129.00","supports":[],"ticketUrl":null,"time":" 7:30pm"}],"vName":"Athenaeum Theatre"},"type":"Feature"},{"geometry":{"coordinates":[144.99828116650363,-37.7713296],"type":"Point"},"properties":{"events":[{"categories":["Free","Music"],"eDate":"2024-06-15","eName":"Mal Webb & Kylie Morrigan","genre":"Acoustic","price":"Free","supports":[],"ticketUrl":null,"time":" 3pm"},{"categories":["Music"],"eDate":"2024-06-15","eName":"Lunic","genre":null,"price":"$25.00","supports":["Indyana"," Isobel Caldwell"],"ticketUrl":null,"time":" 6pm"},{"categories":["Music"],"eDate":"2024-06-15","eName":"Lunic","genre":"Rock","price":"$25.00","supports":["Indyana"," Isobel Caldwell"],"ticketUrl":null,"time":" 7pm"}],"vName":"Bar 303"},"type":"Feature"},{"geometry":{"coordinates":[144.9607158,-37.776327],"type":"Point"},"properties":{"events":[{"categories":["Music"],"eDate":"2024-06-15","eName":"Malibu Spacey","genre":"Rock","price":"$16.85","supports":["Kelsey Jean & The Bad Health"," Curly & The Fringe"],"ticketUrl":null,"time":" 1:30pm"},{"categories":["Music"],"eDate":"2024-06-15","eName":"Reliqa","genre":"Metal","price":"$24.99","supports":["RinRin"],"ticketUrl":null,"time":" 8pm"}],"vName":"Bergy Bandroom"},"type":"Feature"},{"geometry":{"coordinates":[144.9248037207342,-37.7656716],"type":"Point"},"properties":{"events":[{"categories":["Comedy"],"eDate":"2024-06-15","eName":"Joe Avati: When I Was Your Age World Tour 2024","genre":null,"price":"$59.90","supports":[],"ticketUrl":null,"time":" 8pm"}],"vName":"Clocktower Centre"},"type":"Feature"},{"geometry":{"coordinates":[144.99266639479475,-37.82488935],"type":"Point"},"properties":{"events":[{"categories":["Music"],"eDate":"2024-06-15","eName":"The Ocean","genre":"Metal","price":"$79.90","supports":["LLNN"," Lo!"," Spook The Horses"],"ticketUrl":null,"time":" 7:30pm"}],"vName":"Corner Hotel"},"type":"Feature"},{"geometry":{"coordinates":[145.0293642,-37.8073947],"type":"Point"},"properties":{"events":[{"categories":["Music"],"eDate":"2024-06-15","eName":"Iaki Vallejo","genre":null,"price":"$20.00 - 28.00","supports":[],"ticketUrl":null,"time":" 8pm"}],"vName":"Kew Court House"},"type":"Feature"},{"geometry":{"coordinates":[144.8971518,-37.8054274],"type":"Point"},"properties":{"events":[{"categories":["Free","Music"],"eDate":"2024-06-15","eName":"Performers & Artists Volume 2","genre":null,"price":"Free","supports":[],"ticketUrl":null,"time":" 7pm"}],"vName":"Mamma Chen's"},"type":"Feature"},{"geometry":{"coordinates":[144.96741062735794,-37.82454855],"type":"Point"},"properties":{"events":[{"categories":["Music"],"eDate":"2024-06-15","eName":"Elefant Traks 25th Anniversary: The Finale (Matinee)","genre":"Hip Hop","price":"$89.00 - 99.00","supports":["more"],"ticketUrl":null,"time":" 3pm"},{"categories":["Music"],"eDate":"2024-06-15","eName":"Melbourne Guitar Quartet","genre":"Acoustic","price":"$37.00","supports":[],"ticketUrl":null,"time":" 7pm"},{"categories":["Music"],"eDate":"2024-06-15","eName":"Ensemble Liaison with Jack Liebeck","genre":"Classical","price":"$55.00","supports":[],"ticketUrl":null,"time":" 7pm"},{"categories":["Music"],"eDate":"2024-06-15","eName":"Elefant Traks 25th Anniversary: The Finale","genre":"Hip Hop","price":"$89.00 - 99.00","supports":["more"],"ticketUrl":null,"time":" 7:30pm"}],"vName":"Melbourne Recital Centre"},"type":"Feature"},{"geometry":{"coordinates":[144.998414,-37.771471],"type":"Point"},"properties":{"events":[{"categories":["Music"],"eDate":"2024-06-15","eName":"Donovan Woods","genre":"Rock","price":"$50.10","supports":[],"ticketUrl":null,"time":" 8:30pm"}],"vName":"Northcote Social Club"},"type":"Feature"},{"geometry":{"coordinates":[144.97711,-37.79833],"type":"Point"},"properties":{"events":[{"categories":["Music"],"eDate":"2024-06-15","eName":"Esther Rivers","genre":"Indie","price":"$17.35","supports":["Curlers"," Hollie Joyce"],"ticketUrl":null,"time":" 8pm"}],"vName":"Old Bar"},"type":"Feature"},{"geometry":{"coordinates":[144.9605705,-37.8132486],"type":"Point"},"properties":{"events":[{"categories":["Music"],"eDate":"2024-06-15","eName":"The Aretha Franklin Project with Joys Njambi","genre":"Jazz","price":"$45.00","supports":[],"ticketUrl":null,"time":" 6pm"}],"vName":"Paris Cat Jazz Club"},"type":"Feature"},{"geometry":{"coordinates":[144.9631913,-37.7617818],"type":"Point"},"properties":{"events":[{"categories":["Free","Music"],"eDate":"2024-06-15","eName":"Georgia Ray Band + Cammi Kol Band","genre":null,"price":"Free","supports":[],"ticketUrl":null,"time":" 8pm"},{"categories":["Free","Music"],"eDate":"2024-06-15","eName":"Georgia Ray Band + Cammi Kol Band","genre":"Country/Folk","price":"Free","supports":[],"ticketUrl":null,"time":" 8pm"}],"vName":"Ringo Barr"},"type":"Feature"},{"geometry":{"coordinates":[144.9706095,-37.7783326],"type":"Point"},"properties":{"events":[{"categories":["Free","Music"],"eDate":"2024-06-15","eName":"La Descarga","genre":"Soul/Funk","price":"Free","supports":[],"ticketUrl":null,"time":" 9pm"}],"vName":"The Beast"},"type":"Feature"},{"geometry":{"coordinates":[144.9657057,-37.8061581],"type":"Point"},"properties":{"events":[{"categories":["Music"],"eDate":"2024-06-15","eName":"Bonny Doon","genre":"Country/Folk","price":"$40.75","supports":["Mouseatouille"],"ticketUrl":null,"time":" 8:30pm"}],"vName":"The Curtin"},"type":"Feature"},{"geometry":{"coordinates":[144.9846126,-37.7989941],"type":"Point"},"properties":{"events":[{"categories":["Music"],"eDate":"2024-06-15","eName":"Rise of the Dead & Deathly","genre":"Metal","price":"$16.35","supports":[],"ticketUrl":null,"time":" 8pm"},{"categories":["Music"],"eDate":"2024-06-15","eName":"The Johnnys","genre":"Country/Folk","price":"$34.20","supports":["The Dallas Terrors"," Dead Rodeo"],"ticketUrl":null,"time":" 8:30pm"}],"vName":"The Tote Hotel"},"type":"Feature"},{"geometry":{"coordinates":[144.9618426,-37.8125531],"type":"Point"},"properties":{"events":[{"categories":["Free","Music"],"eDate":"2024-06-15","eName":"Uncut Rhythms: Mr Pitful + Binofski","genre":null,"price":"Free","supports":[],"ticketUrl":null,"time":" 4pm"}],"vName":"Whitehart Bar"},"type":"Feature"}],"type":"FeatureCollection"}