{"features":[{"geometry":{"coordinates":[144.9679369,-37.8120109],"type":"Point"},"properties":{"events":[{"categories":["Music"],"eDate":"2025-05-09","eName":"Currents + Chelsea Grin","genre":"Metal","price":"$79.90","supports":["Bloom"," Heavensgate"],"ticketUrl":null,"time":" 7pm"}],"vName":"170 Russell"},"type":"Feature"},{"geometry":{"coordinates":[144.9982812,-37.7713296],"type":"Point"},"properties":{"events":[{"categories":["Music"],"eDate":"2025-05-09","eName":"StoneFish","genre":"Pop","price":"Free","supports":[],"ticketUrl":null,"time":" 7pm"}],"vName":"Bar 303"},"type":"Feature"},{"geometry":{"coordinates":[144.978425,-37.79773],"type":"Point"},"properties":{"events":[{"categories":["Free","Music"],"eDate":"2025-05-09","eName":"The Four Scoops","genre":"Jazz","price":"Free","supports":[],"ticketUrl":null,"time":" 6:30pm"},{"categories":["Music"],"eDate":"2025-05-09","eName":"mmm","genre":"Indie","price":"$20.00","supports":["Gnome"," BJ Morriszonkle"],"ticketUrl":null,"time":" 8:30pm"}],"vName":"Bar Open"},"type":"Feature"},{"geometry":{"coordinates":[144.978682,-37.7981225],"type":"Point"},"properties":{"events":[{"categories":["Free","Music"],"eDate":"2025-05-09","eName":"Sienna Wild Trio","genre":null,"price":"Free","supports":[],"ticketUrl":null,"time":" 9pm"},{"categories":["Free","Music"],"eDate":"2025-05-09","eName":"DJ Lewy C","genre":null,"price":"Free","supports":[],"ticketUrl":null,"time":"10pm"}],"vName":"Baxter's Lot"},"type":"Feature"},{"geometry":{"coordinates":[144.9891167,-37.7996488],"type":"Point"},"properties":{"events":[{"categories":["Music"],"eDate":"2025-05-09","eName":"Priorities","genre":"Metal","price":"$17.35","supports":["Artiox"," All Monsters Are Human"," Incendiment"],"ticketUrl":null,"time":" 8:45pm"}],"vName":"Bendigo Hotel"},"type":"Feature"},{"geometry":{"coordinates":[144.9607158,-37.776327],"type":"Point"},"properties":{"events":[{"categories":["Music"],"eDate":"2025-05-09","eName":"Dr. Reknaw","genre":"Soul/Funk","price":"$22.95 - 28.05","supports":["Julian Joseph"," LAISA LOVED"],"ticketUrl":null,"time":" 8pm"}],"vName":"Bergy Bandroom"},"type":"Feature"},{"geometry":{"coordinates":[144.9713425,-37.8128595],"type":"Point"},"properties":{"events":[{"categories":["Music"],"eDate":"2025-05-09","eName":"Cherryoke: Live Band Karaoke","genre":"Rock","price":"Free","supports":[],"ticketUrl":null,"time":" 9pm"}],"vName":"Cherry Bar"},"type":"Feature"},{"geometry":{"coordinates":[144.9926664,-37.8248893],"type":"Point"},"properties":{"events":[{"categories":["Music","Other \"Wrestling\""],"eDate":"2025-05-09","eName":"Wrestlerock","genre":"Rock","price":"$45.45","supports":["The Chevaliers"],"ticketUrl":null,"time":" 8pm"}],"vName":"Corner Hotel"},"type":"Feature"},{"geometry":{"coordinates":[144.9706211,-37.778276],"type":"Point"},"properties":{"events":[{"categories":["Music"],"eDate":"2025-05-09","eName":"Snailgun","genre":null,"price":"Free","supports":["Going Swimming"," Anglerr"],"ticketUrl":null,"time":" 8pm"}],"vName":"Creature Bar"},"type":"Feature"},{"geometry":{"coordinates":[144.983442,-37.804851],"type":"Point"},"properties":{"events":[{"categories":["Music"],"eDate":"2025-05-09","eName":"L Lewis","genre":null,"price":"$15.00 - 20.00","supports":["Jonah Gabriel"," Gen Kuner"," Banksia"],"ticketUrl":null,"time":" 8:30pm"}],"vName":"Grace Darling Hotel"},"type":"Feature"},{"geometry":{"coordinates":[144.973013,-37.8640582],"type":"Point"},"properties":{"events":[{"categories":["Music"],"eDate":"2025-05-09","eName":"Stonetrip","genre":"Rock","price":"$24.01","supports":["Souls Of Ambience"," The Bluntts"],"ticketUrl":null,"time":" 7:30pm"},{"categories":["Music"],"eDate":"2025-05-09","eName":"Harry Styles Night","genre":"Pop","price":"$11.75 - 22.95","supports":[],"ticketUrl":null,"time":" 8pm"}],"vName":"Hotel Esplanade (aka The Espy)"},"type":"Feature"},{"geometry":{"coordinates":[145.0314658,-37.8067273],"type":"Point"},"properties":{"events":[{"categories":["Music"],"eDate":"2025-05-09","eName":"Kew Court House Live: Annwen Roberts Quartet","genre":"Jazz","price":"$20.00","supports":[],"ticketUrl":null,"time":" 7:30pm"}],"vName":"Kew Court House"},"type":"Feature"},{"geometry":{"coordinates":[144.8984802,-37.8111559],"type":"Point"},"properties":{"events":[{"categories":["Music"],"eDate":"2025-05-09","eName":"Ebonnie Rose","genre":"Rock","price":"$30.00","supports":["Leticia"," Dilan"],"ticketUrl":null,"time":" 7pm"}],"vName":"Kindred Bandroom"},"type":"Feature"},{"geometry":{"coordinates":[145.0008148,-37.8107158],"type":"Point"},"properties":{"events":[{"categories":["Music"],"eDate":"2025-05-09","eName":"JAY UF + OMAC","genre":"Hip Hop","price":"$44.90","supports":[],"ticketUrl":null,"time":" 8pm"}],"vName":"Leadbeater Hotel"},"type":"Feature"},{"geometry":{"coordinates":[144.8975289,-37.8022392],"type":"Point"},"properties":{"events":[{"categories":["Music"],"eDate":"2025-05-09","eName":"The Rest Is History","genre":null,"price":"$20.00 - 25.00","supports":["The Robbies"],"ticketUrl":null,"time":" 8pm"}],"vName":"Mamma Chen's"},"type":"Feature"},{"geometry":{"coordinates":[144.9658499,-37.8147453],"type":"Point"},"properties":{"events":[{"categories":["Music"],"eDate":"2025-05-09","eName":"Rock Ko Fol","genre":"Rock","price":"$96.40","supports":[],"ticketUrl":null,"time":" 7pm"}],"vName":"Max Watt's (Melbourne)"},"type":"Feature"},{"geometry":{"coordinates":[144.9675876,-37.8240849],"type":"Point"},"properties":{"events":[{"categories":["Music"],"eDate":"2025-05-09","eName":"In Other Words…","genre":"Classical","price":"$35.00","supports":[],"ticketUrl":null,"time":" 7:30pm"}],"vName":"Melbourne Recital Centre"},"type":"Feature"},{"geometry":{"coordinates":[144.9790251,-37.8675008],"type":"Point"},"properties":{"events":[{"categories":["Music"],"eDate":"2025-05-09","eName":"Mi-Sex","genre":"Pop","price":"$59.00 - 79.00","supports":[],"ticketUrl":null,"time":" 7pm"}],"vName":"Memo Music Hall"},"type":"Feature"},{"geometry":{"coordinates":[144.9712356,-37.812902],"type":"Point"},"properties":{"events":[{"categories":["Music"],"eDate":"2025-05-09","eName":"Marcus Knight","genre":"Electronic","price":"Free","supports":[],"ticketUrl":null,"time":" 6pm"},{"categories":["Comedy"],"eDate":"2025-05-09","eName":"Basement Comedy Club","genre":null,"price":"$25.00","supports":[],"ticketUrl":null,"time":" 8pm"},{"categories":["Music"],"eDate":"2025-05-09","eName":"DJ Paul Lazar","genre":"Electronic","price":"Free","supports":[],"ticketUrl":null,"time":"10pm"}],"vName":"Morris House"},"type":"Feature"},{"geometry":{"coordinates":[144.9895284,-37.7993224],"type":"Point"},"properties":{"events":[{"categories":["Music"],"eDate":"2025-05-09","eName":"Newgate Crowd","genre":"Rock","price":"$17.19","supports":["All Regards"," TILE"],"ticketUrl":null,"time":" 8:15pm"}],"vName":"Nighthawks"},"type":"Feature"},{"geometry":{"coordinates":[144.998414,-37.771471],"type":"Point"},"properties":{"events":[{"categories":["Music"],"eDate":"2025-05-09","eName":"Cousin Tony’s Brand New Firebird","genre":"Rock","price":"$35.30","supports":[],"ticketUrl":null,"time":" 8:30pm"}],"vName":"Northcote Social Club"},"type":"Feature"},{"geometry":{"coordinates":[144.97711,-37.79833],"type":"Point"},"properties":{"events":[{"categories":["Music"],"eDate":"2025-05-09","eName":"The Unknowns","genre":"Rock","price":"$11.25","supports":["W.O.M.B.A.T"],"ticketUrl":null,"time":" 8pm"}],"vName":"Old Bar"},"type":"Feature"},{"geometry":{"coordinates":[145.0142411,-37.7310367],"type":"Point"},"properties":{"events":[{"categories":["Music"],"eDate":"2025-05-09","eName":"Jumpin’ Jack Jordan","genre":"Jazz","price":"Free","supports":[],"ticketUrl":null,"time":" 8pm"}],"vName":"Ragtime Tavern"},"type":"Feature"},{"geometry":{"coordinates":[144.9615882,-37.7711432],"type":"Point"},"properties":{"events":[{"categories":["Free","Music"],"eDate":"2025-05-09","eName":"Mighty Horse","genre":"Rock","price":"Free","supports":[],"ticketUrl":null,"time":" 7:30pm"}],"vName":"Retreat Hotel"},"type":"Feature"},{"geometry":{"coordinates":[144.9607404,-37.7743469],"type":"Point"},"properties":{"events":[{"categories":["Music"],"eDate":"2025-05-09","eName":"Kadikoy Mixtape","genre":"Rock","price":"$25.00","supports":["Bihter Ikiz"," Metehan Dereli"," Ilario Palma"],"ticketUrl":null,"time":" 7pm"},{"categories":["Music"],"eDate":"2025-05-09","eName":"Dear Seattle Official Afterparty","genre":"Rock","price":"$17.85","supports":[],"ticketUrl":null,"time":"11pm"}],"vName":"Stay Gold"},"type":"Feature"},{"geometry":{"coordinates":[144.9706211,-37.778276],"type":"Point"},"properties":{"events":[{"categories":["Free","Music"],"eDate":"2025-05-09","eName":"Firefly Horns + Derty Berd","genre":"Soul/Funk","price":"Free","supports":[],"ticketUrl":null,"time":" 9pm"}],"vName":"The Beast"},"type":"Feature"},{"geometry":{"coordinates":[144.9995955,-37.762377],"type":"Point"},"properties":{"events":[{"categories":["Music"],"eDate":"2025-05-09","eName":"Dear Seattle","genre":"Punk","price":"$54.90","supports":["Heart Attack Man"," Towns & Lucky"],"ticketUrl":null,"time":" 7pm"}],"vName":"The Croxton"},"type":"Feature"},{"geometry":{"coordinates":[144.9657057,-37.8061581],"type":"Point"},"properties":{"events":[{"categories":["Music"],"eDate":"2025-05-09","eName":"Wet Kiss","genre":"Punk","price":"$22.85","supports":[],"ticketUrl":null,"time":" 8pm"}],"vName":"The Curtin"},"type":"Feature"},{"geometry":{"coordinates":[144.9555612,-37.8066759],"type":"Point"},"properties":{"events":[{"categories":["Music"],"eDate":"2025-05-09","eName":"Traditional Irish Music Session","genre":"Country/Folk","price":"Free","supports":[],"ticketUrl":null,"time":" 6pm"},{"categories":["Free","Music"],"eDate":"2025-05-09","eName":"David Cosma","genre":"Acoustic","price":"Free","supports":[],"ticketUrl":null,"time":" 8:30pm"}],"vName":"The Drunken Poet"},"type":"Feature"},{"geometry":{"coordinates":[144.9586498,-37.766903],"type":"Point"},"properties":{"events":[{"categories":["Music"],"eDate":"2025-05-09","eName":"Michelle Nicolle","genre":"Jazz","price":"$35.00 - 40.00","supports":[],"ticketUrl":null,"time":" 8pm"}],"vName":"The Jazzlab"},"type":"Feature"},{"geometry":{"coordinates":[144.9463641,-37.8047757],"type":"Point"},"properties":{"events":[{"categories":["Music"],"eDate":"2025-05-09","eName":"Five Faces of Death at The Last Chance","genre":"Metal","price":"$16.35","supports":["Tumour"," Circle Of Blood"," Tongue Scum"," Rat Tomb"],"ticketUrl":null,"time":" 7:30pm"}],"vName":"The Last Chance Rock & Roll Bar"},"type":"Feature"},{"geometry":{"coordinates":[144.9794553,-37.7982653],"type":"Point"},"properties":{"events":[{"categories":["Music"],"eDate":"2025-05-09","eName":"Pisco Sour","genre":"Rock","price":"$20.00 - 25.00","supports":[],"ticketUrl":null,"time":" 8pm"}],"vName":"The Night Cat"},"type":"Feature"},{"geometry":{"coordinates":[144.9621651,-37.7679775],"type":"Point"},"properties":{"events":[{"categories":["Music"],"eDate":"2025-05-09","eName":"The Electrique Birds","genre":"Rock","price":"Free","supports":[],"ticketUrl":null,"time":" 8:30pm"}],"vName":"The Penny Black"},"type":"Feature"},{"geometry":{"coordinates":[145.1818891,-37.8163371],"type":"Point"},"properties":{"events":[{"categories":["Music"],"eDate":"2025-05-09","eName":"The Lyrebird’s Voice: Victorian Opera (Relaxed Performance)","genre":"Classical","price":"$42.00","supports":[],"ticketUrl":null,"time":" 1pm"}],"vName":"The Round"},"type":"Feature"},{"geometry":{"coordinates":[144.9998797,-37.7616512],"type":"Point"},"properties":{"events":[{"categories":["Music"],"eDate":"2025-05-09","eName":"Anthony Rea","genre":"Acoustic","price":"Free","supports":[],"ticketUrl":null,"time":" 8pm"},{"categories":["Music"],"eDate":"2025-05-09","eName":"Sanz Mantra","genre":"Acoustic","price":"Free","supports":[],"ticketUrl":null,"time":" 9pm"}],"vName":"The Thornbury Local"},"type":"Feature"},{"geometry":{"coordinates":[144.9651425,-37.8119429],"type":"Point"},"properties":{"events":[{"categories":["Free","Music"],"eDate":"2025-05-09","eName":"Beats Without Borders","genre":"Electronic","price":"Free","supports":[],"ticketUrl":null,"time":" 9pm"},{"categories":["Free","Music"],"eDate":"2025-05-09","eName":"B!TE Vol. 3","genre":"Electronic","price":"Free","supports":[],"ticketUrl":null,"time":"10:30pm"}],"vName":"The Toff In Town"},"type":"Feature"},{"geometry":{"coordinates":[144.9870814,-37.799406],"type":"Point"},"properties":{"events":[{"categories":["Music"],"eDate":"2025-05-09","eName":"Mirror Clippers","genre":"Rock","price":"$16.35","supports":["Low Monroe & The Fugitives"," Waxman"," Crimson Caravan"],"ticketUrl":null,"time":" 8pm"},{"categories":["Music"],"eDate":"2025-05-09","eName":"SPY v SPY","genre":"Rock","price":"$44.40","supports":[],"ticketUrl":null,"time":" 8:30pm"}],"vName":"The Tote Hotel"},"type":"Feature"},{"geometry":{"coordinates":[144.9769451,-37.8055776],"type":"Point"},"properties":{"events":[{"categories":["Music"],"eDate":"2025-05-09","eName":"PARK RD","genre":"Rock","price":"$28.60","supports":[],"ticketUrl":null,"time":" 8pm"}],"vName":"The Workers Club"},"type":"Feature"}],"type":"FeatureCollection"}