{"features":[{"geometry":{"coordinates":[144.978425,-37.79773],"type":"Point"},"properties":{"events":[{"categories":["Free","Music"],"eDate":"2024-07-18","eName":"Acclivous Quartet","genre":"Jazz","price":"Free","supports":[],"ticketUrl":null,"time":" 6pm"},{"categories":["Music"],"eDate":"2024-07-18","eName":"OVRNIGHT","genre":"Soul/Funk","price":"$20.00","supports":["Bodhiel"," Khojemini"],"ticketUrl":null,"time":" 8pm"}],"vName":"Bar Open"},"type":"Feature"},{"geometry":{"coordinates":[144.978682,-37.7981225],"type":"Point"},"properties":{"events":[{"categories":["Music"],"eDate":"2024-07-18","eName":"Tim Richards","genre":null,"price":"Free","supports":[],"ticketUrl":null,"time":" 9:30pm"}],"vName":"Baxter's Lot"},"type":"Feature"},{"geometry":{"coordinates":[144.9945274,-37.8001115],"type":"Point"},"properties":{"events":[{"categories":["Free","Music","Art","Other \"Food & Drink\""],"eDate":"2024-07-18","eName":"Mercury Rising","genre":null,"price":"Free","supports":[],"ticketUrl":null,"time":" 7pm"}],"vName":"Bodriggy Brewing Company"},"type":"Feature"},{"geometry":{"coordinates":[144.950359,-37.8100202],"type":"Point"},"properties":{"events":[{"categories":["Music"],"eDate":"2024-07-18","eName":"P1Harmony","genre":"Pop","price":"$111.01","supports":[],"ticketUrl":null,"time":" 7:30pm"}],"vName":"Festival Hall"},"type":"Feature"},{"geometry":{"coordinates":[144.959768,-37.831777],"type":"Point"},"properties":{"events":[{"categories":["Music"],"eDate":"2024-07-18","eName":"Craig Schneider + John Montesante Quintet","genre":"Jazz","price":"$18.00","supports":[],"ticketUrl":null,"time":" 7pm"}],"vName":"Golden Gate Hotel"},"type":"Feature"},{"geometry":{"coordinates":[144.9936498,-37.8000264],"type":"Point"},"properties":{"events":[{"categories":["Free","Music"],"eDate":"2024-07-18","eName":"Shaky Stills","genre":"Country/Folk","price":"Free","supports":[],"ticketUrl":null,"time":" 8:45pm"}],"vName":"Lulie Tavern"},"type":"Feature"},{"geometry":{"coordinates":[144.8971518,-37.8054274],"type":"Point"},"properties":{"events":[{"categories":["Free","Music"],"eDate":"2024-07-18","eName":"The Nova Fiends","genre":null,"price":"Free","supports":["Slow Down"," Kotlas Begemot"],"ticketUrl":null,"time":" 7pm"}],"vName":"Mamma Chen's"},"type":"Feature"},{"geometry":{"coordinates":[144.96741062735794,-37.82454855],"type":"Point"},"properties":{"events":[{"categories":["Music"],"eDate":"2024-07-18","eName":"Sonorous IX: Joel Ma & Jannah Quill","genre":"Electronic","price":"$37.00","supports":[],"ticketUrl":null,"time":" 7pm"},{"categories":["Music"],"eDate":"2024-07-18","eName":"MCO presents Crystalline Voices","genre":"Classical","price":"$70.00","supports":[],"ticketUrl":null,"time":" 7:30pm"}],"vName":"Melbourne Recital Centre"},"type":"Feature"},{"geometry":{"coordinates":[144.9605705,-37.8132486],"type":"Point"},"properties":{"events":[{"categories":["Music"],"eDate":"2024-07-18","eName":"Kellie Santin Presents: The Greatest 80’s & 90’s TV Themes","genre":"Jazz","price":"$45.00","supports":[],"ticketUrl":null,"time":" 7:30pm"},{"categories":["Music"],"eDate":"2024-07-18","eName":"Nathan Slater Quartet","genre":"Jazz","price":"$40.00","supports":[],"ticketUrl":null,"time":" 8pm"}],"vName":"Paris Cat Jazz Club"},"type":"Feature"},{"geometry":{"coordinates":[144.9631913,-37.7617818],"type":"Point"},"properties":{"events":[{"categories":["Free","Music"],"eDate":"2024-07-18","eName":"Open Mic Thursdays @ Ringo Barr","genre":"Acoustic","price":"Free","supports":[],"ticketUrl":null,"time":" 7pm"}],"vName":"Ringo Barr"},"type":"Feature"},{"geometry":{"coordinates":[144.9769450659087,-37.8055776],"type":"Point"},"properties":{"events":[{"categories":["Music"],"eDate":"2024-07-18","eName":"Pash","genre":"Pop","price":"$12.75","supports":["Wet Denim"," Lyrah Gray"," The Noise"],"ticketUrl":null,"time":" 7pm"}],"vName":"The Workers Club"},"type":"Feature"},{"geometry":{"coordinates":[144.9985126,-37.7588241],"type":"Point"},"properties":{"events":[{"categories":["Free","Music"],"eDate":"2024-07-18","eName":"Hume Blues Club","genre":"Blues","price":"Free","supports":["Shake Shack Jammers"],"ticketUrl":null,"time":" 6pm"}],"vName":"Thornbury Bowls Club"},"type":"Feature"}],"type":"FeatureCollection"}