{"features":[{"geometry":{"coordinates":[144.978425,-37.79773],"type":"Point"},"properties":{"events":[{"categories":["Comedy"],"eDate":"2024-12-07","eName":"Ant Eye Comedy","genre":null,"price":"$2.00","supports":[],"ticketUrl":null,"time":" 6pm"},{"categories":["Music"],"eDate":"2024-12-07","eName":"To Octavia","genre":"Metal","price":"$20.00","supports":["Pretty Bleak"," TILE"],"ticketUrl":null,"time":" 8:30pm"},{"categories":["Free","Music"],"eDate":"2024-12-07","eName":"Midnight Circuitry / Synaptic Dreams","genre":"Electronic","price":"Free","supports":[],"ticketUrl":null,"time":"11pm"}],"vName":"Bar Open"},"type":"Feature"},{"geometry":{"coordinates":[144.978682,-37.7981225],"type":"Point"},"properties":{"events":[{"categories":["Free","Music"],"eDate":"2024-12-07","eName":"Harrisen Hughes","genre":null,"price":"Free","supports":[],"ticketUrl":null,"time":" 9pm"},{"categories":["Music"],"eDate":"2024-12-07","eName":"DJ Nomar Jr","genre":"Electronic","price":"Free","supports":[],"ticketUrl":null,"time":"10pm"}],"vName":"Baxter's Lot"},"type":"Feature"},{"geometry":{"coordinates":[144.98911674151407,-37.79964875],"type":"Point"},"properties":{"events":[{"categories":["Music"],"eDate":"2024-12-07","eName":"Punk For Palestine","genre":"Punk","price":"$13.80","supports":[],"ticketUrl":null,"time":" 8pm"}],"vName":"Bendigo Hotel"},"type":"Feature"},{"geometry":{"coordinates":[144.9607158,-37.776327],"type":"Point"},"properties":{"events":[{"categories":["Music"],"eDate":"2024-12-07","eName":"SCARES","genre":"Metal","price":"$20.00","supports":["Queen Hyena"," Gull"],"ticketUrl":null,"time":" 2pm"}],"vName":"Bergy Bandroom"},"type":"Feature"},{"geometry":{"coordinates":[144.9567859,-37.8111049],"type":"Point"},"properties":{"events":[{"categories":["Music"],"eDate":"2024-12-07","eName":"Jemma Cher","genre":"Jazz","price":"$38.00","supports":[],"ticketUrl":null,"time":" 7:30pm"}],"vName":"Bird's Basement"},"type":"Feature"},{"geometry":{"coordinates":[144.9617018,-37.7704566],"type":"Point"},"properties":{"events":[{"categories":["Music"],"eDate":"2024-12-07","eName":"Vox Chops","genre":"Jazz","price":"$34.78","supports":[],"ticketUrl":null,"time":" 2pm"},{"categories":["Music"],"eDate":"2024-12-07","eName":"Land Down Under","genre":"Rock","price":"$38.86","supports":[],"ticketUrl":null,"time":" 8:30pm"}],"vName":"Brunswick Ballroom"},"type":"Feature"},{"geometry":{"coordinates":[145.00025846036164,-37.7592368],"type":"Point"},"properties":{"events":[{"categories":["Music"],"eDate":"2024-12-07","eName":"Dealers of God","genre":"Electronic","price":"$10.00","supports":["Racerage"," Simo Soo"],"ticketUrl":null,"time":" 8pm"}],"vName":"Cafe Gummo"},"type":"Feature"},{"geometry":{"coordinates":[144.9713425,-37.8128595],"type":"Point"},"properties":{"events":[{"categories":["Music"],"eDate":"2024-12-07","eName":"Black Aces","genre":"Rock","price":"$17.48","supports":["The 6v6s"," The Chans"],"ticketUrl":null,"time":" 8pm"}],"vName":"Cherry Bar"},"type":"Feature"},{"geometry":{"coordinates":[144.9248037207342,-37.7656716],"type":"Point"},"properties":{"events":[{"categories":["Music","Dance"],"eDate":"2024-12-07","eName":"Anderson Dance Company presents On Broadway: Full Company Showcase (Early Session)","genre":"Jazz","price":"$48.00","supports":[],"ticketUrl":null,"time":"11:30am"},{"categories":["Music","Dance"],"eDate":"2024-12-07","eName":"Anderson Dance Company presents On Broadway: Full Company Showcase","genre":"Jazz","price":"$48.00","supports":[],"ticketUrl":null,"time":" 5:30pm"}],"vName":"Clocktower Centre"},"type":"Feature"},{"geometry":{"coordinates":[144.94638741677488,-37.84329175],"type":"Point"},"properties":{"events":[{"categories":["Music"],"eDate":"2024-12-07","eName":"Concerts In The Park: Angie Hart","genre":"Jazz","price":"$40.00","supports":[],"ticketUrl":null,"time":" 6pm"}],"vName":"Gasworks Arts Park"},"type":"Feature"},{"geometry":{"coordinates":[144.9679835243618,-37.8201575],"type":"Point"},"properties":{"events":[{"categories":["Music"],"eDate":"2024-12-07","eName":"Melbourne Symphony Orchestra presents Home Alone in Concert","genre":"Classical","price":"$82.00 - 148.00","supports":[],"ticketUrl":null,"time":" 1pm"}],"vName":"Hamer Hall (Arts Centre Melbourne)"},"type":"Feature"},{"geometry":{"coordinates":[145.03588565533943,-37.8230335],"type":"Point"},"properties":{"events":[{"categories":["Music"],"eDate":"2024-12-07","eName":"Eastern Battle of the Bands","genre":"Rock","price":"$5.00","supports":["motionblur."," Target Audience"," Hypnotic State"," Crestfallen"],"ticketUrl":null,"time":" 5pm"}],"vName":"Hawthorn Arts Centre"},"type":"Feature"},{"geometry":{"coordinates":[145.0849279,-37.7587219],"type":"Point"},"properties":{"events":[{"categories":["Music"],"eDate":"2024-12-07","eName":"Gateway Festival 2024","genre":"Indie","price":"$109.00","supports":[],"ticketUrl":null,"time":" 2pm"}],"vName":"Heide Museum of Modern Art"},"type":"Feature"},{"geometry":{"coordinates":[144.9596527,-37.7720304],"type":"Point"},"properties":{"events":[{"categories":["Music"],"eDate":"2024-12-07","eName":"150 BPM X Saltare Presents V:SONNTAG","genre":"Electronic","price":"$12.24 - 23.46","supports":[],"ticketUrl":null,"time":" 7pm"}],"vName":"Howler"},"type":"Feature"},{"geometry":{"coordinates":[145.0008148,-37.8107158],"type":"Point"},"properties":{"events":[{"categories":["Music"],"eDate":"2024-12-07","eName":"Alarum","genre":"Metal","price":"$23.75","supports":["Vexation"," Resistance"," Maleficium"],"ticketUrl":null,"time":" 8pm"}],"vName":"Leadbeater Hotel"},"type":"Feature"},{"geometry":{"coordinates":[144.9631732,-37.8142454],"type":"Point"},"properties":{"events":[{"categories":["Free","Music"],"eDate":"2024-12-07","eName":"CALENTURA: El Gran Mono Meets Bellaqueo","genre":null,"price":"Free","supports":["El Gran Mono"],"ticketUrl":null,"time":" 3pm"}],"vName":"MPavilion"},"type":"Feature"},{"geometry":{"coordinates":[144.8971518,-37.8054274],"type":"Point"},"properties":{"events":[{"categories":["Music","Markets"],"eDate":"2024-12-07","eName":"Gogo Group Presents ASTRID: Local Music & Vintage Fashion","genre":null,"price":"$20.00 - 25.00","supports":[],"ticketUrl":null,"time":" 2pm"},{"categories":["Free","Music"],"eDate":"2024-12-07","eName":"Disgruntled Civil Servant","genre":null,"price":"Free","supports":["Unscored"," Ze Wisenheimer"," Fourth"],"ticketUrl":null,"time":" 7pm"}],"vName":"Mamma Chen's"},"type":"Feature"},{"geometry":{"coordinates":[144.9509539,-37.8253749],"type":"Point"},"properties":{"events":[{"categories":["Festival","Comedy","Theatre","Trivia","Markets","Art","Other \"Film\""],"eDate":"2024-12-07","eName":"Oz Comic-Con Xmas Edition Melbourne","genre":null,"price":"$23.00 - 170.00","supports":["JusZ Cosplay"," Jay Kristoff"," Mat Groom"," David Hazan"],"ticketUrl":null,"time":" 9am"}],"vName":"Melbourne Convention & Exhibition Centre (MCEC)"},"type":"Feature"},{"geometry":{"coordinates":[144.96741062735794,-37.82454855],"type":"Point"},"properties":{"events":[{"categories":["Music"],"eDate":"2024-12-07","eName":"Brandenburg: Noël! Noël! (Early Session)","genre":"Classical","price":"$30.00","supports":[],"ticketUrl":null,"time":" 5pm"},{"categories":["Free","Music"],"eDate":"2024-12-07","eName":"Accelerando Recital 2024","genre":"Indie","price":"Free","supports":[],"ticketUrl":null,"time":" 6:30pm"},{"categories":["Music"],"eDate":"2024-12-07","eName":"Brandenburg: Noël! Noël!","genre":"Classical","price":"$30.00","supports":[],"ticketUrl":null,"time":" 7:30pm"}],"vName":"Melbourne Recital Centre"},"type":"Feature"},{"geometry":{"coordinates":[144.9786817,-37.8671902],"type":"Point"},"properties":{"events":[{"categories":["Music","Comedy"],"eDate":"2024-12-07","eName":"A Cracker Kransky Christmas With The Kransky Sisters (Matinee Session)","genre":"Jazz","price":"$55.00 - 65.00","supports":[],"ticketUrl":null,"time":" 2:30pm"},{"categories":["Music","Comedy"],"eDate":"2024-12-07","eName":"A Cracker Kransky Christmas With The Kransky Sisters","genre":"Jazz","price":"$55.00 - 65.00","supports":[],"ticketUrl":null,"time":" 6:30pm"}],"vName":"Memo Music Hall"},"type":"Feature"},{"geometry":{"coordinates":[144.998414,-37.771471],"type":"Point"},"properties":{"events":[{"categories":["Music"],"eDate":"2024-12-07","eName":"Stuart Braithwaite","genre":"Rock","price":"$56.80","supports":[],"ticketUrl":null,"time":" 8:30pm"}],"vName":"Northcote Social Club"},"type":"Feature"},{"geometry":{"coordinates":[144.97711,-37.79833],"type":"Point"},"properties":{"events":[{"categories":["Free","Music"],"eDate":"2024-12-07","eName":"Gold Gull + Suzie So Blue","genre":"Indie","price":"Free","supports":[],"ticketUrl":null,"time":" 3:30pm"},{"categories":["Music"],"eDate":"2024-12-07","eName":"Turtle Skull","genre":"Rock","price":"$23.50","supports":["Buried Feather"," Shroud"," TTTDC"],"ticketUrl":null,"time":" 8pm"}],"vName":"Old Bar"},"type":"Feature"},{"geometry":{"coordinates":[144.9981771,-37.7742773],"type":"Point"},"properties":{"events":[{"categories":["Music"],"eDate":"2024-12-07","eName":"Anja & Floyd","genre":"Country/Folk","price":"$20.00","supports":[],"ticketUrl":null,"time":" 5pm"},{"categories":["Music"],"eDate":"2024-12-07","eName":"Wombatuque","genre":"Jazz","price":"$20.00","supports":[],"ticketUrl":null,"time":" 9pm"}],"vName":"Open Studio"},"type":"Feature"},{"geometry":{"coordinates":[144.9605705,-37.8132486],"type":"Point"},"properties":{"events":[{"categories":["Music"],"eDate":"2024-12-07","eName":"Not So Big Band: The Big Bandalorian - The Music of Star Wars","genre":"Jazz","price":"$45.00","supports":[],"ticketUrl":null,"time":" 6pm"},{"categories":["Music"],"eDate":"2024-12-07","eName":"Born to Be Blue: Celebrating The Musical Life of Chet Baker","genre":"Jazz","price":"$45.00","supports":[],"ticketUrl":null,"time":" 6:30pm"},{"categories":["Music"],"eDate":"2024-12-07","eName":"Cannonball with Chantal Mitvalsky","genre":"Jazz","price":"$45.00","supports":[],"ticketUrl":null,"time":" 9pm"},{"categories":["Music"],"eDate":"2024-12-07","eName":"Harry Connick Jr: Love Songs with The Craig Smith Sextet","genre":"Jazz","price":"$45.00","supports":[],"ticketUrl":null,"time":" 9:30pm"}],"vName":"Paris Cat Jazz Club"},"type":"Feature"},{"geometry":{"coordinates":[144.9607404,-37.7743469],"type":"Point"},"properties":{"events":[{"categories":["Music"],"eDate":"2024-12-07","eName":"Three Cheers for Twenty Years: My Chemical Romance Night","genre":"Punk","price":"$13.80 - 22.00","supports":[],"ticketUrl":null,"time":"11pm"}],"vName":"Stay Gold"},"type":"Feature"},{"geometry":{"coordinates":[144.9657057,-37.8061581],"type":"Point"},"properties":{"events":[{"categories":["Music"],"eDate":"2024-12-07","eName":"Strange Tenants","genre":"Punk","price":"$49.05","supports":["Loin Groin"," DJ The Professor"],"ticketUrl":null,"time":" 8pm"}],"vName":"The Curtin"},"type":"Feature"},{"geometry":{"coordinates":[144.958676,-37.7669571],"type":"Point"},"properties":{"events":[{"categories":["Music"],"eDate":"2024-12-07","eName":"Fem Belling with The Joe Ruberto Trio","genre":"Jazz","price":"$35.00 - 40.00","supports":[],"ticketUrl":null,"time":" 8pm"}],"vName":"The Jazzlab"},"type":"Feature"},{"geometry":{"coordinates":[144.9708437,-37.7973184],"type":"Point"},"properties":{"events":[{"categories":["Comedy"],"eDate":"2024-12-07","eName":"Comedy on the Rocks","genre":null,"price":"$38.49","supports":[],"ticketUrl":null,"time":" 3:30pm"},{"categories":["Free","Music"],"eDate":"2024-12-07","eName":"Jazz Arvos","genre":"Jazz","price":"Free","supports":[],"ticketUrl":null,"time":" 5pm"},{"categories":["Music"],"eDate":"2024-12-07","eName":"Lee Jones Quintet","genre":"Jazz","price":"$20.26","supports":[],"ticketUrl":null,"time":" 7pm"},{"categories":["Comedy"],"eDate":"2024-12-07","eName":"The Big HOO HAA!","genre":null,"price":"$30.39","supports":[],"ticketUrl":null,"time":" 8:30pm"}],"vName":"The Motley Bauhaus"},"type":"Feature"},{"geometry":{"coordinates":[144.9830837,-37.7988316],"type":"Point"},"properties":{"events":[{"categories":["Music"],"eDate":"2024-12-07","eName":"Infinity Song","genre":"R&B","price":"$60.00","supports":[],"ticketUrl":null,"time":" 7:30pm"}],"vName":"The Night Cat"},"type":"Feature"},{"geometry":{"coordinates":[144.9234062,-37.7874445],"type":"Point"},"properties":{"events":[{"categories":["Free","Music"],"eDate":"2024-12-07","eName":"Double Shot Maggie","genre":"Punk","price":"Free","supports":[],"ticketUrl":null,"time":" 9pm"}],"vName":"The Quiet Man Irish Pub"},"type":"Feature"},{"geometry":{"coordinates":[144.9846126,-37.7989941],"type":"Point"},"properties":{"events":[{"categories":["Free","Markets"],"eDate":"2024-12-07","eName":"The Tote Record Fair","genre":null,"price":"Free","supports":[],"ticketUrl":null,"time":"12pm"},{"categories":["Music"],"eDate":"2024-12-07","eName":"total tommy","genre":"Indie","price":"$23.50","supports":[],"ticketUrl":null,"time":" 8pm"},{"categories":["Music"],"eDate":"2024-12-07","eName":"Posseshot","genre":"Hip Hop","price":"$49.00","supports":[],"ticketUrl":null,"time":" 8pm"}],"vName":"The Tote Hotel"},"type":"Feature"},{"geometry":{"coordinates":[144.9769450659087,-37.8055776],"type":"Point"},"properties":{"events":[{"categories":["Music"],"eDate":"2024-12-07","eName":"Michael Ward Trio","genre":"Acoustic","price":"$12.75 - 17.85","supports":["Ally Row"," HAZEL & The Thief"],"ticketUrl":null,"time":" 1pm"},{"categories":["Music"],"eDate":"2024-12-07","eName":"Teramaze","genre":"Metal","price":"$23.50","supports":["Order Of Owls"," Paeon"," Adularia"],"ticketUrl":null,"time":" 8pm"}],"vName":"The Workers Club"},"type":"Feature"}],"type":"FeatureCollection"}