{"features":[{"geometry":{"coordinates":[144.9982812,-37.7713296],"type":"Point"},"properties":{"events":[{"categories":["Free","Music"],"eDate":"2025-08-09","eName":"Pinko Collective","genre":"Soul/Funk","price":"Free","supports":[],"ticketUrl":null,"time":" 3:30pm"},{"categories":["Music"],"eDate":"2025-08-09","eName":"32 Bars","genre":"Jazz","price":"Free","supports":[],"ticketUrl":null,"time":" 7:30pm"}],"vName":"Bar 303"},"type":"Feature"},{"geometry":{"coordinates":[144.9891167,-37.7996488],"type":"Point"},"properties":{"events":[{"categories":["Music"],"eDate":"2025-08-09","eName":"Emo Diva: Divorce Core with Divorced Dad 83","genre":null,"price":"$0.00 - 28.00","supports":[],"ticketUrl":null,"time":" 9pm"}],"vName":"Bendigo Hotel"},"type":"Feature"},{"geometry":{"coordinates":[144.9568039,-37.8111442],"type":"Point"},"properties":{"events":[{"categories":["Music"],"eDate":"2025-08-09","eName":"Andrew De Silva’s R&B Mixtape","genre":"R&B","price":"$40.00","supports":[],"ticketUrl":null,"time":" 6pm"}],"vName":"Bird's Basement"},"type":"Feature"},{"geometry":{"coordinates":[144.9617083,-37.7704205],"type":"Point"},"properties":{"events":[{"categories":["Music"],"eDate":"2025-08-09","eName":"Geoff Achison, Charlie Wooton & Arsène Delay","genre":"Blues","price":"$38.86","supports":[],"ticketUrl":null,"time":" 2pm"},{"categories":["Music"],"eDate":"2025-08-09","eName":"Mark Wilkinson","genre":"Acoustic","price":"$39.00","supports":["Mark Crotti"],"ticketUrl":null,"time":" 8:30pm"}],"vName":"Brunswick Ballroom"},"type":"Feature"},{"geometry":{"coordinates":[144.9951224,-37.8476521],"type":"Point"},"properties":{"events":[{"categories":["Music"],"eDate":"2025-08-09","eName":"Songs For A New World","genre":"Pop","price":"$69.00","supports":[],"ticketUrl":null,"time":" 7pm"}],"vName":"Chapel Off Chapel"},"type":"Feature"},{"geometry":{"coordinates":[144.9713425,-37.8128595],"type":"Point"},"properties":{"events":[{"categories":["Music"],"eDate":"2025-08-09","eName":"The Heavy Kicks","genre":null,"price":"Free","supports":[],"ticketUrl":null,"time":" 8pm"},{"categories":["Free","Music"],"eDate":"2025-08-09","eName":"Death Disco","genre":null,"price":"Free","supports":[],"ticketUrl":null,"time":" 9pm"}],"vName":"Cherry Bar"},"type":"Feature"},{"geometry":{"coordinates":[144.9926664,-37.8248893],"type":"Point"},"properties":{"events":[{"categories":["Music"],"eDate":"2025-08-09","eName":"Death Cab for Cutie Celebration (Plans 20th Anniversary)","genre":"Indie","price":"$25.00","supports":[],"ticketUrl":null,"time":" 8:30pm"}],"vName":"Corner Hotel"},"type":"Feature"},{"geometry":{"coordinates":[144.9693768,-37.8164414],"type":"Point"},"properties":{"events":[{"categories":["Music"],"eDate":"2025-08-09","eName":"The Used: Self Titled","genre":"Punk","price":"$99.90","supports":[],"ticketUrl":null,"time":" 7pm"}],"vName":"Forum Melbourne"},"type":"Feature"},{"geometry":{"coordinates":[144.9875792,-37.7963739],"type":"Point"},"properties":{"events":[{"categories":["Music"],"eDate":"2025-08-09","eName":"Máquina Peligrosa + Big Moist & The Smoking Durries","genre":"Rock","price":"$13.00","supports":[],"ticketUrl":null,"time":" 8pm"}],"vName":"Gem Bar"},"type":"Feature"},{"geometry":{"coordinates":[144.9787378,-37.7954205],"type":"Point"},"properties":{"events":[{"categories":["Music"],"eDate":"2025-08-09","eName":"Glamorama Saturdays","genre":"Electronic","price":"$15.00 - 25.00","supports":["Bby Cass"," EMMYK"," Tilly"," Webb"," Elise Tali"],"ticketUrl":null,"time":" 9pm"}],"vName":"Glamorama"},"type":"Feature"},{"geometry":{"coordinates":[144.973013,-37.8640582],"type":"Point"},"properties":{"events":[{"categories":["Music"],"eDate":"2025-08-09","eName":"Gentle Ben & His Shimmering Hands","genre":"Rock","price":"$18.90","supports":["Moler"," Armour"],"ticketUrl":null,"time":" 7pm"}],"vName":"Hotel Esplanade (aka The Espy)"},"type":"Feature"},{"geometry":{"coordinates":[144.9596527,-37.7720304],"type":"Point"},"properties":{"events":[{"categories":["Music"],"eDate":"2025-08-09","eName":"Bass.ic presents: Benjamin","genre":"Electronic","price":"$12.24 - 25.50","supports":["Sammy La Marca"],"ticketUrl":null,"time":" 8pm"}],"vName":"Howler"},"type":"Feature"},{"geometry":{"coordinates":[145.0008148,-37.8107158],"type":"Point"},"properties":{"events":[{"categories":["Music"],"eDate":"2025-08-09","eName":"Ablaze","genre":"Metal","price":"$34.70","supports":[],"ticketUrl":null,"time":" 7pm"}],"vName":"Leadbeater Hotel"},"type":"Feature"},{"geometry":{"coordinates":[144.9658499,-37.8147453],"type":"Point"},"properties":{"events":[{"categories":["Music"],"eDate":"2025-08-09","eName":"Meteora: A Linkin Park Tribute","genre":"Metal","price":"$33.15 - 43.90","supports":["DJ HobG"," WildAsh"],"ticketUrl":null,"time":" 7pm"}],"vName":"Max Watt's (Melbourne)"},"type":"Feature"},{"geometry":{"coordinates":[144.9675876,-37.8240849],"type":"Point"},"properties":{"events":[{"categories":["Music"],"eDate":"2025-08-09","eName":"Jasper Ly & Peter Dumsday: TENERA","genre":"Classical","price":"$37.00","supports":[],"ticketUrl":null,"time":" 7pm"},{"categories":["Music"],"eDate":"2025-08-09","eName":"Circa & The Art of Fugue","genre":"Classical","price":"$30.00","supports":[],"ticketUrl":null,"time":" 7pm"}],"vName":"Melbourne Recital Centre"},"type":"Feature"},{"geometry":{"coordinates":[144.9790251,-37.8675008],"type":"Point"},"properties":{"events":[{"categories":["Music"],"eDate":"2025-08-09","eName":"Hamoris Lian Timor: Reviving the Sound of Timor","genre":"Global","price":"$20.00 - 50.00","supports":[],"ticketUrl":null,"time":" 7pm"}],"vName":"Memo Music Hall"},"type":"Feature"},{"geometry":{"coordinates":[144.998414,-37.771471],"type":"Point"},"properties":{"events":[{"categories":["Music"],"eDate":"2025-08-09","eName":"Big Noter","genre":"Punk","price":"Free","supports":["Timepeace"],"ticketUrl":null,"time":" 8:30pm"}],"vName":"Northcote Social Club"},"type":"Feature"},{"geometry":{"coordinates":[145.0015248,-37.8258878],"type":"Point"},"properties":{"events":[{"categories":["Music"],"eDate":"2025-08-09","eName":"Club Country","genre":"Electronic","price":"$20.00","supports":["DJ Monk De Wally"," DJ Honk"],"ticketUrl":null,"time":" 8pm"}],"vName":"Odeon Richmond"},"type":"Feature"},{"geometry":{"coordinates":[144.97711,-37.79833],"type":"Point"},"properties":{"events":[{"categories":["Music"],"eDate":"2025-08-09","eName":"Ash Santilla","genre":"Indie","price":"$17.35","supports":["Meghan Maike & The Cactus Flowers"," Joyce Prescher"],"ticketUrl":null,"time":" 8pm"}],"vName":"Old Bar"},"type":"Feature"},{"geometry":{"coordinates":[144.96084,-37.813514],"type":"Point"},"properties":{"events":[{"categories":["Music"],"eDate":"2025-08-09","eName":"A Norah Jones Tribute: Georgie Aué Band","genre":"Soul/Funk","price":"Free","supports":[],"ticketUrl":null,"time":" 6pm"},{"categories":["Music"],"eDate":"2025-08-09","eName":"Georgia Brooks Swingtet","genre":"Jazz","price":"Free","supports":[],"ticketUrl":null,"time":" 6:30pm"},{"categories":["Music"],"eDate":"2025-08-09","eName":"Yunior Terry’s Undercurrents","genre":"Jazz","price":"$45.00","supports":[],"ticketUrl":null,"time":" 9pm"},{"categories":["Music"],"eDate":"2025-08-09","eName":"Jazz Label Giants","genre":"Jazz","price":"Free","supports":[],"ticketUrl":null,"time":" 9:30pm"}],"vName":"Paris Cat Jazz Club"},"type":"Feature"},{"geometry":{"coordinates":[144.9615882,-37.7711432],"type":"Point"},"properties":{"events":[{"categories":["Free","Music"],"eDate":"2025-08-09","eName":"Anatreptix","genre":"Global","price":"Free","supports":[],"ticketUrl":null,"time":" 2pm"},{"categories":["Music"],"eDate":"2025-08-09","eName":"FELONY.","genre":"Indie","price":"$22.00","supports":[],"ticketUrl":null,"time":" 7:30pm"}],"vName":"Retreat Hotel"},"type":"Feature"},{"geometry":{"coordinates":[144.9862196,-37.9091087],"type":"Point"},"properties":{"events":[{"categories":["Music","Other \"Cabaret\""],"eDate":"2025-08-09","eName":"Alexis Fishman: What I’ve Learnt & The Songs That Taught Me","genre":"Jazz","price":"$60.00","supports":[],"ticketUrl":null,"time":" 8:30pm"}],"vName":"Royal Brighton Yacht Club"},"type":"Feature"},{"geometry":{"coordinates":[144.965405,-37.8117457],"type":"Point"},"properties":{"events":[{"categories":["Music"],"eDate":"2025-08-09","eName":"B!TE","genre":null,"price":"Free","supports":[],"ticketUrl":null,"time":" 6pm"}],"vName":"Section 8"},"type":"Feature"},{"geometry":{"coordinates":[144.9607404,-37.7743469],"type":"Point"},"properties":{"events":[{"categories":["Music"],"eDate":"2025-08-09","eName":"2 Pizza 2 Planet","genre":null,"price":"$36.99","supports":[],"ticketUrl":null,"time":" 2:30pm"},{"categories":["Music"],"eDate":"2025-08-09","eName":"Taking Back Saturday: Warped Tour Party","genre":"Punk","price":"$17.85 - 25.00","supports":[],"ticketUrl":null,"time":"11pm"},{"categories":["Music"],"eDate":"2025-08-09","eName":"TAKING BACK SATURDAY: Emo & Pop Punk Night","genre":"Punk","price":"$20.80 - 23.50","supports":[],"ticketUrl":null,"time":"11pm"}],"vName":"Stay Gold"},"type":"Feature"},{"geometry":{"coordinates":[144.9706211,-37.778276],"type":"Point"},"properties":{"events":[{"categories":["Music"],"eDate":"2025-08-09","eName":"DJ Miss Goldie + DJ Swella","genre":"Soul/Funk","price":"Free","supports":[],"ticketUrl":null,"time":" 8pm"}],"vName":"The Beast"},"type":"Feature"},{"geometry":{"coordinates":[144.9657057,-37.8061581],"type":"Point"},"properties":{"events":[{"categories":["Music"],"eDate":"2025-08-09","eName":"Willowbank Grove","genre":null,"price":"$16.35 - 22.85","supports":["Des Cortez"," Erica Avenue"],"ticketUrl":null,"time":" 8pm"}],"vName":"The Curtin"},"type":"Feature"},{"geometry":{"coordinates":[144.9463641,-37.8047757],"type":"Point"},"properties":{"events":[{"categories":["Music"],"eDate":"2025-08-09","eName":"Grevillea","genre":"Indie","price":"$16.35","supports":["Molly Rocket"," Speedbumps"],"ticketUrl":null,"time":" 8pm"}],"vName":"The Last Chance Rock & Roll Bar"},"type":"Feature"},{"geometry":{"coordinates":[144.9800067,-37.76712],"type":"Point"},"properties":{"events":[{"categories":["Music"],"eDate":"2025-08-09","eName":"PSI PHI","genre":null,"price":"$15.00","supports":[],"ticketUrl":null,"time":" 9pm"}],"vName":"The Lomond Hotel"},"type":"Feature"},{"geometry":{"coordinates":[144.9879283,-37.7505509],"type":"Point"},"properties":{"events":[{"categories":["Music"],"eDate":"2025-08-09","eName":"Candice Alisha","genre":"Acoustic","price":"Free","supports":[],"ticketUrl":null,"time":" 7pm"}],"vName":"The Merri Bar"},"type":"Feature"},{"geometry":{"coordinates":[144.9708437,-37.7973184],"type":"Point"},"properties":{"events":[{"categories":["Free","Music"],"eDate":"2025-08-09","eName":"Ed Moon","genre":"Soul/Funk","price":"Free","supports":[],"ticketUrl":null,"time":" 5pm"},{"categories":["Music"],"eDate":"2025-08-09","eName":"Motley Jazz Jam","genre":"Jazz","price":"Free","supports":[],"ticketUrl":null,"time":" 7:30pm"},{"categories":["Comedy","Theatre"],"eDate":"2025-08-09","eName":"The Big HOO-HAA!","genre":null,"price":"$32.00","supports":[],"ticketUrl":null,"time":" 8:30pm"}],"vName":"The Motley Bauhaus"},"type":"Feature"},{"geometry":{"coordinates":[144.9621651,-37.7679775],"type":"Point"},"properties":{"events":[{"categories":["Free","Music"],"eDate":"2025-08-09","eName":"Round the Outside + Sunshine Tip","genre":"Country/Folk","price":"Free","supports":[],"ticketUrl":null,"time":" 9pm"}],"vName":"The Penny Black"},"type":"Feature"},{"geometry":{"coordinates":[144.9998797,-37.7616512],"type":"Point"},"properties":{"events":[{"categories":["Music"],"eDate":"2025-08-09","eName":"100 Moods","genre":"Acoustic","price":"Free","supports":[],"ticketUrl":null,"time":" 8pm"}],"vName":"The Thornbury Local"},"type":"Feature"},{"geometry":{"coordinates":[144.9651425,-37.8119429],"type":"Point"},"properties":{"events":[{"categories":["Free","Music"],"eDate":"2025-08-09","eName":"One Percent: All Night Long","genre":"Electronic","price":"Free","supports":[],"ticketUrl":null,"time":"11pm"}],"vName":"The Toff In Town"},"type":"Feature"},{"geometry":{"coordinates":[144.9769451,-37.8055776],"type":"Point"},"properties":{"events":[{"categories":["Music"],"eDate":"2025-08-09","eName":"Sugartone","genre":"Rock","price":"$10.00","supports":["Jon Edwards"," Icky Sitch"],"ticketUrl":null,"time":" 1pm"},{"categories":["Music"],"eDate":"2025-08-09","eName":"Casino Daylight","genre":"Rock","price":"$17.85","supports":["The Satts"," Lover"],"ticketUrl":null,"time":" 8pm"}],"vName":"The Workers Club"},"type":"Feature"},{"geometry":{"coordinates":[144.975825,-37.863613],"type":"Point"},"properties":{"events":[{"categories":["Theatre"],"eDate":"2025-08-09","eName":"Dial M For Murder (Matinee Session)","genre":null,"price":"$48.00","supports":[],"ticketUrl":null,"time":" 2pm"}],"vName":"Theatre Works"},"type":"Feature"},{"geometry":{"coordinates":[144.9661635,-37.8176298],"type":"Point"},"properties":{"events":[{"categories":["Free","Music"],"eDate":"2025-08-09","eName":"DJ Pierre","genre":null,"price":"Free","supports":[],"ticketUrl":null,"time":" 8pm"}],"vName":"Wax Music Lounge"},"type":"Feature"}],"type":"FeatureCollection"}