{"features":[{"geometry":{"coordinates":[144.9500257,-37.8032773],"type":"Point"},"properties":{"events":[{"categories":["Theatre","Other \"Art \""],"eDate":"2026-05-03","eName":"VIGIL","genre":null,"price":"$40.00","supports":[],"ticketUrl":null,"time":" 5pm"}],"vName":"Arts House"},"type":"Feature"},{"geometry":{"coordinates":[144.978682,-37.7981225],"type":"Point"},"properties":{"events":[{"categories":["Free","Music"],"eDate":"2026-05-03","eName":"Baxter’s Open Mic","genre":null,"price":"Free","supports":[],"ticketUrl":null,"time":" 6pm"},{"categories":["Free","Music"],"eDate":"2026-05-03","eName":"Mya Rogers","genre":null,"price":"Free","supports":[],"ticketUrl":null,"time":" 9pm"}],"vName":"Baxter's Lot"},"type":"Feature"},{"geometry":{"coordinates":[144.9501312,-37.8042459],"type":"Point"},"properties":{"events":[{"categories":["Comedy"],"eDate":"2026-05-03","eName":"Sunday Night Comedy","genre":null,"price":"$10.00","supports":[],"ticketUrl":null,"time":" 7:30pm"}],"vName":"Club Voltaire"},"type":"Feature"},{"geometry":{"coordinates":[144.9751557,-37.8057885],"type":"Point"},"properties":{"events":[{"categories":["Free","Music"],"eDate":"2026-05-03","eName":"Round the Outside","genre":"Country/Folk","price":"Free","supports":[],"ticketUrl":null,"time":" 4pm"}],"vName":"The Catfish"},"type":"Feature"},{"geometry":{"coordinates":[144.9651425,-37.8119429],"type":"Point"},"properties":{"events":[{"categories":["Markets","Other \"Cabaret\""],"eDate":"2026-05-03","eName":"The Melbourne Festival of Tease: The Market Day & The 2nd Workshop Day","genre":null,"price":"$47.94 - 70.38","supports":[],"ticketUrl":null,"time":"11am"}],"vName":"The Toff In Town"},"type":"Feature"}],"type":"FeatureCollection"}