{"features":[{"geometry":{"coordinates":[144.9607158,-37.776327],"type":"Point"},"properties":{"events":[{"categories":["Music"],"eDate":"2026-01-03","eName":"The Casanovas","genre":"Rock","price":"$33.15","supports":["Spitting Chips"," Snake Powder"],"ticketUrl":null,"time":" 7:30pm"}],"vName":"Bergy Bandroom"},"type":"Feature"},{"geometry":{"coordinates":[144.1430697,-37.3414953],"type":"Point"},"properties":{"events":[{"categories":["Music","Free"],"eDate":"2026-01-03","eName":"Jeremy Beggs","genre":"Country/Folk","price":"Free","supports":[],"ticketUrl":null,"time":" 2pm"}],"vName":"Daylesford Hotel"},"type":"Feature"},{"geometry":{"coordinates":[144.973013,-37.8640582],"type":"Point"},"properties":{"events":[{"categories":["Music","Free"],"eDate":"2026-01-03","eName":"Charlotte Plank","genre":"Electronic","price":"Free","supports":[],"ticketUrl":null,"time":" 7pm"}],"vName":"Hotel Esplanade (aka The Espy)"},"type":"Feature"},{"geometry":{"coordinates":[144.9615882,-37.7711432],"type":"Point"},"properties":{"events":[{"categories":["Free","Music"],"eDate":"2026-01-03","eName":"Finojet","genre":"Indie","price":"Free","supports":[],"ticketUrl":null,"time":" 2pm"}],"vName":"Retreat Hotel"},"type":"Feature"},{"geometry":{"coordinates":[145.0013923,-37.7559265],"type":"Point"},"properties":{"events":[{"categories":["Music","Other \"Dance \""],"eDate":"2026-01-03","eName":"BurlyRock","genre":"Rock","price":"Free","supports":[],"ticketUrl":null,"time":" 7pm"}],"vName":"Shotkickers"},"type":"Feature"},{"geometry":{"coordinates":[144.9769451,-37.8055776],"type":"Point"},"properties":{"events":[{"categories":["Music"],"eDate":"2026-01-03","eName":"Resolution Rock: Karly Jewell","genre":"Rock","price":"$20.00","supports":["Julius"," Rusty"],"ticketUrl":null,"time":" 8pm"}],"vName":"The Workers Club"},"type":"Feature"}],"type":"FeatureCollection"}