{"features":[{"geometry":{"coordinates":[144.978682,-37.7981225],"type":"Point"},"properties":{"events":[{"categories":["Free","Music"],"eDate":"2024-09-15","eName":"Lewis Toms","genre":null,"price":"Free","supports":[],"ticketUrl":null,"time":" 9:30pm"}],"vName":"Baxter's Lot"},"type":"Feature"},{"geometry":{"coordinates":[144.9945274,-37.8001115],"type":"Point"},"properties":{"events":[{"categories":["Free","Music","Festival","Dance","Other \"Food & Drink\""],"eDate":"2024-09-15","eName":"Hasta Pronto!: The Lone Mariachi & The Silver Masked Men","genre":null,"price":"Free","supports":[],"ticketUrl":null,"time":" 6pm"},{"categories":["Comedy","Other \"Food & Drink\"","Other \"Film\""],"eDate":"2024-09-15","eName":"Nick Capper & Ben Knight: A Filming Of Stand Up Comedy","genre":null,"price":"$20.00","supports":[],"ticketUrl":null,"time":" 7pm"}],"vName":"Bodriggy Brewing Company"},"type":"Feature"},{"geometry":{"coordinates":[144.973013,-37.8640582],"type":"Point"},"properties":{"events":[{"categories":["Music"],"eDate":"2024-09-15","eName":"RAWKUS Live! (All Ages Gig)","genre":null,"price":"$10.00","supports":[],"ticketUrl":null,"time":" 1pm"}],"vName":"Hotel Esplanade (aka The Espy)"},"type":"Feature"},{"geometry":{"coordinates":[144.9936498,-37.8000264],"type":"Point"},"properties":{"events":[{"categories":["Free","Music"],"eDate":"2024-09-15","eName":"Northside Shiners","genre":"Blues","price":"Free","supports":[],"ticketUrl":null,"time":" 4pm"},{"categories":["Comedy"],"eDate":"2024-09-15","eName":"Lulie Comedy Club","genre":null,"price":"$15.00","supports":[],"ticketUrl":null,"time":" 7pm"}],"vName":"Lulie Tavern"},"type":"Feature"},{"geometry":{"coordinates":[144.8971518,-37.8054274],"type":"Point"},"properties":{"events":[{"categories":["Free","Music"],"eDate":"2024-09-15","eName":"Little Somebodies","genre":"Indie","price":"Free","supports":["Heather Fiona"," George Last"],"ticketUrl":null,"time":" 2pm"},{"categories":["Free","Music"],"eDate":"2024-09-15","eName":"Oh, sweet William","genre":null,"price":"Free","supports":["Who Cares?"," Caleb Green"],"ticketUrl":null,"time":" 7pm"}],"vName":"Mamma Chen's"},"type":"Feature"},{"geometry":{"coordinates":[144.96741062735794,-37.82454855],"type":"Point"},"properties":{"events":[{"categories":["Music"],"eDate":"2024-09-15","eName":"Brandenburg: Handel's House","genre":"Classical","price":"$30.00","supports":[],"ticketUrl":null,"time":" 5pm"}],"vName":"Melbourne Recital Centre"},"type":"Feature"},{"geometry":{"coordinates":[144.9786817,-37.8671902],"type":"Point"},"properties":{"events":[{"categories":["Music"],"eDate":"2024-09-15","eName":"Luoda","genre":null,"price":"$30.00 - 45.00","supports":["Nina Ferro"],"ticketUrl":null,"time":" 3pm"}],"vName":"Memo Music Hall"},"type":"Feature"},{"geometry":{"coordinates":[145.3553553,-37.9078552],"type":"Point"},"properties":{"events":[{"categories":["Free","Music"],"eDate":"2024-09-15","eName":"Charley Cestnik","genre":"Acoustic","price":"Free","supports":[],"ticketUrl":null,"time":"12pm"}],"vName":"Micawber Tavern"},"type":"Feature"},{"geometry":{"coordinates":[145.0142411,-37.7310367],"type":"Point"},"properties":{"events":[{"categories":["Free","Music"],"eDate":"2024-09-15","eName":"Sunday Sunset Sessions","genre":"Jazz","price":"Free","supports":[],"ticketUrl":null,"time":" 6pm"}],"vName":"Ragtime Tavern"},"type":"Feature"},{"geometry":{"coordinates":[144.9615882,-37.7711432],"type":"Point"},"properties":{"events":[{"categories":["Free","Music"],"eDate":"2024-09-15","eName":"David Cosma","genre":"Rock","price":"Free","supports":[],"ticketUrl":null,"time":" 2:30pm"},{"categories":["Music"],"eDate":"2024-09-15","eName":"Sabor Y Ritmo: Afro-Cuban Jazz","genre":"Jazz","price":"$15.00 - 20.00","supports":[],"ticketUrl":null,"time":" 7pm"}],"vName":"Retreat Hotel"},"type":"Feature"},{"geometry":{"coordinates":[144.9631913,-37.7617818],"type":"Point"},"properties":{"events":[{"categories":["Music"],"eDate":"2024-09-15","eName":"Hamish Bloom","genre":"Indie","price":"$10.00","supports":["Linen"," Oberon Bramall-White"],"ticketUrl":null,"time":" 8pm"}],"vName":"Ringo Barr"},"type":"Feature"},{"geometry":{"coordinates":[145.001392343033,-37.75592655],"type":"Point"},"properties":{"events":[{"categories":["Music"],"eDate":"2024-09-15","eName":"32 Bars","genre":"Jazz","price":"$20.00","supports":[],"ticketUrl":null,"time":" 6pm"}],"vName":"Shotkickers"},"type":"Feature"}],"type":"FeatureCollection"}