{"features":[{"geometry":{"coordinates":[144.9982812,-37.7713296],"type":"Point"},"properties":{"events":[{"categories":["Free","Music"],"eDate":"2026-05-09","eName":"Dub Spiral #2 by Rudi Sound","genre":null,"price":"Free","supports":[],"ticketUrl":null,"time":" 8pm"}],"vName":"Bar 303"},"type":"Feature"},{"geometry":{"coordinates":[144.978682,-37.7981225],"type":"Point"},"properties":{"events":[{"categories":["Free","Music"],"eDate":"2026-05-09","eName":"Woody Samson & Lewis Toms","genre":null,"price":"Free","supports":[],"ticketUrl":null,"time":" 9pm"}],"vName":"Baxter's Lot"},"type":"Feature"},{"geometry":{"coordinates":[144.9891167,-37.7996488],"type":"Point"},"properties":{"events":[{"categories":["Music"],"eDate":"2026-05-09","eName":"Ska Fighter II Fest 2026","genre":null,"price":"$58.15 - 62.75","supports":["more"],"ticketUrl":null,"time":" 2:30pm"}],"vName":"Bendigo Hotel"},"type":"Feature"},{"geometry":{"coordinates":[144.9607158,-37.776327],"type":"Point"},"properties":{"events":[{"categories":["Music"],"eDate":"2026-05-09","eName":"The Corduroys","genre":"Soul/Funk","price":"$15.00","supports":[],"ticketUrl":null,"time":" 1:30pm"},{"categories":["Music"],"eDate":"2026-05-09","eName":"Burning Bitumen Birthday Bonaza: 25 Years of Evil","genre":"Metal","price":"$38.25","supports":[],"ticketUrl":null,"time":" 7:30pm"}],"vName":"Bergy Bandroom"},"type":"Feature"},{"geometry":{"coordinates":[144.9568039,-37.8111442],"type":"Point"},"properties":{"events":[{"categories":["Music"],"eDate":"2026-05-09","eName":"HYDRA: The Australian TOTO Show","genre":"Rock","price":"$35.00","supports":[],"ticketUrl":null,"time":" 6pm"}],"vName":"Bird's Basement"},"type":"Feature"},{"geometry":{"coordinates":[144.9617083,-37.7704205],"type":"Point"},"properties":{"events":[{"categories":["Free","Music"],"eDate":"2026-05-09","eName":"Nelly Bardelle","genre":"Indie","price":"Free","supports":["Ratfink!"," Asha Ryder West"],"ticketUrl":null,"time":" 4:30pm"}],"vName":"Brunswick Artists' Bar"},"type":"Feature"},{"geometry":{"coordinates":[145.0004166,-37.7612582],"type":"Point"},"properties":{"events":[{"categories":["Music"],"eDate":"2026-05-09","eName":"Mirror Clippers","genre":null,"price":"$18.90","supports":["Dopplerhaus"," Sanszu"," Heavy Delay"],"ticketUrl":null,"time":" 8pm"}],"vName":"Cactus Room"},"type":"Feature"},{"geometry":{"coordinates":[144.9713425,-37.8128595],"type":"Point"},"properties":{"events":[{"categories":["Music"],"eDate":"2026-05-09","eName":"Murray & The Movers","genre":"Soul/Funk","price":"$20.54","supports":[],"ticketUrl":null,"time":" 8pm"},{"categories":["Free","Music"],"eDate":"2026-05-09","eName":"Trash Indie Sleaze Party","genre":null,"price":"Free","supports":[],"ticketUrl":null,"time":"11pm"}],"vName":"Cherry Bar"},"type":"Feature"},{"geometry":{"coordinates":[144.9248037,-37.7656716],"type":"Point"},"properties":{"events":[{"categories":["Music"],"eDate":"2026-05-09","eName":"The 70s80s90s Show","genre":"Pop","price":"$72.00","supports":[],"ticketUrl":null,"time":" 7:30pm"}],"vName":"Clocktower Centre"},"type":"Feature"},{"geometry":{"coordinates":[144.9501312,-37.8042459],"type":"Point"},"properties":{"events":[{"categories":["Music"],"eDate":"2026-05-09","eName":"Shadow Resonance","genre":"Classical","price":"$15.00","supports":[],"ticketUrl":null,"time":" 7:15pm"}],"vName":"Club Voltaire"},"type":"Feature"},{"geometry":{"coordinates":[144.9926664,-37.8248893],"type":"Point"},"properties":{"events":[{"categories":["Music"],"eDate":"2026-05-09","eName":"kanekoayano","genre":"Rock","price":"$75.15","supports":["Public Figures"],"ticketUrl":null,"time":" 8:30pm"}],"vName":"Corner Hotel"},"type":"Feature"},{"geometry":{"coordinates":[144.9627513,-37.760963],"type":"Point"},"properties":{"events":[{"categories":["Music"],"eDate":"2026-05-09","eName":"Youthless","genre":"Jazz","price":"Free","supports":[],"ticketUrl":null,"time":" 8pm"}],"vName":"Edinburgh Castle Hotel"},"type":"Feature"},{"geometry":{"coordinates":[144.9777885,-37.8597831],"type":"Point"},"properties":{"events":[{"categories":["Music"],"eDate":"2026-05-09","eName":"Cliff Raux","genre":"Acoustic","price":"Free","supports":[],"ticketUrl":null,"time":" 8pm"},{"categories":["Music"],"eDate":"2026-05-09","eName":"DJ George + DJ Christian","genre":"Rock","price":"Free","supports":[],"ticketUrl":null,"time":"11pm"}],"vName":"Freddie Wimpoles"},"type":"Feature"},{"geometry":{"coordinates":[144.983442,-37.804851],"type":"Point"},"properties":{"events":[{"categories":["Free","Music"],"eDate":"2026-05-09","eName":"idle flowers","genre":"Indie","price":"$10.00 - 15.00","supports":["Mayari"," Uberwench"],"ticketUrl":null,"time":" 8pm"}],"vName":"Grace Darling Hotel"},"type":"Feature"},{"geometry":{"coordinates":[144.9679835,-37.8201575],"type":"Point"},"properties":{"events":[{"categories":["Music"],"eDate":"2026-05-09","eName":"Classic Kids: Beethoven’s Gaming Quest","genre":"Classical","price":"$28.00","supports":[],"ticketUrl":null,"time":"10:30am"},{"categories":["Music"],"eDate":"2026-05-09","eName":"Classic Kids: Beethoven’s Gaming Quest (Relaxed Performance)","genre":"Classical","price":"$28.00","supports":[],"ticketUrl":null,"time":"12:30pm"},{"categories":["Music"],"eDate":"2026-05-09","eName":"Symphony in a Day","genre":"Classical","price":"$29.00","supports":[],"ticketUrl":null,"time":" 7:30pm"}],"vName":"Hamer Hall (Arts Centre Melbourne)"},"type":"Feature"},{"geometry":{"coordinates":[144.973013,-37.8640582],"type":"Point"},"properties":{"events":[{"categories":["Music"],"eDate":"2026-05-09","eName":"Ludes","genre":"Electronic","price":"$22.95","supports":["Please People"," Real Good Company"],"ticketUrl":null,"time":" 7:30pm"}],"vName":"Hotel Esplanade (aka The Espy)"},"type":"Feature"},{"geometry":{"coordinates":[144.9596527,-37.7720304],"type":"Point"},"properties":{"events":[{"categories":["Music"],"eDate":"2026-05-09","eName":"Highschool","genre":"Rock","price":"$39.90 - 49.90","supports":["Sleepazoid"," Rain Dogs"],"ticketUrl":null,"time":" 8pm"}],"vName":"Howler"},"type":"Feature"},{"geometry":{"coordinates":[145.0008148,-37.8107158],"type":"Point"},"properties":{"events":[{"categories":["Music"],"eDate":"2026-05-09","eName":"Terra Rouge","genre":null,"price":"$28.85","supports":["Kash"," The Screamagers"],"ticketUrl":null,"time":"12pm"},{"categories":["Music"],"eDate":"2026-05-09","eName":"Terra Rouge","genre":"Rock","price":"$23.75 - 28.85","supports":["Kash"," The Screamagers"],"ticketUrl":null,"time":"12pm"}],"vName":"Leadbeater Hotel"},"type":"Feature"},{"geometry":{"coordinates":[144.9675876,-37.8240849],"type":"Point"},"properties":{"events":[{"categories":["Music"],"eDate":"2026-05-09","eName":"Paulini & Tim Campbell Electrifying 80s (Matinee Session)","genre":"Pop","price":"$84.90 - 89.90","supports":[],"ticketUrl":null,"time":" 2pm"},{"categories":["Music"],"eDate":"2026-05-09","eName":"Joshua Moshe","genre":"Jazz","price":"$50.00","supports":[],"ticketUrl":null,"time":" 7pm"},{"categories":["Music"],"eDate":"2026-05-09","eName":"Paulini & Tim Campbell Electrifying 80s","genre":"Pop","price":"$84.90 - 89.90","supports":[],"ticketUrl":null,"time":" 7:30pm"}],"vName":"Melbourne Recital Centre"},"type":"Feature"},{"geometry":{"coordinates":[144.9790251,-37.8675008],"type":"Point"},"properties":{"events":[{"categories":["Music"],"eDate":"2026-05-09","eName":"Ruthie Foster (Early Session)","genre":"Blues","price":"$90.00 - 95.00","supports":[],"ticketUrl":null,"time":" 3pm"},{"categories":["Music"],"eDate":"2026-05-09","eName":"Ruthie Foster","genre":"Blues","price":"$90.00 - 95.00","supports":[],"ticketUrl":null,"time":" 7pm"}],"vName":"Memo Music Hall"},"type":"Feature"},{"geometry":{"coordinates":[144.998414,-37.771471],"type":"Point"},"properties":{"events":[{"categories":["Music"],"eDate":"2026-05-09","eName":"Rollerball","genre":"Rock","price":"$40.00","supports":["Nuada"," The Girlies"],"ticketUrl":null,"time":" 8pm"}],"vName":"Northcote Social Club"},"type":"Feature"},{"geometry":{"coordinates":[144.9982706,-37.7737068],"type":"Point"},"properties":{"events":[{"categories":["Music"],"eDate":"2026-05-09","eName":"Ball Park Music","genre":"Rock","price":"Free","supports":["Merpire"," Lewis Coleman"],"ticketUrl":null,"time":" 7:30pm"}],"vName":"Northcote Theatre"},"type":"Feature"},{"geometry":{"coordinates":[145.0015248,-37.8258878],"type":"Point"},"properties":{"events":[{"categories":["Music"],"eDate":"2026-05-09","eName":"Surrounded By Sound presents Split Enz Enzyclopedia Vol. 1 & 2","genre":"Rock","price":"$10.00","supports":["WhamBamThankUGlam! DJs"," BOWIEoke"],"ticketUrl":null,"time":" 7pm"}],"vName":"Odeon Richmond"},"type":"Feature"},{"geometry":{"coordinates":[144.96084,-37.813514],"type":"Point"},"properties":{"events":[{"categories":["Music"],"eDate":"2026-05-09","eName":"Not So Big Band: The Music of Frank Sinatra","genre":"Jazz","price":"Free","supports":[],"ticketUrl":null,"time":" 6pm"},{"categories":["Music"],"eDate":"2026-05-09","eName":"Collaborations: Kerri Simpson, Bob Sedergreen & Carl Pannuzzo","genre":"Jazz","price":"$45.00","supports":[],"ticketUrl":null,"time":" 6:30pm"},{"categories":["Music"],"eDate":"2026-05-09","eName":"The Radiohead Project with Amelia Evans","genre":"Jazz","price":"$45.00","supports":[],"ticketUrl":null,"time":" 9pm"},{"categories":["Music"],"eDate":"2026-05-09","eName":"John Bennett Quintet: Plays the Music of Cannonball & Nat Adderley","genre":"Jazz","price":"$45.00","supports":[],"ticketUrl":null,"time":" 9:30pm"}],"vName":"Paris Cat Jazz Club"},"type":"Feature"},{"geometry":{"coordinates":[144.993413,-37.8506652],"type":"Point"},"properties":{"events":[{"categories":["Free","Music"],"eDate":"2026-05-09","eName":"Rise & Shine","genre":"Electronic","price":"Free","supports":[],"ticketUrl":null,"time":" 7am"},{"categories":["Music"],"eDate":"2026-05-09","eName":"The Late Show","genre":"Electronic","price":"$31.62","supports":[],"ticketUrl":null,"time":"10pm"}],"vName":"Revolver Upstairs"},"type":"Feature"},{"geometry":{"coordinates":[145.0013923,-37.7559265],"type":"Point"},"properties":{"events":[{"categories":["Music"],"eDate":"2026-05-09","eName":"Evvy George & The Big Bird Band","genre":null,"price":"$29.25","supports":["Freya Josephine Hollick"],"ticketUrl":null,"time":" 2pm"},{"categories":["Music"],"eDate":"2026-05-09","eName":"Dead City Ruins","genre":"Rock","price":"$29.25","supports":["Envy Marshall"," Stonetrip"],"ticketUrl":null,"time":" 8pm"}],"vName":"Shotkickers"},"type":"Feature"},{"geometry":{"coordinates":[144.9607404,-37.7743469],"type":"Point"},"properties":{"events":[{"categories":["Music"],"eDate":"2026-05-09","eName":"am//pm emo night","genre":"Punk","price":"$20.00 - 25.00","supports":[],"ticketUrl":null,"time":" 8pm"}],"vName":"Stay Gold"},"type":"Feature"},{"geometry":{"coordinates":[144.9751557,-37.8057885],"type":"Point"},"properties":{"events":[{"categories":["Music"],"eDate":"2026-05-09","eName":"Fast Castle","genre":null,"price":"$15.00","supports":["Moths"," Waxman"],"ticketUrl":null,"time":" 8pm"}],"vName":"The Catfish"},"type":"Feature"},{"geometry":{"coordinates":[144.9708437,-37.7973184],"type":"Point"},"properties":{"events":[{"categories":["Theatre"],"eDate":"2026-05-09","eName":"A Twist of Fate","genre":null,"price":"$35.96","supports":[],"ticketUrl":null,"time":" 7pm"}],"vName":"The Motley Bauhaus"},"type":"Feature"},{"geometry":{"coordinates":[144.9794553,-37.7982653],"type":"Point"},"properties":{"events":[{"categories":["Music"],"eDate":"2026-05-09","eName":"Joey Lightbulb & Friends: By Request","genre":"Electronic","price":"$34.49","supports":[],"ticketUrl":null,"time":" 9pm"}],"vName":"The Night Cat"},"type":"Feature"},{"geometry":{"coordinates":[144.9998797,-37.7616512],"type":"Point"},"properties":{"events":[{"categories":["Music"],"eDate":"2026-05-09","eName":"Dirty Lopez","genre":null,"price":"Free","supports":[],"ticketUrl":null,"time":" 8pm"}],"vName":"The Thornbury Local"},"type":"Feature"},{"geometry":{"coordinates":[144.9212126,-37.8326711],"type":"Point"},"properties":{"events":[{"categories":["Other \"Art \"","Other \"Spoken Word, Poetry \""],"eDate":"2026-05-09","eName":"Creator Summit 2026","genre":null,"price":"$29.00","supports":[],"ticketUrl":null,"time":"10am"}],"vName":"The Timber Yard"},"type":"Feature"}],"type":"FeatureCollection"}