{"features":[{"geometry":{"coordinates":[144.9982812,-37.7713296],"type":"Point"},"properties":{"events":[{"categories":["Music"],"eDate":"2026-04-25","eName":"Fuá da Tita","genre":"Global","price":"Free","supports":[],"ticketUrl":null,"time":" 7:30pm"}],"vName":"Bar 303"},"type":"Feature"},{"geometry":{"coordinates":[144.353924,-38.1629265],"type":"Point"},"properties":{"events":[{"categories":["Music"],"eDate":"2026-04-25","eName":"Jesse Valach & The Testaments","genre":"Blues","price":"$30.00","supports":["Blues Roulette"],"ticketUrl":null,"time":" 7pm"}],"vName":"Barwon Club Hotel"},"type":"Feature"},{"geometry":{"coordinates":[144.978682,-37.7981225],"type":"Point"},"properties":{"events":[{"categories":["Free","Music"],"eDate":"2026-04-25","eName":"Lewis Toms","genre":null,"price":"Free","supports":[],"ticketUrl":null,"time":" 9pm"}],"vName":"Baxter's Lot"},"type":"Feature"},{"geometry":{"coordinates":[145.0004166,-37.7612582],"type":"Point"},"properties":{"events":[{"categories":["Music"],"eDate":"2026-04-25","eName":"Fenn Wilson & The Weather","genre":null,"price":"$24.00","supports":["Convenience Store"," Prink"],"ticketUrl":null,"time":" 8pm"}],"vName":"Cactus Room"},"type":"Feature"},{"geometry":{"coordinates":[144.9713425,-37.8128595],"type":"Point"},"properties":{"events":[{"categories":["Free","Music"],"eDate":"2026-04-25","eName":"Trash Indie Sleaze Saturday","genre":"Indie","price":"Free","supports":[],"ticketUrl":null,"time":"11pm"}],"vName":"Cherry Bar"},"type":"Feature"},{"geometry":{"coordinates":[144.9248037,-37.7656716],"type":"Point"},"properties":{"events":[{"categories":["Theatre","Other \"Dance \""],"eDate":"2026-04-25","eName":"Kaladhara presents Sri Krishna Leela: A Dance Musical","genre":null,"price":"$45.00 - 70.00","supports":[],"ticketUrl":null,"time":" 6pm"}],"vName":"Clocktower Centre"},"type":"Feature"},{"geometry":{"coordinates":[144.9627513,-37.760963],"type":"Point"},"properties":{"events":[{"categories":["Free","Music"],"eDate":"2026-04-25","eName":"Rachel Clark","genre":"Acoustic","price":"Free","supports":[],"ticketUrl":null,"time":" 8pm"}],"vName":"Edinburgh Castle Hotel"},"type":"Feature"},{"geometry":{"coordinates":[144.8984802,-37.8111559],"type":"Point"},"properties":{"events":[{"categories":["Music"],"eDate":"2026-04-25","eName":"Golden Phoenix Fundraiser Day Party","genre":"Electronic","price":"$50.00 - 80.00","supports":["more"],"ticketUrl":null,"time":" 2pm"}],"vName":"Kindred Bandroom"},"type":"Feature"},{"geometry":{"coordinates":[144.8975289,-37.8022392],"type":"Point"},"properties":{"events":[{"categories":["Music"],"eDate":"2026-04-25","eName":"Euphoria","genre":"Electronic","price":"Free","supports":[],"ticketUrl":null,"time":" 6:30pm"}],"vName":"Mamma Chen's"},"type":"Feature"},{"geometry":{"coordinates":[144.9982706,-37.7737068],"type":"Point"},"properties":{"events":[{"categories":["Music"],"eDate":"2026-04-25","eName":"Helmet","genre":"Metal","price":"$89.90","supports":[],"ticketUrl":null,"time":" 7pm"}],"vName":"Northcote Theatre"},"type":"Feature"},{"geometry":{"coordinates":[144.97711,-37.79833],"type":"Point"},"properties":{"events":[{"categories":["Free","Music"],"eDate":"2026-04-25","eName":"Things We Built","genre":null,"price":"Free","supports":["Mark Campbell & The Ravens"],"ticketUrl":null,"time":" 4pm"}],"vName":"Old Bar"},"type":"Feature"},{"geometry":{"coordinates":[144.96084,-37.813514],"type":"Point"},"properties":{"events":[{"categories":["Music"],"eDate":"2026-04-25","eName":"The Little Bourke Big Band Presents: The Best Of Amy Winehouse","genre":"Jazz","price":"Free","supports":[],"ticketUrl":null,"time":" 5:30pm"},{"categories":["Music"],"eDate":"2026-04-25","eName":"West Coast Cool: Jazz from the City of Angels","genre":"Jazz","price":"$45.00","supports":[],"ticketUrl":null,"time":" 6pm"},{"categories":["Music"],"eDate":"2026-04-25","eName":"The Little Bourke Big Band Presents: The Best Of Amy Winehouse","genre":"Jazz","price":"$48.00","supports":[],"ticketUrl":null,"time":" 8:30pm"},{"categories":["Music"],"eDate":"2026-04-25","eName":"Phoebe Sena Presents ‘Love Deluxe’: The Sade Tribute show","genre":"Jazz","price":"Free","supports":[],"ticketUrl":null,"time":" 9pm"}],"vName":"Paris Cat Jazz Club"},"type":"Feature"},{"geometry":{"coordinates":[144.9854369,-37.798965],"type":"Point"},"properties":{"events":[{"categories":["Free","Music","Other \"Food \""],"eDate":"2026-04-25","eName":"Earth²The Horn","genre":null,"price":"Free","supports":[],"ticketUrl":null,"time":" 9pm"}],"vName":"The Horn African Cafe & Restaurant"},"type":"Feature"},{"geometry":{"coordinates":[144.9879283,-37.7505509],"type":"Point"},"properties":{"events":[{"categories":["Music"],"eDate":"2026-04-25","eName":"Southern Duck","genre":"Jazz","price":"Free","supports":[],"ticketUrl":null,"time":" 7pm"}],"vName":"The Merri Bar"},"type":"Feature"},{"geometry":{"coordinates":[144.9794553,-37.7982653],"type":"Point"},"properties":{"events":[{"categories":["Music"],"eDate":"2026-04-25","eName":"Prizefight","genre":"Electronic","price":"$25.93","supports":["Love Jess"," dozie"],"ticketUrl":null,"time":"10pm"}],"vName":"The Night Cat"},"type":"Feature"},{"geometry":{"coordinates":[144.9651425,-37.8119429],"type":"Point"},"properties":{"events":[{"categories":["Music"],"eDate":"2026-04-25","eName":"White Summer: Return Show","genre":"Rock","price":"$28.56","supports":[],"ticketUrl":null,"time":" 7:30pm"}],"vName":"The Toff In Town"},"type":"Feature"},{"geometry":{"coordinates":[144.9984324,-37.7729134],"type":"Point"},"properties":{"events":[{"categories":["Music"],"eDate":"2026-04-25","eName":"Lucy Wise","genre":"Country/Folk","price":"Free","supports":[],"ticketUrl":null,"time":" 6pm"}],"vName":"Wesley Anne"},"type":"Feature"}],"type":"FeatureCollection"}