{"features":[{"geometry":{"coordinates":[144.978682,-37.7981225],"type":"Point"},"properties":{"events":[{"categories":["Free","Music"],"eDate":"2026-05-08","eName":"Xander Cuming","genre":null,"price":"Free","supports":[],"ticketUrl":null,"time":" 9pm"}],"vName":"Baxter's Lot"},"type":"Feature"},{"geometry":{"coordinates":[144.9568039,-37.8111442],"type":"Point"},"properties":{"events":[{"categories":["Music"],"eDate":"2026-05-08","eName":"Afro-Cuban Roots","genre":"Jazz","price":"$35.00","supports":[],"ticketUrl":null,"time":" 7:30pm"}],"vName":"Bird's Basement"},"type":"Feature"},{"geometry":{"coordinates":[144.9617083,-37.7704205],"type":"Point"},"properties":{"events":[{"categories":["Free","Music"],"eDate":"2026-05-08","eName":"Jack Gabriel","genre":"Electronic","price":"Free","supports":["Oliné"," XS"],"ticketUrl":null,"time":" 8pm"}],"vName":"Brunswick Artists' Bar"},"type":"Feature"},{"geometry":{"coordinates":[144.9617083,-37.7704205],"type":"Point"},"properties":{"events":[{"categories":["Music"],"eDate":"2026-05-08","eName":"Ruthie Foster & Band","genre":"Blues","price":"$96.49","supports":[],"ticketUrl":null,"time":" 8:30pm"}],"vName":"Brunswick Ballroom"},"type":"Feature"},{"geometry":{"coordinates":[145.0004166,-37.7612582],"type":"Point"},"properties":{"events":[{"categories":["Music"],"eDate":"2026-05-08","eName":"Junkyard Wizards","genre":null,"price":"$18.90","supports":["Sweet Nothing"," Black Wattle Witches"],"ticketUrl":null,"time":" 8pm"}],"vName":"Cactus Room"},"type":"Feature"},{"geometry":{"coordinates":[144.9248037,-37.7656716],"type":"Point"},"properties":{"events":[{"categories":["Other \"Spoken Word, Poetry \""],"eDate":"2026-05-08","eName":"Dervla McTiernan: Three Reasons for Revenge","genre":null,"price":"Free","supports":["Angela Savage"],"ticketUrl":null,"time":" 6:30pm"}],"vName":"Clocktower Centre"},"type":"Feature"},{"geometry":{"coordinates":[144.9926664,-37.8248893],"type":"Point"},"properties":{"events":[{"categories":["Music"],"eDate":"2026-05-08","eName":"Texas Is The Reason","genre":"Metal","price":"$79.90","supports":["Coast Arcade"," Average"],"ticketUrl":null,"time":" 8pm"}],"vName":"Corner Hotel"},"type":"Feature"},{"geometry":{"coordinates":[144.9627513,-37.760963],"type":"Point"},"properties":{"events":[{"categories":["Music"],"eDate":"2026-05-08","eName":"Basement Spaceman","genre":"Indie","price":"Free","supports":[],"ticketUrl":null,"time":" 8pm"}],"vName":"Edinburgh Castle Hotel"},"type":"Feature"},{"geometry":{"coordinates":[144.9489214,-37.8106039],"type":"Point"},"properties":{"events":[{"categories":["Music"],"eDate":"2026-05-08","eName":"Katseye","genre":"Pop","price":"Free","supports":[],"ticketUrl":null,"time":" 6:30pm"}],"vName":"Festival Hall"},"type":"Feature"},{"geometry":{"coordinates":[144.9596527,-37.7720304],"type":"Point"},"properties":{"events":[{"categories":["Music"],"eDate":"2026-05-08","eName":"William Crighton","genre":"Country/Folk","price":"$49.47","supports":["Magpie Diaries"],"ticketUrl":null,"time":" 8pm"}],"vName":"Howler"},"type":"Feature"},{"geometry":{"coordinates":[144.9675876,-37.8240849],"type":"Point"},"properties":{"events":[{"categories":["Music"],"eDate":"2026-05-08","eName":"Ralph McTell","genre":"Country/Folk","price":"$80.00 - 90.00","supports":[],"ticketUrl":null,"time":" 7:30pm"}],"vName":"Melbourne Recital Centre"},"type":"Feature"},{"geometry":{"coordinates":[144.998414,-37.771471],"type":"Point"},"properties":{"events":[{"categories":["Music"],"eDate":"2026-05-08","eName":"FACS","genre":null,"price":"$48.05","supports":["Chimers"," Twine"," No Hoper"],"ticketUrl":null,"time":" 8pm"}],"vName":"Northcote Social Club"},"type":"Feature"},{"geometry":{"coordinates":[144.9982706,-37.7737068],"type":"Point"},"properties":{"events":[{"categories":["Music"],"eDate":"2026-05-08","eName":"Ball Park Music","genre":"Rock","price":"Free","supports":["Merpire"," Lewis Coleman"],"ticketUrl":null,"time":" 7:30pm"}],"vName":"Northcote Theatre"},"type":"Feature"},{"geometry":{"coordinates":[144.97711,-37.79833],"type":"Point"},"properties":{"events":[{"categories":["Music"],"eDate":"2026-05-08","eName":"Sacred Cowboys","genre":"Rock","price":"$34.70","supports":["Matt Malone & The Holy Spirits"],"ticketUrl":null,"time":" 8pm"}],"vName":"Old Bar"},"type":"Feature"},{"geometry":{"coordinates":[144.96084,-37.813514],"type":"Point"},"properties":{"events":[{"categories":["Music"],"eDate":"2026-05-08","eName":"The Music of Herbie Hancock with Ryley Duncan","genre":"Jazz","price":"$45.00","supports":[],"ticketUrl":null,"time":" 6pm"},{"categories":["Music"],"eDate":"2026-05-08","eName":"Camilla Burrows Sings The Ella Fitzgerald & Oscar Peterson Songbook","genre":"Jazz","price":"$45.00","supports":[],"ticketUrl":null,"time":" 6:30pm"},{"categories":["Music"],"eDate":"2026-05-08","eName":"Tamara Kuldin’s Gents Of Jazz","genre":"Jazz","price":"$45.00","supports":[],"ticketUrl":null,"time":" 9pm"},{"categories":["Music"],"eDate":"2026-05-08","eName":"New York After Dark: A Night of Ballads and Blues with Oscar Bruten","genre":"Jazz","price":"$45.00","supports":[],"ticketUrl":null,"time":" 9:30pm"}],"vName":"Paris Cat Jazz Club"},"type":"Feature"},{"geometry":{"coordinates":[144.993413,-37.8506652],"type":"Point"},"properties":{"events":[{"categories":["Music"],"eDate":"2026-05-08","eName":"Revolver Fridays","genre":"Electronic","price":"$21.42","supports":[],"ticketUrl":null,"time":"10pm"},{"categories":["Music"],"eDate":"2026-05-08","eName":"Shadows","genre":"Electronic","price":"$21.42","supports":[],"ticketUrl":null,"time":"11:45pm"}],"vName":"Revolver Upstairs"},"type":"Feature"},{"geometry":{"coordinates":[144.9607404,-37.7743469],"type":"Point"},"properties":{"events":[{"categories":["Free","Music"],"eDate":"2026-05-08","eName":"Stay Gold Battle Of The Bands: GRAND FINAL","genre":"Rock","price":"Free","supports":[],"ticketUrl":null,"time":" 7pm"},{"categories":["Music"],"eDate":"2026-05-08","eName":"No Bull","genre":"Rock","price":"$15.43","supports":["Envy Marshall"," The Chevaliers"],"ticketUrl":null,"time":" 8pm"}],"vName":"Stay Gold"},"type":"Feature"},{"geometry":{"coordinates":[144.9657057,-37.8061581],"type":"Point"},"properties":{"events":[{"categories":["Music"],"eDate":"2026-05-08","eName":"Headsend","genre":"Rock","price":"$20.00","supports":["The Halves"],"ticketUrl":null,"time":" 8pm"}],"vName":"The Curtin"},"type":"Feature"},{"geometry":{"coordinates":[144.9708437,-37.7973184],"type":"Point"},"properties":{"events":[{"categories":["Theatre"],"eDate":"2026-05-08","eName":"A Twist of Fate","genre":null,"price":"$35.96","supports":[],"ticketUrl":null,"time":" 6:15pm"},{"categories":["Comedy"],"eDate":"2026-05-08","eName":"The Big HOO HAA!","genre":null,"price":"$30.39","supports":[],"ticketUrl":null,"time":" 8:30pm"},{"categories":["Comedy"],"eDate":"2026-05-08","eName":"The Big HOO-HAA!","genre":null,"price":"$30.00","supports":[],"ticketUrl":null,"time":" 8:30pm"}],"vName":"The Motley Bauhaus"},"type":"Feature"},{"geometry":{"coordinates":[144.9794553,-37.7982653],"type":"Point"},"properties":{"events":[{"categories":["Music"],"eDate":"2026-05-08","eName":"AYYBO","genre":"Electronic","price":"$45.28","supports":[],"ticketUrl":null,"time":"11pm"},{"categories":["Music"],"eDate":"2026-05-08","eName":"AYYBO","genre":"Electronic","price":"$45.28","supports":[],"ticketUrl":null,"time":"11pm"}],"vName":"The Night Cat"},"type":"Feature"},{"geometry":{"coordinates":[144.9661635,-37.8176298],"type":"Point"},"properties":{"events":[{"categories":["Free","Music"],"eDate":"2026-05-08","eName":"Downstairs Disco","genre":"Electronic","price":"Free","supports":[],"ticketUrl":null,"time":" 9pm"}],"vName":"Wax Music Lounge"},"type":"Feature"}],"type":"FeatureCollection"}