{"features":[{"geometry":{"coordinates":[144.9607158,-37.776327],"type":"Point"},"properties":{"events":[{"categories":["Music"],"eDate":"2024-05-22","eName":"Strictly Live Showcase","genre":"Rock","price":"$16.85","supports":["Monroe"," The Dahlias"," Lovely Lonely Landfill"],"ticketUrl":null,"time":" 8pm"}],"vName":"Bergy Bandroom"},"type":"Feature"},{"geometry":{"coordinates":[144.9617018,-37.7704566],"type":"Point"},"properties":{"events":[{"categories":["Music"],"eDate":"2024-05-22","eName":"La Vivacité: Senior Music Showcase","genre":"Jazz","price":"$15.00","supports":[],"ticketUrl":null,"time":" 7pm"}],"vName":"Brunswick Ballroom"},"type":"Feature"},{"geometry":{"coordinates":[144.9248037207342,-37.7656716],"type":"Point"},"properties":{"events":[{"categories":["Music","Theatre"],"eDate":"2024-05-22","eName":"The World of Musicals in Concert","genre":"Pop","price":"$79.90","supports":[],"ticketUrl":null,"time":" 7:30pm"}],"vName":"Clocktower Centre"},"type":"Feature"},{"geometry":{"coordinates":[144.9688742,-37.8074223],"type":"Point"},"properties":{"events":[{"categories":["Comedy","Theatre"],"eDate":"2024-05-22","eName":"The Odd Couple","genre":null,"price":"$69.90","supports":["Lucy Durack"," Penny McNamee"],"ticketUrl":null,"time":" 7pm"}],"vName":"Comedy Theatre"},"type":"Feature"},{"geometry":{"coordinates":[144.9596527,-37.7720304],"type":"Point"},"properties":{"events":[{"categories":["Other \"Spoken Word\"","Other \"Poetry & Forums\""],"eDate":"2024-05-22","eName":"Nerd Nite #56","genre":null,"price":"$17.65","supports":[],"ticketUrl":null,"time":" 7pm"}],"vName":"Howler"},"type":"Feature"},{"geometry":{"coordinates":[144.9687111,-37.7977034],"type":"Point"},"properties":{"events":[{"categories":["Theatre"],"eDate":"2024-05-22","eName":"The Audition","genre":null,"price":"$35.00","supports":[],"ticketUrl":null,"time":" 6:30pm"}],"vName":"La Mama Theatre"},"type":"Feature"},{"geometry":{"coordinates":[144.96741062735794,-37.82454855],"type":"Point"},"properties":{"events":[{"categories":["Music"],"eDate":"2024-05-22","eName":"Australian Chamber Orchestra: Mahler's Song of the Earth","genre":"Classical","price":"$59.00","supports":[],"ticketUrl":null,"time":" 7:30pm"},{"categories":["Music"],"eDate":"2024-05-22","eName":"Australian Chamber Orchestra: Mahler's Song of the Earth","genre":"Classical","price":"$59.00","supports":[],"ticketUrl":null,"time":" 7:30pm"}],"vName":"Melbourne Recital Centre"},"type":"Feature"},{"geometry":{"coordinates":[144.998414,-37.771471],"type":"Point"},"properties":{"events":[{"categories":["Free","Other \"Film\""],"eDate":"2024-05-22","eName":"Mars Attacks! (Film Screening)","genre":null,"price":"Free","supports":[],"ticketUrl":null,"time":" 8pm"}],"vName":"Northcote Social Club"},"type":"Feature"},{"geometry":{"coordinates":[144.9631913,-37.7617818],"type":"Point"},"properties":{"events":[{"categories":["Free","Music"],"eDate":"2024-05-22","eName":"Ringo’s BYO Vinyl Open Decks","genre":"R&B","price":"Free","supports":[],"ticketUrl":null,"time":" 7pm"}],"vName":"Ringo Barr"},"type":"Feature"},{"geometry":{"coordinates":[145.13337431967784,-37.91372355],"type":"Point"},"properties":{"events":[{"categories":["Music"],"eDate":"2024-05-22","eName":"Live at The Counts: Angela Davis Quartet","genre":"Jazz","price":"$10.00 - 25.00","supports":[],"ticketUrl":null,"time":" 7:30pm"}],"vName":"The Ian Potter Centre for Performing Arts"},"type":"Feature"},{"geometry":{"coordinates":[144.9585654,-37.8059962],"type":"Point"},"properties":{"events":[{"categories":["Free","Music"],"eDate":"2024-05-22","eName":"Displeasure","genre":"Punk","price":"Free","supports":["Vampire"],"ticketUrl":null,"time":" 7pm"}],"vName":"The Last Chance Rock & Roll Bar"},"type":"Feature"}],"type":"FeatureCollection"}