{"features":[{"geometry":{"coordinates":[144.9607158,-37.776327],"type":"Point"},"properties":{"events":[{"categories":["Music"],"eDate":"2026-01-02","eName":"Napalm For The Masses","genre":"Punk","price":"$11.75","supports":["Crashing the Same Car"," Pontoon"],"ticketUrl":null,"time":" 8pm"}],"vName":"Bergy Bandroom"},"type":"Feature"},{"geometry":{"coordinates":[144.973013,-37.8640582],"type":"Point"},"properties":{"events":[{"categories":["Music"],"eDate":"2026-01-02","eName":"Julia Wolf","genre":"Indie","price":"Free","supports":[],"ticketUrl":null,"time":" 7pm"}],"vName":"Hotel Esplanade (aka The Espy)"},"type":"Feature"},{"geometry":{"coordinates":[144.9596527,-37.7720304],"type":"Point"},"properties":{"events":[{"categories":["Music"],"eDate":"2026-01-02","eName":"49th & Main","genre":"Electronic","price":"$66.20","supports":["hotbabe93"],"ticketUrl":null,"time":" 8pm"}],"vName":"Howler"},"type":"Feature"},{"geometry":{"coordinates":[144.9658499,-37.8147453],"type":"Point"},"properties":{"events":[{"categories":["Music"],"eDate":"2026-01-02","eName":"Example","genre":"Electronic","price":"$28.05 - 49.00","supports":[],"ticketUrl":null,"time":" 7pm"}],"vName":"Max Watt's (Melbourne)"},"type":"Feature"},{"geometry":{"coordinates":[144.9615882,-37.7711432],"type":"Point"},"properties":{"events":[{"categories":["Music"],"eDate":"2026-01-02","eName":"Real Good Company","genre":"Soul/Funk","price":"$15.68","supports":["Ludes"," Lolitah"],"ticketUrl":null,"time":" 7:30pm"}],"vName":"Retreat Hotel"},"type":"Feature"},{"geometry":{"coordinates":[144.993413,-37.8506652],"type":"Point"},"properties":{"events":[{"categories":["Music"],"eDate":"2026-01-02","eName":"Narciss + Morphena","genre":"Electronic","price":"$21.42 - 31.62","supports":[],"ticketUrl":null,"time":" 9pm"}],"vName":"Revolver Upstairs"},"type":"Feature"}],"type":"FeatureCollection"}