{"features":[{"geometry":{"coordinates":[144.9500257,-37.8032773],"type":"Point"},"properties":{"events":[{"categories":["Theatre","Music"],"eDate":"2026-03-01","eName":"Opera for the Dead (祭歌)","genre":"Classical","price":"$40.00","supports":[],"ticketUrl":null,"time":" 5pm"}],"vName":"Arts House"},"type":"Feature"},{"geometry":{"coordinates":[144.978682,-37.7981225],"type":"Point"},"properties":{"events":[{"categories":["Music","Free"],"eDate":"2026-03-01","eName":"Baxter’s Live Open Mic","genre":null,"price":"Free","supports":[],"ticketUrl":null,"time":" 6pm"},{"categories":["Music","Free"],"eDate":"2026-03-01","eName":"Mya Rogers","genre":null,"price":"Free","supports":[],"ticketUrl":null,"time":" 9pm"}],"vName":"Baxter's Lot"},"type":"Feature"},{"geometry":{"coordinates":[144.9945274,-37.8001115],"type":"Point"},"properties":{"events":[{"categories":["Other \"Food \"","Festival","Music","Free"],"eDate":"2026-03-01","eName":"Bodriggy Carnaval","genre":null,"price":"Free","supports":[],"ticketUrl":null,"time":" 2pm"}],"vName":"Bodriggy Brewing Company"},"type":"Feature"},{"geometry":{"coordinates":[144.9501312,-37.8042459],"type":"Point"},"properties":{"events":[{"categories":["Comedy"],"eDate":"2026-03-01","eName":"Sunday Night Comedy","genre":null,"price":"$10.00","supports":[],"ticketUrl":null,"time":" 7:30pm"}],"vName":"Club Voltaire"},"type":"Feature"},{"geometry":{"coordinates":[144.9926664,-37.8248893],"type":"Point"},"properties":{"events":[{"categories":["Music"],"eDate":"2026-03-01","eName":"Stella Donnelly","genre":"Indie","price":"$51.10","supports":["Ullah"],"ticketUrl":null,"time":" 7:30pm"}],"vName":"Corner Hotel"},"type":"Feature"},{"geometry":{"coordinates":[144.9693768,-37.8164414],"type":"Point"},"properties":{"events":[{"categories":["Music"],"eDate":"2026-03-01","eName":"Christone ‘Kingfish’ Ingram","genre":"Blues","price":"$90.75","supports":["19-Twenty"," Ash Grunwald"],"ticketUrl":null,"time":" 6:30pm"}],"vName":"Forum Melbourne"},"type":"Feature"},{"geometry":{"coordinates":[144.9780305,-37.8599731],"type":"Point"},"properties":{"events":[{"categories":["Music"],"eDate":"2026-03-01","eName":"The Tonalists (St Kilda Blues Festival)","genre":null,"price":"Free","supports":[],"ticketUrl":null,"time":" 5pm"}],"vName":"George Lane"},"type":"Feature"},{"geometry":{"coordinates":[144.9879283,-37.7505509],"type":"Point"},"properties":{"events":[{"categories":["Free","Music"],"eDate":"2026-03-01","eName":"Sanfona","genre":"Jazz","price":"Free","supports":[],"ticketUrl":null,"time":" 4pm"}],"vName":"The Merri Bar"},"type":"Feature"}],"type":"FeatureCollection"}