{"features":[{"geometry":{"coordinates":[144.99828116650363,-37.7713296],"type":"Point"},"properties":{"events":[{"categories":["Music"],"eDate":"2024-09-26","eName":"Cookin' On 3 Burners","genre":"Soul/Funk","price":"$20.00","supports":[],"ticketUrl":null,"time":" 8pm"}],"vName":"Bar 303"},"type":"Feature"},{"geometry":{"coordinates":[144.978425,-37.79773],"type":"Point"},"properties":{"events":[{"categories":["Free","Music","Dance"],"eDate":"2024-09-26","eName":"Steamboat Whistlers","genre":null,"price":"Free","supports":[],"ticketUrl":null,"time":" 6pm"},{"categories":["Music"],"eDate":"2024-09-26","eName":"Daezy","genre":"Jazz","price":"$17.35","supports":["The Satts"," Erica Avenue"],"ticketUrl":null,"time":" 8pm"}],"vName":"Bar Open"},"type":"Feature"},{"geometry":{"coordinates":[144.978682,-37.7981225],"type":"Point"},"properties":{"events":[{"categories":["Free","Music"],"eDate":"2024-09-26","eName":"HH & Sax Gawn","genre":null,"price":"Free","supports":[],"ticketUrl":null,"time":" 9:30pm"}],"vName":"Baxter's Lot"},"type":"Feature"},{"geometry":{"coordinates":[144.9607158,-37.776327],"type":"Point"},"properties":{"events":[{"categories":["Music"],"eDate":"2024-09-26","eName":"Squid The Kid","genre":null,"price":"$22.95","supports":["Ijale"," Alisya Rae"],"ticketUrl":null,"time":" 7:30pm"}],"vName":"Bergy Bandroom"},"type":"Feature"},{"geometry":{"coordinates":[144.9567859,-37.8111049],"type":"Point"},"properties":{"events":[{"categories":["Music"],"eDate":"2024-09-26","eName":"Australian Foreigner Show: The \"Cold As Ice\" Tour","genre":"Rock","price":"$40.00","supports":[],"ticketUrl":null,"time":" 7:30pm"}],"vName":"Bird's Basement"},"type":"Feature"},{"geometry":{"coordinates":[144.9945274,-37.8001115],"type":"Point"},"properties":{"events":[{"categories":["Free","Music","Festival","Dance","Other \"Food & Drink\""],"eDate":"2024-09-26","eName":"Hasta Pronto!: The New Monos","genre":null,"price":"Free","supports":["Randy Castilla"," Dr Condiments"],"ticketUrl":null,"time":" 7pm"}],"vName":"Bodriggy Brewing Company"},"type":"Feature"},{"geometry":{"coordinates":[144.9617018,-37.7704566],"type":"Point"},"properties":{"events":[{"categories":["Music"],"eDate":"2024-09-26","eName":"Mick Thomas' Roving Commission","genre":"Country/Folk","price":"$49.88","supports":[],"ticketUrl":null,"time":" 8:30pm"}],"vName":"Brunswick Ballroom"},"type":"Feature"},{"geometry":{"coordinates":[144.9980448484126,-37.74553004870929],"type":"Point"},"properties":{"events":[{"categories":["Music"],"eDate":"2024-09-26","eName":"Jess Ribeiro","genre":"Indie","price":"$20.00 - 35.00","supports":["Tony Yap"],"ticketUrl":null,"time":" 7:30pm"}],"vName":"Darebin Arts & Entertainment Centre"},"type":"Feature"},{"geometry":{"coordinates":[144.9875917,-37.7963837],"type":"Point"},"properties":{"events":[{"categories":["Free","Music"],"eDate":"2024-09-26","eName":"K. Walsh & The Podium Babies + Hobsons Bay Coast Guard","genre":"Rock","price":"Free","supports":[],"ticketUrl":null,"time":" 8pm"}],"vName":"Gem Bar"},"type":"Feature"},{"geometry":{"coordinates":[144.9787445,-37.7967357],"type":"Point"},"properties":{"events":[{"categories":["Music"],"eDate":"2024-09-26","eName":"Palace Trax & Glamorama Presents: 30 Years of Wiggle","genre":"Electronic","price":"$20.00 - 35.00","supports":["Bex"," boymeetsgirl"," Sam U"," Croptop"," Palace Trax DJs"," Jo Christy"],"ticketUrl":null,"time":" 6pm"}],"vName":"Glamorama"},"type":"Feature"},{"geometry":{"coordinates":[144.959768,-37.831777],"type":"Point"},"properties":{"events":[{"categories":["Music"],"eDate":"2024-09-26","eName":"Clancye Milne + John Montesante Quintet","genre":"Jazz","price":"$18.00","supports":[],"ticketUrl":null,"time":" 7pm"}],"vName":"Golden Gate Hotel"},"type":"Feature"},{"geometry":{"coordinates":[144.973013,-37.8640582],"type":"Point"},"properties":{"events":[{"categories":["Music"],"eDate":"2024-09-26","eName":"British India","genre":"Rock","price":"$48.75","supports":[],"ticketUrl":null,"time":" 7pm"}],"vName":"Hotel Esplanade (aka The Espy)"},"type":"Feature"},{"geometry":{"coordinates":[144.9596527,-37.7720304],"type":"Point"},"properties":{"events":[{"categories":["Music"],"eDate":"2024-09-26","eName":"Lonely Lands Liquids Party","genre":null,"price":"$28.56","supports":[],"ticketUrl":null,"time":" 7pm"}],"vName":"Howler"},"type":"Feature"},{"geometry":{"coordinates":[144.9936498,-37.8000264],"type":"Point"},"properties":{"events":[{"categories":["Free","Music"],"eDate":"2024-09-26","eName":"J Taylor Bell & The Ding Dongs","genre":"Country/Folk","price":"Free","supports":["Patrick Wilson"],"ticketUrl":null,"time":" 9pm"}],"vName":"Lulie Tavern"},"type":"Feature"},{"geometry":{"coordinates":[144.96741062735794,-37.82454855],"type":"Point"},"properties":{"events":[{"categories":["Music"],"eDate":"2024-09-26","eName":"Chinese Opera Gala","genre":"Classical","price":"$68.00","supports":[],"ticketUrl":null,"time":" 7:30pm"}],"vName":"Melbourne Recital Centre"},"type":"Feature"},{"geometry":{"coordinates":[144.998414,-37.771471],"type":"Point"},"properties":{"events":[{"categories":["Music"],"eDate":"2024-09-26","eName":"Queenie","genre":"Country/Folk","price":"$29.10","supports":["Hogwash"," more"],"ticketUrl":null,"time":" 8pm"}],"vName":"Northcote Social Club"},"type":"Feature"},{"geometry":{"coordinates":[144.97711,-37.79833],"type":"Point"},"properties":{"events":[{"categories":["Music"],"eDate":"2024-09-26","eName":"WeWillLookBackAtYourAndLoveYouForever & Friends","genre":"Rock","price":"$11.25","supports":["Riley Somers"," Fliney"," My Dog Satellite"," Yesendow"," Dexter"],"ticketUrl":null,"time":" 7pm"}],"vName":"Old Bar"},"type":"Feature"},{"geometry":{"coordinates":[144.9605705,-37.8132486],"type":"Point"},"properties":{"events":[{"categories":["Music"],"eDate":"2024-09-26","eName":"The Daryl McKenzie Jazz Orchestra with Nina Ferro","genre":"Jazz","price":"$45.00","supports":[],"ticketUrl":null,"time":" 7:30pm"},{"categories":["Music"],"eDate":"2024-09-26","eName":"The Shuffle Club","genre":"Jazz","price":"$45.00","supports":[],"ticketUrl":null,"time":" 8pm"}],"vName":"Paris Cat Jazz Club"},"type":"Feature"},{"geometry":{"coordinates":[144.9828155,-37.8567825],"type":"Point"},"properties":{"events":[{"categories":["Music"],"eDate":"2024-09-26","eName":"Buckcherry","genre":"Rock","price":"$85.00","supports":[],"ticketUrl":null,"time":" 7pm"}],"vName":"Prince Bandroom"},"type":"Feature"},{"geometry":{"coordinates":[144.9615882,-37.7711432],"type":"Point"},"properties":{"events":[{"categories":["Music"],"eDate":"2024-09-26","eName":"CLUB CLASSICS","genre":"Electronic","price":"$15.00 - 20.00","supports":[],"ticketUrl":null,"time":" 7:30pm"}],"vName":"Retreat Hotel"},"type":"Feature"},{"geometry":{"coordinates":[145.001392343033,-37.75592655],"type":"Point"},"properties":{"events":[{"categories":["Music"],"eDate":"2024-09-26","eName":"EMU","genre":"Rock","price":"$18.35","supports":["Fly!"," The Miffs"," Smoke Witch"],"ticketUrl":null,"time":" 7:30pm"}],"vName":"Shotkickers"},"type":"Feature"},{"geometry":{"coordinates":[144.9607404,-37.7743469],"type":"Point"},"properties":{"events":[{"categories":["Music"],"eDate":"2024-09-26","eName":"Julia Cole","genre":"Country/Folk","price":"$64.90","supports":[],"ticketUrl":null,"time":" 7:30pm"}],"vName":"Stay Gold"},"type":"Feature"},{"geometry":{"coordinates":[144.9715321,-37.8098002],"type":"Point"},"properties":{"events":[{"categories":["Comedy"],"eDate":"2024-09-26","eName":"Raise the Bar Comedy: Standup Comedy Female All-Stars Comedy Sweet September!","genre":null,"price":"$15.00","supports":[],"ticketUrl":null,"time":" 7pm"}],"vName":"StoryVille"},"type":"Feature"},{"geometry":{"coordinates":[144.9585654,-37.8059962],"type":"Point"},"properties":{"events":[{"categories":["Music"],"eDate":"2024-09-26","eName":"Velvet Parade","genre":"Rock","price":"$13.30","supports":["REMIT"," Off // Axis"],"ticketUrl":null,"time":" 7:30pm"}],"vName":"The Last Chance Rock & Roll Bar"},"type":"Feature"},{"geometry":{"coordinates":[144.9830837,-37.7988316],"type":"Point"},"properties":{"events":[{"categories":["Music"],"eDate":"2024-09-26","eName":"The Velvet Club","genre":null,"price":"$25.00","supports":[],"ticketUrl":null,"time":" 7:30pm"}],"vName":"The Night Cat"},"type":"Feature"},{"geometry":{"coordinates":[144.9651425,-37.8119429],"type":"Point"},"properties":{"events":[{"categories":["Music"],"eDate":"2024-09-26","eName":"INTERPLAY: Birdsnake + Mu-Gen (ft. Wizard)","genre":"Electronic","price":"$17.34 - 28.56","supports":["Barry Sunset"," DJ Honeypants"," Ham"," Mike Gurrieri"," Archie Lo"," Billie Jean"," Max Vegas"],"ticketUrl":null,"time":" 8pm"}],"vName":"The Toff In Town"},"type":"Feature"},{"geometry":{"coordinates":[144.9846126,-37.7989941],"type":"Point"},"properties":{"events":[{"categories":["Music"],"eDate":"2024-09-26","eName":"Bench Press","genre":"Punk","price":"$23.50","supports":["Screensaver"," The Maggie Pills"," more"],"ticketUrl":null,"time":" 8pm"}],"vName":"The Tote Hotel"},"type":"Feature"},{"geometry":{"coordinates":[144.9769450659087,-37.8055776],"type":"Point"},"properties":{"events":[{"categories":["Music"],"eDate":"2024-09-26","eName":"Dallas Crane","genre":"Rock","price":"$44.15","supports":["The Double Agents"],"ticketUrl":null,"time":" 8pm"}],"vName":"The Workers Club"},"type":"Feature"},{"geometry":{"coordinates":[144.9983987,-37.7729204],"type":"Point"},"properties":{"events":[{"categories":["Music"],"eDate":"2024-09-26","eName":"Central Rain","genre":"Acoustic","price":"$17.35","supports":[],"ticketUrl":null,"time":" 8pm"}],"vName":"Wesley Anne"},"type":"Feature"}],"type":"FeatureCollection"}