{"features":[{"geometry":{"coordinates":[145.0049159,-37.8035366],"type":"Point"},"properties":{"events":[{"categories":["Music"],"eDate":"2025-02-23","eName":"Sugarbush Open Air 2025","genre":"Electronic","price":"$25.00","supports":["Pvrtal"," Fosters"," Anima Omada"," Randals Dad"," Lady Koq"," Mount Mike"," Leen"],"ticketUrl":null,"time":" 1pm"}],"vName":"Abbotsford Convent"},"type":"Feature"},{"geometry":{"coordinates":[144.978682,-37.7981225],"type":"Point"},"properties":{"events":[{"categories":["Free","Music"],"eDate":"2025-02-23","eName":"Tejo D'Cruz","genre":null,"price":"Free","supports":[],"ticketUrl":null,"time":" 9pm"}],"vName":"Baxter's Lot"},"type":"Feature"},{"geometry":{"coordinates":[144.9945274,-37.8001115],"type":"Point"},"properties":{"events":[{"categories":["Free","Music","Other \"Food & Drink\""],"eDate":"2025-02-23","eName":"The Seben Brothers + One Spirit Africa","genre":null,"price":"Free","supports":[],"ticketUrl":null,"time":" 2pm"}],"vName":"Bodriggy Brewing Company"},"type":"Feature"},{"geometry":{"coordinates":[144.98535244416098,-37.79426315],"type":"Point"},"properties":{"events":[{"categories":["Music"],"eDate":"2025-02-23","eName":"A Very Very Gay Presents Rojdar","genre":"Electronic","price":"$17.85 - 28.60","supports":[],"ticketUrl":null,"time":" 4pm"}],"vName":"Gasometer Hotel"},"type":"Feature"},{"geometry":{"coordinates":[144.973013,-37.8640582],"type":"Point"},"properties":{"events":[{"categories":["Free","Music"],"eDate":"2025-02-23","eName":"The Tonalists","genre":"Blues","price":"Free","supports":[],"ticketUrl":null,"time":" 6pm"}],"vName":"Hotel Esplanade (aka The Espy)"},"type":"Feature"},{"geometry":{"coordinates":[144.9596527,-37.7720304],"type":"Point"},"properties":{"events":[{"categories":["Music"],"eDate":"2025-02-23","eName":"Coda Chroma","genre":"Indie","price":"$39.78","supports":["Georgia Fields"],"ticketUrl":null,"time":" 1:30pm"}],"vName":"Howler"},"type":"Feature"},{"geometry":{"coordinates":[144.8971518,-37.8054274],"type":"Point"},"properties":{"events":[{"categories":["Free","Music"],"eDate":"2025-02-23","eName":"Have/Hold","genre":null,"price":"Free","supports":["Jazz Tiger"," Bad Mantra"],"ticketUrl":null,"time":" 2pm"},{"categories":["Free","Music"],"eDate":"2025-02-23","eName":"Melbourne Chiptune Academy: Open Mic & Meetup","genre":null,"price":"Free","supports":[],"ticketUrl":null,"time":" 7pm"}],"vName":"Mamma Chen's"},"type":"Feature"},{"geometry":{"coordinates":[144.9523262,-38.401806],"type":"Point"},"properties":{"events":[{"categories":["Music"],"eDate":"2025-02-23","eName":"This Is Joni: The Music of Joni Mitchell","genre":null,"price":"$45.00","supports":[],"ticketUrl":null,"time":" 3pm"}],"vName":"The Shed @ The Pig & Whistle"},"type":"Feature"}],"type":"FeatureCollection"}