{"features":[{"geometry":{"coordinates":[144.978682,-37.7981225],"type":"Point"},"properties":{"events":[{"categories":["Music"],"eDate":"2024-07-14","eName":"Ari Davis","genre":null,"price":"Free","supports":[],"ticketUrl":null,"time":" 9:30pm"}],"vName":"Baxter's Lot"},"type":"Feature"},{"geometry":{"coordinates":[144.9607158,-37.776327],"type":"Point"},"properties":{"events":[{"categories":["Music"],"eDate":"2024-07-14","eName":"Kakarot!","genre":"Soul/Funk","price":"$16.85","supports":["Citrus"," Lava Lakes"],"ticketUrl":null,"time":" 4:30pm"}],"vName":"Bergy Bandroom"},"type":"Feature"},{"geometry":{"coordinates":[144.9945274,-37.8001115],"type":"Point"},"properties":{"events":[{"categories":["Free","Music","Other \"Food & Drink\""],"eDate":"2024-07-14","eName":"Gospel Sundays","genre":null,"price":"Free","supports":["Business Partner"],"ticketUrl":null,"time":" 3pm"}],"vName":"Bodriggy Brewing Company"},"type":"Feature"},{"geometry":{"coordinates":[144.9617018,-37.7704566],"type":"Point"},"properties":{"events":[{"categories":["Music"],"eDate":"2024-07-14","eName":"Eugene Hamilton & The Money","genre":"Country/Folk","price":"$38.86","supports":[],"ticketUrl":null,"time":" 1pm"},{"categories":["Music"],"eDate":"2024-07-14","eName":"Grace Cummings","genre":"Indie","price":"$54.67","supports":[],"ticketUrl":null,"time":" 7:30pm"}],"vName":"Brunswick Ballroom"},"type":"Feature"},{"geometry":{"coordinates":[144.9875917,-37.7963837],"type":"Point"},"properties":{"events":[{"categories":["Free","Music"],"eDate":"2024-07-14","eName":"Victoria + Annual Leaf","genre":"Rock","price":"Free","supports":[],"ticketUrl":null,"time":" 4pm"},{"categories":["Music"],"eDate":"2024-07-14","eName":"Victoria","genre":null,"price":"Free","supports":["Annual Leaf"],"ticketUrl":null,"time":" 4pm"}],"vName":"Gem Bar"},"type":"Feature"},{"geometry":{"coordinates":[144.973013,-37.8640582],"type":"Point"},"properties":{"events":[{"categories":["Free","Music"],"eDate":"2024-07-14","eName":"Kim Volkman","genre":"Blues","price":"Free","supports":[],"ticketUrl":null,"time":" 6pm"}],"vName":"Hotel Esplanade (aka The Espy)"},"type":"Feature"},{"geometry":{"coordinates":[144.9596527,-37.7720304],"type":"Point"},"properties":{"events":[{"categories":["Music"],"eDate":"2024-07-14","eName":"33 Below","genre":"Electronic","price":"$44.88","supports":[],"ticketUrl":null,"time":" 4pm"}],"vName":"Howler"},"type":"Feature"},{"geometry":{"coordinates":[144.8971518,-37.8054274],"type":"Point"},"properties":{"events":[{"categories":["Free","Music"],"eDate":"2024-07-14","eName":"Free KARAOKE: Hosted by Prue Brown","genre":null,"price":"Free","supports":[],"ticketUrl":null,"time":" 6pm"}],"vName":"Mamma Chen's"},"type":"Feature"},{"geometry":{"coordinates":[144.96741062735794,-37.82454855],"type":"Point"},"properties":{"events":[{"categories":["Music"],"eDate":"2024-07-14","eName":"Brandenburg: Night in Versailles","genre":"Classical","price":"$30.00 - 196.00","supports":[],"ticketUrl":null,"time":" 5pm"}],"vName":"Melbourne Recital Centre"},"type":"Feature"},{"geometry":{"coordinates":[144.97711,-37.79833],"type":"Point"},"properties":{"events":[{"categories":["Music"],"eDate":"2024-07-14","eName":"Daisy Kilbourne","genre":"Indie","price":"$10.00","supports":["Mia Pisano"," Lunic"],"ticketUrl":null,"time":" 7:30pm"}],"vName":"Old Bar"},"type":"Feature"}],"type":"FeatureCollection"}