{"features":[{"geometry":{"coordinates":[144.978682,-37.7981225],"type":"Point"},"properties":{"events":[{"categories":["Free","Music"],"eDate":"2026-01-31","eName":"Lewis Ciavarella","genre":"Indie","price":"Free","supports":[],"ticketUrl":null,"time":" 9pm"}],"vName":"Baxter's Lot"},"type":"Feature"},{"geometry":{"coordinates":[144.9568039,-37.8111442],"type":"Point"},"properties":{"events":[{"categories":["Music"],"eDate":"2026-01-31","eName":"Paco Lara & Sebastian Sánchez","genre":"Jazz","price":"$50.00","supports":[],"ticketUrl":null,"time":" 7:30pm"}],"vName":"Bird's Basement"},"type":"Feature"},{"geometry":{"coordinates":[144.9617083,-37.7704205],"type":"Point"},"properties":{"events":[{"categories":["Free","Music"],"eDate":"2026-01-31","eName":"puppyy","genre":null,"price":"Free","supports":["Postures"],"ticketUrl":null,"time":" 8:30pm"}],"vName":"Brunswick Artists' Bar"},"type":"Feature"},{"geometry":{"coordinates":[144.9617083,-37.7704205],"type":"Point"},"properties":{"events":[{"categories":["Music"],"eDate":"2026-01-31","eName":"West End Vs Broadway Musicals","genre":"Classical","price":"$45.90","supports":[],"ticketUrl":null,"time":" 7:30pm"}],"vName":"Brunswick Ballroom"},"type":"Feature"},{"geometry":{"coordinates":[145.0002585,-37.7592368],"type":"Point"},"properties":{"events":[{"categories":["Free","Music"],"eDate":"2026-01-31","eName":"Hearts & Rockets","genre":null,"price":"Free","supports":["Plaster Of Paris"," LXRP"],"ticketUrl":null,"time":" 8pm"}],"vName":"Cafe Gummo"},"type":"Feature"},{"geometry":{"coordinates":[144.9713425,-37.8128595],"type":"Point"},"properties":{"events":[{"categories":["Music"],"eDate":"2026-01-31","eName":"Hail Freya","genre":"Rock","price":"$15.43","supports":["Howling Mountain"],"ticketUrl":null,"time":" 8pm"}],"vName":"Cherry Bar"},"type":"Feature"},{"geometry":{"coordinates":[144.9926664,-37.8248893],"type":"Point"},"properties":{"events":[{"categories":["Music"],"eDate":"2026-01-31","eName":"80’s & 90’s Dancehall Swing","genre":"Electronic","price":"$29.10","supports":[],"ticketUrl":null,"time":" 9pm"}],"vName":"Corner Hotel"},"type":"Feature"},{"geometry":{"coordinates":[144.9627513,-37.760963],"type":"Point"},"properties":{"events":[{"categories":["Free","Music"],"eDate":"2026-01-31","eName":"The Blue Souls","genre":"Blues","price":"Free","supports":[],"ticketUrl":null,"time":" 8pm"}],"vName":"Edinburgh Castle Hotel"},"type":"Feature"},{"geometry":{"coordinates":[144.9875792,-37.7963739],"type":"Point"},"properties":{"events":[{"categories":["Music"],"eDate":"2026-01-31","eName":"Who Bastard + Encierro","genre":"Punk","price":"$10.00","supports":[],"ticketUrl":null,"time":" 3:30pm"},{"categories":["Music"],"eDate":"2026-01-31","eName":"Exiles","genre":"Rock","price":"$18.10","supports":["Arabella & The Heist"],"ticketUrl":null,"time":" 8:30pm"}],"vName":"Gem Bar"},"type":"Feature"},{"geometry":{"coordinates":[145.0008148,-37.8107158],"type":"Point"},"properties":{"events":[{"categories":["Music"],"eDate":"2026-01-31","eName":"Real Good Company","genre":"Rock","price":"$17.85","supports":["Miniluv"," J. Atlantic"," Sophia J. Smith"],"ticketUrl":null,"time":" 7pm"}],"vName":"Leadbeater Hotel"},"type":"Feature"},{"geometry":{"coordinates":[144.9658499,-37.8147453],"type":"Point"},"properties":{"events":[{"categories":["Music"],"eDate":"2026-01-31","eName":"Infinity Song","genre":"Pop","price":"$69.90","supports":[],"ticketUrl":null,"time":" 7pm"}],"vName":"Max Watt's (Melbourne)"},"type":"Feature"},{"geometry":{"coordinates":[144.9543074,-37.801596],"type":"Point"},"properties":{"events":[{"categories":["Music"],"eDate":"2026-01-31","eName":"Midsumma Festival: Amplio Rocks! Deaf Club & Dance Party","genre":"Electronic","price":"$29.95","supports":[],"ticketUrl":null,"time":" 5pm"}],"vName":"Melbourne Meat Market"},"type":"Feature"},{"geometry":{"coordinates":[144.998414,-37.771471],"type":"Point"},"properties":{"events":[{"categories":["Music"],"eDate":"2026-01-31","eName":"Kate Bush Celebration (Hounds Of Love 40 Year Anniversary)","genre":"Indie","price":"$35.30","supports":[],"ticketUrl":null,"time":" 8:30pm"}],"vName":"Northcote Social Club"},"type":"Feature"},{"geometry":{"coordinates":[144.96084,-37.813514],"type":"Point"},"properties":{"events":[{"categories":["Music"],"eDate":"2026-01-31","eName":"Elly Poletti: A Tribute to Elton John","genre":"Jazz","price":"$48.00","supports":[],"ticketUrl":null,"time":" 6pm"},{"categories":["Music"],"eDate":"2026-01-31","eName":"Panorama Brasil All-Stars with Dany Maia + Jacqueline Gawler","genre":"Jazz","price":"$45.00","supports":[],"ticketUrl":null,"time":" 6:30pm"},{"categories":["Music"],"eDate":"2026-01-31","eName":"Neo Soul Reimagined with Leska","genre":"Soul/Funk","price":"$45.00","supports":[],"ticketUrl":null,"time":" 9pm"},{"categories":["Music"],"eDate":"2026-01-31","eName":"CBG Presents: The Music of Snarky Puppy","genre":"Jazz","price":"$48.00","supports":[],"ticketUrl":null,"time":" 9pm"}],"vName":"Paris Cat Jazz Club"},"type":"Feature"},{"geometry":{"coordinates":[144.9746525926778,-37.823819181966286],"type":"Point"},"properties":{"events":[{"categories":["Music"],"eDate":"2026-01-31","eName":"Signature Choir x MSO: Mana Moana","genre":null,"price":"$49.00 - 75.00","supports":[],"ticketUrl":null,"time":" 7pm"}],"vName":"Sidney Myer Music Bowl"},"type":"Feature"},{"geometry":{"coordinates":[144.9607404,-37.7743469],"type":"Point"},"properties":{"events":[{"categories":["Music"],"eDate":"2026-01-31","eName":"Mid Youth Crisis","genre":"Punk","price":"Free","supports":[],"ticketUrl":null,"time":" 7pm"},{"categories":["Music"],"eDate":"2026-01-31","eName":"Hellfire Club: 80s Night","genre":"Pop","price":"$16.85 - 23.50","supports":[],"ticketUrl":null,"time":"11pm"}],"vName":"Stay Gold"},"type":"Feature"},{"geometry":{"coordinates":[144.9657057,-37.8061581],"type":"Point"},"properties":{"events":[{"categories":["Free","Music"],"eDate":"2026-01-31","eName":"Kosmetika","genre":"Indie","price":"Free","supports":["Power Tools"," DJ Amameilia"],"ticketUrl":null,"time":" 7pm"}],"vName":"The Curtin"},"type":"Feature"},{"geometry":{"coordinates":[144.9655277,-37.7344052],"type":"Point"},"properties":{"events":[{"categories":["Music"],"eDate":"2026-01-31","eName":"SENTIA","genre":null,"price":"$15.00 - 20.00","supports":["Oceanlord"," Sands"," Fabulous Contraption"," Sun Stone"," Black Dime Cabaret"],"ticketUrl":null,"time":" 3pm"}],"vName":"The Graveyard Bar"},"type":"Feature"},{"geometry":{"coordinates":[144.9879283,-37.7505509],"type":"Point"},"properties":{"events":[{"categories":["Music"],"eDate":"2026-01-31","eName":"Faces in the Street","genre":"Country/Folk","price":"Free","supports":[],"ticketUrl":null,"time":" 7pm"}],"vName":"The Merri Bar"},"type":"Feature"},{"geometry":{"coordinates":[144.9984324,-37.7729134],"type":"Point"},"properties":{"events":[{"categories":["Music"],"eDate":"2026-01-31","eName":"Gift Horse","genre":"Jazz","price":"Free","supports":[],"ticketUrl":null,"time":" 6pm"}],"vName":"Wesley Anne"},"type":"Feature"}],"type":"FeatureCollection"}