{"features":[{"geometry":{"coordinates":[144.9945274,-37.8001115],"type":"Point"},"properties":{"events":[{"categories":["Free","Music","Other \"Food & Drink\""],"eDate":"2024-08-11","eName":"Astrovillian: Live at the Brewpub","genre":"Jazz","price":"Free","supports":[],"ticketUrl":null,"time":" 4pm"}],"vName":"Bodriggy Brewing Company"},"type":"Feature"},{"geometry":{"coordinates":[144.973013,-37.8640582],"type":"Point"},"properties":{"events":[{"categories":["Free","Music"],"eDate":"2024-08-11","eName":"The Tonalists","genre":"Blues","price":"Free","supports":[],"ticketUrl":null,"time":" 6pm"}],"vName":"Hotel Esplanade (aka The Espy)"},"type":"Feature"},{"geometry":{"coordinates":[144.8971518,-37.8054274],"type":"Point"},"properties":{"events":[{"categories":["Music"],"eDate":"2024-08-11","eName":"SKIPTRACER","genre":null,"price":"$10.00 - 15.00","supports":["Martians Of Error"," Dom Rogers & The Scray City Rollers"],"ticketUrl":null,"time":" 2pm"}],"vName":"Mamma Chen's"},"type":"Feature"},{"geometry":{"coordinates":[145.3553553,-37.9078552],"type":"Point"},"properties":{"events":[{"categories":["Free","Music"],"eDate":"2024-08-11","eName":"Clark","genre":null,"price":"Free","supports":[],"ticketUrl":null,"time":"12pm"}],"vName":"Micawber Tavern"},"type":"Feature"},{"geometry":{"coordinates":[145.1538674,-37.7277749],"type":"Point"},"properties":{"events":[{"categories":["Music"],"eDate":"2024-08-11","eName":"Flinders Quartet","genre":"Classical","price":"$45.00","supports":[],"ticketUrl":null,"time":" 2:30pm"}],"vName":"Montsalvat Arts Centre"},"type":"Feature"},{"geometry":{"coordinates":[144.9977626,-37.7755001],"type":"Point"},"properties":{"events":[{"categories":["Music"],"eDate":"2024-08-11","eName":"Little Ravers: Melbourne","genre":"Electronic","price":"$20.20 - 33.25","supports":[],"ticketUrl":null,"time":"10am"}],"vName":"Northcote Theatre"},"type":"Feature"},{"geometry":{"coordinates":[145.0142411,-37.7310367],"type":"Point"},"properties":{"events":[{"categories":["Free","Music"],"eDate":"2024-08-11","eName":"Sunday Sunset Sessions","genre":"Jazz","price":"Free","supports":[],"ticketUrl":null,"time":" 6pm"}],"vName":"Ragtime Tavern"},"type":"Feature"},{"geometry":{"coordinates":[144.9615882,-37.7711432],"type":"Point"},"properties":{"events":[{"categories":["Music"],"eDate":"2024-08-11","eName":"PSI PHI","genre":null,"price":"Free","supports":[],"ticketUrl":null,"time":" 2:30pm"},{"categories":["Free","Music"],"eDate":"2024-08-11","eName":"PSI PHI","genre":"Rock","price":"Free","supports":[],"ticketUrl":null,"time":" 2:30pm"},{"categories":["Music"],"eDate":"2024-08-11","eName":"Double Shot Maggie","genre":null,"price":"$10.00 - 18.00","supports":["Madigan's Wake"],"ticketUrl":null,"time":" 7pm"}],"vName":"Retreat Hotel"},"type":"Feature"},{"geometry":{"coordinates":[144.9631913,-37.7617818],"type":"Point"},"properties":{"events":[{"categories":["Music"],"eDate":"2024-08-11","eName":"Renee Spijker + Mike Ridley","genre":"Indie","price":"$15.00","supports":[],"ticketUrl":null,"time":" 8pm"}],"vName":"Ringo Barr"},"type":"Feature"},{"geometry":{"coordinates":[144.99959550357977,-37.762376950000004],"type":"Point"},"properties":{"events":[{"categories":["Music"],"eDate":"2024-08-11","eName":"Ride","genre":"Rock","price":"$99.90","supports":["Mercury Rev"],"ticketUrl":null,"time":" 7pm"}],"vName":"The Croxton"},"type":"Feature"},{"geometry":{"coordinates":[144.9531861,-37.7734411],"type":"Point"},"properties":{"events":[{"categories":["Music"],"eDate":"2024-08-11","eName":"The Americana Assembly","genre":"Country/Folk","price":"Free","supports":["Jeremy Beggs"," Andrea Robertson"," Nathan Seeckts"," Gretta Ziller"],"ticketUrl":null,"time":" 5pm"}],"vName":"Union Hotel Brunswick"},"type":"Feature"},{"geometry":{"coordinates":[144.9983987,-37.7729204],"type":"Point"},"properties":{"events":[{"categories":["Music"],"eDate":"2024-08-11","eName":"Sally Ford & The Idiomatics","genre":"Soul/Funk","price":"$20.40","supports":[],"ticketUrl":null,"time":" 3pm"}],"vName":"Wesley Anne"},"type":"Feature"},{"geometry":{"coordinates":[144.9618426,-37.8125531],"type":"Point"},"properties":{"events":[{"categories":["Free","Music"],"eDate":"2024-08-11","eName":"Permesso Fagiolini","genre":null,"price":"Free","supports":["Paz"," Brother Julian"],"ticketUrl":null,"time":" 2pm"}],"vName":"Whitehart Bar"},"type":"Feature"}],"type":"FeatureCollection"}