{"features":[{"geometry":{"coordinates":[144.9679835243618,-37.8201575],"type":"Point"},"properties":{"events":[{"categories":["Comedy"],"eDate":"2023-12-16","eName":"Up Next Comedy","genre":null,"price":"$15.00","supports":[],"ticketUrl":null,"time":" 5pm"}],"vName":"Arts Centre Melbourne"},"type":"Feature"},{"geometry":{"coordinates":[144.99828116650363,-37.7713296],"type":"Point"},"properties":{"events":[{"categories":["Music"],"eDate":"2023-12-16","eName":"Darebin Songwriters Guild","genre":"Acoustic","price":"Free","supports":[],"ticketUrl":null,"time":" 3:30pm"},{"categories":["Music"],"eDate":"2023-12-16","eName":"Ellie Gibson","genre":"Acoustic","price":"$20.00","supports":["Bec Jean"],"ticketUrl":null,"time":" 7pm"}],"vName":"Bar 303"},"type":"Feature"},{"geometry":{"coordinates":[144.978425,-37.79773],"type":"Point"},"properties":{"events":[{"categories":["Music"],"eDate":"2023-12-16","eName":"Josh Shipton & The Blue Eyed Ravens","genre":"Rock","price":"$17.35","supports":["Poor Premenstrual Darling"," Brian Campeau"],"ticketUrl":null,"time":" 4pm"},{"categories":["Music"],"eDate":"2023-12-16","eName":"Spürts","genre":"Rock","price":"$17.35","supports":["Big Farmers"," Piggie Tails"],"ticketUrl":null,"time":" 8:30pm"}],"vName":"Bar Open"},"type":"Feature"},{"geometry":{"coordinates":[144.9607158,-37.776327],"type":"Point"},"properties":{"events":[{"categories":["Music"],"eDate":"2023-12-16","eName":"SNOOZE-FEST: Early Christmas Pyjama-Party","genre":"Rock","price":"$16.85","supports":[],"ticketUrl":null,"time":" 7pm"}],"vName":"Bergy Bandroom"},"type":"Feature"},{"geometry":{"coordinates":[144.9617018,-37.7704566],"type":"Point"},"properties":{"events":[{"categories":["Free","Music"],"eDate":"2023-12-16","eName":"Songlines presents BLAKMAS","genre":null,"price":"Free","supports":[],"ticketUrl":null,"time":" 1pm"},{"categories":["Music"],"eDate":"2023-12-16","eName":"A Very Bonesy Bitchmas with Folk Bitch Trio + Bones and Jones","genre":"Country/Folk","price":"$28.15","supports":[],"ticketUrl":null,"time":" 8:30pm"}],"vName":"Brunswick Ballroom"},"type":"Feature"},{"geometry":{"coordinates":[144.9713425,-37.8128595],"type":"Point"},"properties":{"events":[{"categories":["Music"],"eDate":"2023-12-16","eName":"Poizon’Us presents A Very Cherry Xmas","genre":"Rock","price":"$33.80","supports":[],"ticketUrl":null,"time":" 8pm"}],"vName":"Cherry Bar"},"type":"Feature"},{"geometry":{"coordinates":[144.99266639479475,-37.82488935],"type":"Point"},"properties":{"events":[{"categories":["Music"],"eDate":"2023-12-16","eName":"Musik-i Festival 2023","genre":"Global","price":"$56.80","supports":["more"],"ticketUrl":null,"time":" 7:30pm"}],"vName":"Corner Hotel"},"type":"Feature"},{"geometry":{"coordinates":[144.9243785,-37.7663699],"type":"Point"},"properties":{"events":[{"categories":["Music"],"eDate":"2023-12-16","eName":"Tim Burton Emo Night","genre":"Punk","price":"$11.29","supports":[],"ticketUrl":null,"time":" 8pm"}],"vName":"Deluxe Bar & Lounge"},"type":"Feature"},{"geometry":{"coordinates":[144.98535244416098,-37.79426315],"type":"Point"},"properties":{"events":[{"categories":["Music"],"eDate":"2023-12-16","eName":"Mick Daley's Corporate Raiders","genre":"Rock","price":"$15.00 - 20.00","supports":["Luke Sinclair"," Little Faiths"],"ticketUrl":null,"time":" 7:30pm"}],"vName":"Gasometer Hotel"},"type":"Feature"},{"geometry":{"coordinates":[144.9875917,-37.7963837],"type":"Point"},"properties":{"events":[{"categories":["Free","Music"],"eDate":"2023-12-16","eName":"Gun Laws + Affordable Repayments","genre":"Punk","price":"Free","supports":[],"ticketUrl":null,"time":" 4pm"},{"categories":["Free","Music"],"eDate":"2023-12-16","eName":"Hana & Jessie-Lee's Bad Habits + Loretta Miller","genre":"Rock","price":"Free","supports":["DJ Al Matcott"],"ticketUrl":null,"time":" 8pm"}],"vName":"Gem Bar"},"type":"Feature"},{"geometry":{"coordinates":[144.9679835243618,-37.8201575],"type":"Point"},"properties":{"events":[{"categories":["Music"],"eDate":"2023-12-16","eName":"Classic Kids: A Symphonic Christmas","genre":"Classical","price":"$29.00","supports":[],"ticketUrl":null,"time":"10am"},{"categories":["Music"],"eDate":"2023-12-16","eName":"Classic Kids: A Symphonic Christmas (Relaxed Session)","genre":"Classical","price":"$29.00","supports":[],"ticketUrl":null,"time":"12pm"}],"vName":"Hamer Hall (Arts Centre Melbourne)"},"type":"Feature"},{"geometry":{"coordinates":[144.9764962,-37.7983139],"type":"Point"},"properties":{"events":[{"categories":["Music"],"eDate":"2023-12-16","eName":"J Milla","genre":"Hip Hop","price":"$15.00","supports":[],"ticketUrl":null,"time":" 9pm"},{"categories":["Music"],"eDate":"2023-12-16","eName":"Kiki Bouba","genre":"Electronic","price":"$15.00","supports":["petr:a"],"ticketUrl":null,"time":" 9pm"}],"vName":"Laundry Bar"},"type":"Feature"},{"geometry":{"coordinates":[145.0008148,-37.8107158],"type":"Point"},"properties":{"events":[{"categories":["Music"],"eDate":"2023-12-16","eName":"Kiss Thiss","genre":"Rock","price":"$28.85","supports":["Powerslave"],"ticketUrl":null,"time":" 8pm"}],"vName":"Leadbeater Hotel"},"type":"Feature"},{"geometry":{"coordinates":[144.9936498,-37.8000264],"type":"Point"},"properties":{"events":[{"categories":["Free","Music"],"eDate":"2023-12-16","eName":"Black Night Crash","genre":"Rock","price":"Free","supports":["Queenie"],"ticketUrl":null,"time":" 8pm"}],"vName":"Lulie Tavern"},"type":"Feature"},{"geometry":{"coordinates":[144.8971518,-37.8054274],"type":"Point"},"properties":{"events":[{"categories":["Music"],"eDate":"2023-12-16","eName":"NVL Presents The Platinum Project feat. NXVELL","genre":null,"price":"$15.00","supports":["Mae Molby"," Heart Shaped Aces"],"ticketUrl":null,"time":" 7:45pm"}],"vName":"Mamma Chen's"},"type":"Feature"},{"geometry":{"coordinates":[144.96741062735794,-37.82454855],"type":"Point"},"properties":{"events":[{"categories":["Music"],"eDate":"2023-12-16","eName":"NOËL! NOËL! (Early Session)","genre":"Classical","price":"$30.00","supports":[],"ticketUrl":null,"time":" 5pm"},{"categories":["Music"],"eDate":"2023-12-16","eName":"NOËL! NOËL!","genre":"Classical","price":"$30.00","supports":[],"ticketUrl":null,"time":" 7:30pm"}],"vName":"Melbourne Recital Centre"},"type":"Feature"},{"geometry":{"coordinates":[144.9712356,-37.812902],"type":"Point"},"properties":{"events":[{"categories":["Comedy"],"eDate":"2023-12-16","eName":"Basement Comedy Club Saturdays","genre":null,"price":"$22.00","supports":["more"],"ticketUrl":null,"time":" 8pm"}],"vName":"Morris House"},"type":"Feature"},{"geometry":{"coordinates":[144.9846126,-37.7989941],"type":"Point"},"properties":{"events":[{"categories":["Music"],"eDate":"2023-12-16","eName":"Demonstration at Nighthawks","genre":"Punk","price":"$15.00","supports":[],"ticketUrl":null,"time":" 8pm"}],"vName":"Nighthawks"},"type":"Feature"},{"geometry":{"coordinates":[144.998414,-37.771471],"type":"Point"},"properties":{"events":[{"categories":["Free","Music"],"eDate":"2023-12-16","eName":"Underground Lovers Moda Discoteca","genre":null,"price":"$46.00","supports":["Syzygy"," Maxine Gillon"],"ticketUrl":null,"time":" 8:30pm"}],"vName":"Northcote Social Club"},"type":"Feature"},{"geometry":{"coordinates":[144.97711,-37.79833],"type":"Point"},"properties":{"events":[{"categories":["Free","Music"],"eDate":"2023-12-16","eName":"Plastic Cheeses + Andy Burnout","genre":"Rock","price":"Free","supports":[],"ticketUrl":null,"time":" 3:30pm"},{"categories":["Music"],"eDate":"2023-12-16","eName":"Half Decade Of Disdain Records (with Special Secret Headliner)","genre":"Punk","price":"$25.00","supports":["Pizza Death"," Internal Rot"," Remains"," Resistance"],"ticketUrl":null,"time":" 8pm"}],"vName":"Old Bar"},"type":"Feature"},{"geometry":{"coordinates":[145.0142411,-37.7310367],"type":"Point"},"properties":{"events":[{"categories":["Free","Music","Other \"Spoken Word\"","Other \"Poetry & Forums\""],"eDate":"2023-12-16","eName":"HABUS presents: Neruda Songs Of Despair","genre":"Jazz","price":"Free","supports":[],"ticketUrl":null,"time":" 8pm"}],"vName":"Ragtime Tavern"},"type":"Feature"},{"geometry":{"coordinates":[144.9615882,-37.7711432],"type":"Point"},"properties":{"events":[{"categories":["Free","Music"],"eDate":"2023-12-16","eName":"Rich Webb Band + Truckers for Christ + Community Hall","genre":"Country/Folk","price":"Free","supports":[],"ticketUrl":null,"time":" 3pm"}],"vName":"Retreat Hotel"},"type":"Feature"},{"geometry":{"coordinates":[144.993413,-37.8506652],"type":"Point"},"properties":{"events":[{"categories":["Music"],"eDate":"2023-12-16","eName":"Bandides + The New Monos","genre":null,"price":"$30.00","supports":[],"ticketUrl":null,"time":" 6pm"}],"vName":"Revolver Upstairs"},"type":"Feature"},{"geometry":{"coordinates":[144.9631913,-37.7617818],"type":"Point"},"properties":{"events":[{"categories":["Music"],"eDate":"2023-12-16","eName":"Hattie Evans + Zarah Abby","genre":"Indie","price":"$10.00","supports":[],"ticketUrl":null,"time":" 8pm"}],"vName":"Ringo Barr"},"type":"Feature"},{"geometry":{"coordinates":[144.9706095,-37.7783326],"type":"Point"},"properties":{"events":[{"categories":["Free","Music"],"eDate":"2023-12-16","eName":"Yard Duty: Xmas Xtravaganza","genre":"Rock","price":"Free","supports":["The Coolabahs"," Brodown"],"ticketUrl":null,"time":" 9pm"}],"vName":"The Beast"},"type":"Feature"},{"geometry":{"coordinates":[144.9708437,-37.7973184],"type":"Point"},"properties":{"events":[{"categories":["Music"],"eDate":"2023-12-16","eName":"Another Merry Motley Christmas","genre":"Jazz","price":"$20.26","supports":[],"ticketUrl":null,"time":" 5pm"},{"categories":["Free","Music"],"eDate":"2023-12-16","eName":"Motley Jazz","genre":"Jazz","price":"Free","supports":[],"ticketUrl":null,"time":" 5pm"}],"vName":"The Motley Bauhaus"},"type":"Feature"},{"geometry":{"coordinates":[144.9830837,-37.7988316],"type":"Point"},"properties":{"events":[{"categories":["Music"],"eDate":"2023-12-16","eName":"Fred again.. vs Skrillex Appreciation Night","genre":"Electronic","price":"$20.00","supports":[],"ticketUrl":null,"time":"11pm"}],"vName":"The Night Cat"},"type":"Feature"},{"geometry":{"coordinates":[144.9846126,-37.7989941],"type":"Point"},"properties":{"events":[{"categories":["Music"],"eDate":"2023-12-16","eName":"A Very Dr. Colossus Christmas","genre":"Metal","price":"$28.60","supports":["Jaded"," Spacejunk"],"ticketUrl":null,"time":" 8pm"},{"categories":["Music"],"eDate":"2023-12-16","eName":"Yantra","genre":"Metal","price":"$17.35","supports":["Black Sea of Trees"," Squamata"],"ticketUrl":null,"time":" 8:30pm"}],"vName":"The Tote Hotel"},"type":"Feature"},{"geometry":{"coordinates":[144.9706095,-37.7783326],"type":"Point"},"properties":{"events":[{"categories":["Music","Other \"Cabaret\""],"eDate":"2023-12-16","eName":"Sex Ropes & Rock'n'Roll: Whole Lotta Love Edition","genre":"Rock","price":"$15.00 - 40.00","supports":["more"],"ticketUrl":null,"time":" 8pm"}],"vName":"Whole Lotta Love"},"type":"Feature"}],"type":"FeatureCollection"}