{"features":[{"geometry":{"coordinates":[144.9762881,-37.798246],"type":"Point"},"properties":{"events":[{"categories":["Music"],"eDate":"2025-10-17","eName":"Sunset Blush","genre":"Rock","price":"$20.00","supports":["Punchbowl"," Lizzy D Smith"," Sophie Elizabeth Poidevin"],"ticketUrl":null,"time":" 7pm"}],"vName":"Bad Decisions Bar"},"type":"Feature"},{"geometry":{"coordinates":[144.9982812,-37.7713296],"type":"Point"},"properties":{"events":[{"categories":["Music"],"eDate":"2025-10-17","eName":"Robbie Belchamber Band","genre":"Acoustic","price":"$15.00 - 20.00","supports":["Indigo King"," Bede Benny"],"ticketUrl":null,"time":" 7:30pm"}],"vName":"Bar 303"},"type":"Feature"},{"geometry":{"coordinates":[144.978682,-37.7981225],"type":"Point"},"properties":{"events":[{"categories":["Free","Music"],"eDate":"2025-10-17","eName":"Lewis Ciavarella","genre":null,"price":"Free","supports":[],"ticketUrl":null,"time":" 9pm"}],"vName":"Baxter's Lot"},"type":"Feature"},{"geometry":{"coordinates":[144.9891167,-37.7996488],"type":"Point"},"properties":{"events":[{"categories":["Music"],"eDate":"2025-10-17","eName":"HEX: COVEN","genre":"Metal","price":"$28.05","supports":[],"ticketUrl":null,"time":" 8:30pm"}],"vName":"Bendigo Hotel"},"type":"Feature"},{"geometry":{"coordinates":[144.9607158,-37.776327],"type":"Point"},"properties":{"events":[{"categories":["Music"],"eDate":"2025-10-17","eName":"Laid Back Country Picker","genre":"Country/Folk","price":"$47.45","supports":["Headspin"],"ticketUrl":null,"time":" 8pm"}],"vName":"Bergy Bandroom"},"type":"Feature"},{"geometry":{"coordinates":[144.9568039,-37.8111442],"type":"Point"},"properties":{"events":[{"categories":["Music"],"eDate":"2025-10-17","eName":"Gary Pinto: A Song For You","genre":null,"price":"$55.00","supports":[],"ticketUrl":null,"time":" 7:30pm"}],"vName":"Bird's Basement"},"type":"Feature"},{"geometry":{"coordinates":[144.9595177,-37.8158067],"type":"Point"},"properties":{"events":[{"categories":["Music","Other \"Dance \""],"eDate":"2025-10-17","eName":"LOOM: Proudly Supporting Children’s Ground","genre":"Electronic","price":"$20.00","supports":["WVCHWY"," Pvrtal"," FAF"," Trey"],"ticketUrl":null,"time":" 9pm"}],"vName":"Bourke Street Courtyard"},"type":"Feature"},{"geometry":{"coordinates":[144.9552495,-37.8146155],"type":"Point"},"properties":{"events":[{"categories":["Music"],"eDate":"2025-10-17","eName":"Nerve Melbourne 2025","genre":"Electronic","price":"$11.67 - 30.00","supports":[],"ticketUrl":null,"time":"10pm"}],"vName":"Brown Alley"},"type":"Feature"},{"geometry":{"coordinates":[144.9617083,-37.7704205],"type":"Point"},"properties":{"events":[{"categories":["Music"],"eDate":"2025-10-17","eName":"New Delica","genre":"Rock","price":"$28.15","supports":[],"ticketUrl":null,"time":" 8:30pm"}],"vName":"Brunswick Ballroom"},"type":"Feature"},{"geometry":{"coordinates":[145.0002585,-37.7592368],"type":"Point"},"properties":{"events":[{"categories":["Music"],"eDate":"2025-10-17","eName":"Jay Mothman","genre":null,"price":"$10.00","supports":["Major Bummer"," Beach Vultures"," Duddy Kravitz"],"ticketUrl":null,"time":" 8pm"}],"vName":"Cafe Gummo"},"type":"Feature"},{"geometry":{"coordinates":[144.9713425,-37.8128595],"type":"Point"},"properties":{"events":[{"categories":["Free","Music"],"eDate":"2025-10-17","eName":"Racket! Indie Rock Night","genre":"Indie","price":"Free","supports":["Sappho"," Atlas Franklin Alexander"],"ticketUrl":null,"time":" 9pm"}],"vName":"Cherry Bar"},"type":"Feature"},{"geometry":{"coordinates":[144.9926664,-37.8248893],"type":"Point"},"properties":{"events":[{"categories":["Music"],"eDate":"2025-10-17","eName":"Whitney","genre":"Country/Folk","price":"$59.90","supports":["Molly Millington"],"ticketUrl":null,"time":" 8pm"}],"vName":"Corner Hotel"},"type":"Feature"},{"geometry":{"coordinates":[144.9627513,-37.760963],"type":"Point"},"properties":{"events":[{"categories":["Music"],"eDate":"2025-10-17","eName":"Steamboat Whistlers","genre":"Jazz","price":"Free","supports":[],"ticketUrl":null,"time":" 8pm"}],"vName":"Edinburgh Castle Hotel"},"type":"Feature"},{"geometry":{"coordinates":[144.9777885,-37.8597831],"type":"Point"},"properties":{"events":[{"categories":["Music"],"eDate":"2025-10-17","eName":"Rodney Guzman","genre":"Acoustic","price":"Free","supports":[],"ticketUrl":null,"time":"11pm"}],"vName":"Freddie Wimpoles"},"type":"Feature"},{"geometry":{"coordinates":[144.9787378,-37.7954205],"type":"Point"},"properties":{"events":[{"categories":["Music"],"eDate":"2025-10-17","eName":"Interval: Lu.Re + DJ Optimism","genre":"Electronic","price":"$15.00 - 25.00","supports":["Alcatrax"," Caleb Jay"," dozie"," Kadel"," Shez Kurx"],"ticketUrl":null,"time":"10pm"}],"vName":"Glamorama"},"type":"Feature"},{"geometry":{"coordinates":[144.973013,-37.8640582],"type":"Point"},"properties":{"events":[{"categories":["Music"],"eDate":"2025-10-17","eName":"Southern River Band","genre":"Rock","price":"$48.00","supports":[],"ticketUrl":null,"time":" 7pm"},{"categories":["Music"],"eDate":"2025-10-17","eName":"Krusty Virus","genre":"Punk","price":"$10.75","supports":["Brave Dastard"," Tala"],"ticketUrl":null,"time":" 7:30pm"}],"vName":"Hotel Esplanade (aka The Espy)"},"type":"Feature"},{"geometry":{"coordinates":[144.9596527,-37.7720304],"type":"Point"},"properties":{"events":[{"categories":["Music"],"eDate":"2025-10-17","eName":"Merpire","genre":"Metal","price":"$34.00","supports":["Bad Juju"," Melting"," Cypher"],"ticketUrl":null,"time":" 7:30pm"}],"vName":"Howler"},"type":"Feature"},{"geometry":{"coordinates":[145.0314658,-37.8067273],"type":"Point"},"properties":{"events":[{"categories":["Music"],"eDate":"2025-10-17","eName":"Kew Court House Live: Bob Sedergreen & Friends","genre":"Jazz","price":"$20.00","supports":[],"ticketUrl":null,"time":" 7:30pm"}],"vName":"Kew Court House"},"type":"Feature"},{"geometry":{"coordinates":[144.8984802,-37.8111559],"type":"Point"},"properties":{"events":[{"categories":["Music"],"eDate":"2025-10-17","eName":"Worth The Wallet","genre":"Soul/Funk","price":"Free","supports":[],"ticketUrl":null,"time":" 7pm"}],"vName":"Kindred Bandroom"},"type":"Feature"},{"geometry":{"coordinates":[145.0355738,-37.8205529],"type":"Point"},"properties":{"events":[{"categories":["Music"],"eDate":"2025-10-17","eName":"Nadira & Friends","genre":"Jazz","price":"$27.00 - 32.00","supports":[],"ticketUrl":null,"time":" 8pm"}],"vName":"Lido Jazz Room"},"type":"Feature"},{"geometry":{"coordinates":[144.9936498,-37.8000264],"type":"Point"},"properties":{"events":[{"categories":["Music"],"eDate":"2025-10-17","eName":"Steph Hannah & The Silver Linings","genre":"Indie","price":"Free","supports":[],"ticketUrl":null,"time":" 8:30pm"}],"vName":"Lulie Tavern"},"type":"Feature"},{"geometry":{"coordinates":[144.9658499,-37.8147453],"type":"Point"},"properties":{"events":[{"categories":["Music"],"eDate":"2025-10-17","eName":"Sigh","genre":"Metal","price":"$73.95","supports":["Ascended Dead"," Mournful Congregation"],"ticketUrl":null,"time":" 7:30pm"}],"vName":"Max Watt's (Melbourne)"},"type":"Feature"},{"geometry":{"coordinates":[144.9790251,-37.8675008],"type":"Point"},"properties":{"events":[{"categories":["Music"],"eDate":"2025-10-17","eName":"Kat Greta & Marcelle Phoenix present Rhythm & Reverie","genre":"Soul/Funk","price":"$15.00 - 30.00","supports":[],"ticketUrl":null,"time":" 7:30pm"}],"vName":"Memo Music Hall"},"type":"Feature"},{"geometry":{"coordinates":[144.9634643,-37.7581838],"type":"Point"},"properties":{"events":[{"categories":["Music"],"eDate":"2025-10-17","eName":"Sacred Trancefusion","genre":"Electronic","price":"$30.00","supports":["Amber Savage"," Nikki Sig"," Menacetone"],"ticketUrl":null,"time":" 9pm"}],"vName":"My Aeon"},"type":"Feature"},{"geometry":{"coordinates":[144.97711,-37.79833],"type":"Point"},"properties":{"events":[{"categories":["Music"],"eDate":"2025-10-17","eName":"Shakamoto","genre":"Rock","price":"$11.25","supports":["Special Guest"," Fur Blossom"],"ticketUrl":null,"time":" 8pm"},{"categories":["Music"],"eDate":"2025-10-17","eName":"DJ Ben Emes","genre":"Electronic","price":"Free","supports":[],"ticketUrl":null,"time":"11:30pm"}],"vName":"Old Bar"},"type":"Feature"},{"geometry":{"coordinates":[144.97609011199125,-37.867583041643705],"type":"Point"},"properties":{"events":[{"categories":["Music"],"eDate":"2025-10-17","eName":"Midge Ure: Catalogue – The Hits Tour","genre":"Rock","price":"$99.90","supports":[],"ticketUrl":null,"time":" 7pm"}],"vName":"Palais Theatre"},"type":"Feature"},{"geometry":{"coordinates":[144.96084,-37.813514],"type":"Point"},"properties":{"events":[{"categories":["Music"],"eDate":"2025-10-17","eName":"Noria & The Parisians","genre":"Jazz","price":"$45.00","supports":[],"ticketUrl":null,"time":" 5:30pm"},{"categories":["Music"],"eDate":"2025-10-17","eName":"In A Sentimental Mood: The Music Of Duke Ellington","genre":"Jazz","price":"$45.00","supports":[],"ticketUrl":null,"time":" 6:30pm"},{"categories":["Music"],"eDate":"2025-10-17","eName":"PRINCE: Featuring Elly Poletti","genre":"Soul/Funk","price":"$48.00","supports":[],"ticketUrl":null,"time":" 9pm"},{"categories":["Music"],"eDate":"2025-10-17","eName":"James Sherlock/Chris Johnstone Quartet play ‘George Benson’","genre":null,"price":"$45.00","supports":[],"ticketUrl":null,"time":" 9:30pm"}],"vName":"Paris Cat Jazz Club"},"type":"Feature"},{"geometry":{"coordinates":[144.9615882,-37.7711432],"type":"Point"},"properties":{"events":[{"categories":["Music"],"eDate":"2025-10-17","eName":"Polly & The Pockets","genre":"Rock","price":"$12.25","supports":["Deporsal"," Lucy Lorenne"],"ticketUrl":null,"time":" 7:30pm"}],"vName":"Retreat Hotel"},"type":"Feature"},{"geometry":{"coordinates":[144.9574795,-37.7697547],"type":"Point"},"properties":{"events":[{"categories":["Music"],"eDate":"2025-10-17","eName":"Virus Sound System Presents: Hot Wired","genre":"Electronic","price":"$35.00","supports":[],"ticketUrl":null,"time":"10pm"}],"vName":"Rubix Warehouse"},"type":"Feature"},{"geometry":{"coordinates":[145.3534507,-37.9100746],"type":"Point"},"properties":{"events":[{"categories":["Music"],"eDate":"2025-10-17","eName":"Everyday I Write The Hook: The Elvis Costello Songbook – A Live Tribute","genre":"Rock","price":"$35.00","supports":[],"ticketUrl":null,"time":" 7pm"}],"vName":"Sooki Lounge"},"type":"Feature"},{"geometry":{"coordinates":[144.9607404,-37.7743469],"type":"Point"},"properties":{"events":[{"categories":["Music"],"eDate":"2025-10-17","eName":"Baba Fundraiser Gig","genre":"Rock","price":"$20.25","supports":[],"ticketUrl":null,"time":" 7pm"},{"categories":["Music","Other \"Dance \"","Other \"Cabaret\""],"eDate":"2025-10-17","eName":"Cherry Bomb","genre":"Punk","price":"$17.85 - 23.50","supports":[],"ticketUrl":null,"time":"11pm"}],"vName":"Stay Gold"},"type":"Feature"},{"geometry":{"coordinates":[144.32141,-37.38866],"type":"Point"},"properties":{"events":[{"categories":["Music"],"eDate":"2025-10-17","eName":"The Faraway Three","genre":"Country/Folk","price":"$40.00","supports":[],"ticketUrl":null,"time":" 7:30pm"}],"vName":"The Cosmopolitan Hotel"},"type":"Feature"},{"geometry":{"coordinates":[144.9657057,-37.8061581],"type":"Point"},"properties":{"events":[{"categories":["Music"],"eDate":"2025-10-17","eName":"Powerplant","genre":"Electronic","price":"$35.00","supports":["Billiam & The Split Bills"," Screensaver"," Dragnet"],"ticketUrl":null,"time":" 8pm"}],"vName":"The Curtin"},"type":"Feature"},{"geometry":{"coordinates":[144.9770425,-37.8588717],"type":"Point"},"properties":{"events":[{"categories":["Music"],"eDate":"2025-10-17","eName":"Holly Roller Trio + DJ Alee","genre":"Acoustic","price":"Free","supports":[],"ticketUrl":null,"time":" 9pm"}],"vName":"The Fifth Province"},"type":"Feature"},{"geometry":{"coordinates":[144.9463641,-37.8047757],"type":"Point"},"properties":{"events":[{"categories":["Music"],"eDate":"2025-10-17","eName":"Beth Seymour & The Lizzies: BETHDAY GALA","genre":"Rock","price":"$16.35","supports":["Hormones"," Elkie Kershaw"," Self Talk"],"ticketUrl":null,"time":" 8pm"}],"vName":"The Last Chance Rock & Roll Bar"},"type":"Feature"},{"geometry":{"coordinates":[145.1818891,-37.8163371],"type":"Point"},"properties":{"events":[{"categories":["Music","Other \"Cabaret\""],"eDate":"2025-10-17","eName":"Caffeine Fiend: A Coffee Cabaret","genre":"Jazz","price":"$40.00","supports":[],"ticketUrl":null,"time":" 8pm"}],"vName":"The Round"},"type":"Feature"},{"geometry":{"coordinates":[144.9998797,-37.7616512],"type":"Point"},"properties":{"events":[{"categories":["Music"],"eDate":"2025-10-17","eName":"Rosario De Marco","genre":"Acoustic","price":"Free","supports":[],"ticketUrl":null,"time":" 8pm"}],"vName":"The Thornbury Local"},"type":"Feature"},{"geometry":{"coordinates":[144.9651425,-37.8119429],"type":"Point"},"properties":{"events":[{"categories":["Free","Music"],"eDate":"2025-10-17","eName":"Melbourne International Jazz Festival: Night Crawl At The Toff","genre":"Jazz","price":"Free","supports":[],"ticketUrl":null,"time":" 7pm"}],"vName":"The Toff In Town"},"type":"Feature"}],"type":"FeatureCollection"}