{"features":[{"geometry":{"coordinates":[144.9720318,-37.8656234],"type":"Point"},"properties":{"events":[{"categories":["Music"],"eDate":"2025-12-26","eName":"KATZ","genre":"Electronic","price":"Free","supports":[],"ticketUrl":null,"time":" 6pm"},{"categories":["Music"],"eDate":"2025-12-26","eName":"DJ Sean Hugo","genre":"Electronic","price":"Free","supports":[],"ticketUrl":null,"time":" 9pm"}],"vName":"Captain Baxter"},"type":"Feature"},{"geometry":{"coordinates":[144.9777885,-37.8597831],"type":"Point"},"properties":{"events":[{"categories":["Music"],"eDate":"2025-12-26","eName":"Christian Belvedere + George D Jay","genre":"Indie","price":"Free","supports":[],"ticketUrl":null,"time":" 9pm"}],"vName":"Freddie Wimpoles"},"type":"Feature"},{"geometry":{"coordinates":[144.973013,-37.8640582],"type":"Point"},"properties":{"events":[{"categories":["Music"],"eDate":"2025-12-26","eName":"The Ashes Boxing Day Get Together with NOASIS","genre":"Rock","price":"$25.00","supports":["Our Kid"],"ticketUrl":null,"time":" 7pm"}],"vName":"Hotel Esplanade (aka The Espy)"},"type":"Feature"},{"geometry":{"coordinates":[144.9833121,-37.8062477],"type":"Point"},"properties":{"events":[{"categories":["Music"],"eDate":"2025-12-26","eName":"noodle: Holiday Special","genre":"Electronic","price":"$10.00 - 15.00","supports":[],"ticketUrl":null,"time":"10pm"}],"vName":"New Guernica"},"type":"Feature"},{"geometry":{"coordinates":[144.993413,-37.8506652],"type":"Point"},"properties":{"events":[{"categories":["Music"],"eDate":"2025-12-26","eName":"Mike Callander: 15th Anniversary","genre":"Electronic","price":"$31.62","supports":["T-Rek"," Kiti"," Acid Safari"," Dave Pham"," Eddie Example"," more"],"ticketUrl":null,"time":" 9pm"},{"categories":["Music"],"eDate":"2025-12-26","eName":"Refuge x Club Well","genre":"Electronic","price":"$31.62","supports":[],"ticketUrl":null,"time":"11:55pm"}],"vName":"Revolver Upstairs"},"type":"Feature"},{"geometry":{"coordinates":[144.9770425,-37.8588717],"type":"Point"},"properties":{"events":[{"categories":["Music"],"eDate":"2025-12-26","eName":"Soul Obsession Trio","genre":"Soul/Funk","price":"Free","supports":[],"ticketUrl":null,"time":" 9pm"}],"vName":"The Fifth Province"},"type":"Feature"}],"type":"FeatureCollection"}