{"features":[{"geometry":{"coordinates":[144.9964032,-37.8099501],"type":"Point"},"properties":{"events":[{"categories":["Music"],"eDate":"2025-12-20","eName":"Badger","genre":"Electronic","price":"$45.00","supports":["Trustee"," Iggy"," Saffron"," Bowers"," Clickbait"," toughbreak"],"ticketUrl":null,"time":" 4pm"}],"vName":"Abbots Yard"},"type":"Feature"},{"geometry":{"coordinates":[144.978682,-37.7981225],"type":"Point"},"properties":{"events":[{"categories":["Free","Music"],"eDate":"2025-12-20","eName":"Lewis Toms","genre":null,"price":"Free","supports":[],"ticketUrl":null,"time":" 9pm"}],"vName":"Baxter's Lot"},"type":"Feature"},{"geometry":{"coordinates":[144.9891167,-37.7996488],"type":"Point"},"properties":{"events":[{"categories":["Music"],"eDate":"2025-12-20","eName":"Bog Monster","genre":"Metal","price":"$12.25","supports":["Blight"," Gull"],"ticketUrl":null,"time":" 8:30pm"}],"vName":"Bendigo Hotel"},"type":"Feature"},{"geometry":{"coordinates":[144.9607158,-37.776327],"type":"Point"},"properties":{"events":[{"categories":["Music"],"eDate":"2025-12-20","eName":"The Seven Ups Christmas Special","genre":"Rock","price":"$28.05","supports":["Buried Feather"," Dërty Bërd"],"ticketUrl":null,"time":" 8pm"}],"vName":"Bergy Bandroom"},"type":"Feature"},{"geometry":{"coordinates":[144.9568039,-37.8111442],"type":"Point"},"properties":{"events":[{"categories":["Music"],"eDate":"2025-12-20","eName":"GRAND WAZOO’s End of Year Soul Party","genre":"Soul/Funk","price":"$55.00 - 120.00","supports":[],"ticketUrl":null,"time":" 6pm"}],"vName":"Bird's Basement"},"type":"Feature"},{"geometry":{"coordinates":[145.0004166,-37.7612582],"type":"Point"},"properties":{"events":[{"categories":["Music"],"eDate":"2025-12-20","eName":"Phoenix Street (Unplugged)","genre":null,"price":"$11.75","supports":["Moby Beefheart"," Feelings"],"ticketUrl":null,"time":" 8pm"}],"vName":"Cactus Room"},"type":"Feature"},{"geometry":{"coordinates":[144.9720318,-37.8656234],"type":"Point"},"properties":{"events":[{"categories":["Music"],"eDate":"2025-12-20","eName":"Ocky","genre":"Electronic","price":"Free","supports":[],"ticketUrl":null,"time":" 3pm"},{"categories":["Music"],"eDate":"2025-12-20","eName":"LMD","genre":"Electronic","price":"Free","supports":[],"ticketUrl":null,"time":" 6pm"},{"categories":["Music"],"eDate":"2025-12-20","eName":"TEACHA+","genre":"Electronic","price":"Free","supports":[],"ticketUrl":null,"time":" 9pm"}],"vName":"Captain Baxter"},"type":"Feature"},{"geometry":{"coordinates":[144.1430697,-37.3414953],"type":"Point"},"properties":{"events":[{"categories":["Free","Music"],"eDate":"2025-12-20","eName":"The Martini Set Swinging Christmas Show","genre":"Jazz","price":"Free","supports":[],"ticketUrl":null,"time":" 2pm"}],"vName":"Daylesford Hotel"},"type":"Feature"},{"geometry":{"coordinates":[144.9777885,-37.8597831],"type":"Point"},"properties":{"events":[{"categories":["Music"],"eDate":"2025-12-20","eName":"Cliff Raux","genre":"Indie","price":"Free","supports":[],"ticketUrl":null,"time":" 8pm"},{"categories":["Music"],"eDate":"2025-12-20","eName":"Mark Tabberner","genre":"Electronic","price":"Free","supports":[],"ticketUrl":null,"time":"11pm"}],"vName":"Freddie Wimpoles"},"type":"Feature"},{"geometry":{"coordinates":[144.9658499,-37.8147453],"type":"Point"},"properties":{"events":[{"categories":["Music"],"eDate":"2025-12-20","eName":"Vopli Vidopliassova","genre":"Rock","price":"$126.00","supports":[],"ticketUrl":null,"time":" 7pm"}],"vName":"Max Watt's (Melbourne)"},"type":"Feature"},{"geometry":{"coordinates":[144.9712356,-37.812902],"type":"Point"},"properties":{"events":[{"categories":["Comedy"],"eDate":"2025-12-20","eName":"Asian Comedy Showcase","genre":null,"price":"$30.00","supports":[],"ticketUrl":null,"time":" 6pm"}],"vName":"Morris House"},"type":"Feature"},{"geometry":{"coordinates":[144.9833121,-37.8062477],"type":"Point"},"properties":{"events":[{"categories":["Free","Music"],"eDate":"2025-12-20","eName":"Eat The Beat: ORBIT 360°","genre":"Electronic","price":"$0.00 - 22.15","supports":[],"ticketUrl":null,"time":"10pm"},{"categories":["Music"],"eDate":"2025-12-20","eName":"Thick N Juicy presents ACTION","genre":"Electronic","price":"$20.00 - 25.00","supports":[],"ticketUrl":null,"time":"10pm"},{"categories":["Music"],"eDate":"2025-12-20","eName":"NDME6","genre":"Electronic","price":"$20.00 - 30.00","supports":[],"ticketUrl":null,"time":"10pm"}],"vName":"New Guernica"},"type":"Feature"},{"geometry":{"coordinates":[144.97711,-37.79833],"type":"Point"},"properties":{"events":[{"categories":["Music"],"eDate":"2025-12-20","eName":"Kitschen Boy","genre":"Rock","price":"$28.60","supports":["Teddie"," Nick Bond"],"ticketUrl":null,"time":" 8pm"}],"vName":"Old Bar"},"type":"Feature"},{"geometry":{"coordinates":[144.9741326,-37.8619943],"type":"Point"},"properties":{"events":[{"categories":["Music"],"eDate":"2025-12-20","eName":"Rafael","genre":"Electronic","price":"$29.60 - 50.00","supports":[],"ticketUrl":null,"time":" 9pm"}],"vName":"Prince Bandroom"},"type":"Feature"},{"geometry":{"coordinates":[144.9615882,-37.7711432],"type":"Point"},"properties":{"events":[{"categories":["Free","Music"],"eDate":"2025-12-20","eName":"Private Mountain + Stella Dunai","genre":"Indie","price":"Free","supports":[],"ticketUrl":null,"time":" 2pm"},{"categories":["Music"],"eDate":"2025-12-20","eName":"Oniera","genre":"Indie","price":"$12.25 - 15.68","supports":[],"ticketUrl":null,"time":" 7:30pm"}],"vName":"Retreat Hotel"},"type":"Feature"},{"geometry":{"coordinates":[144.993413,-37.8506652],"type":"Point"},"properties":{"events":[{"categories":["Free","Music"],"eDate":"2025-12-20","eName":"Rise & Shine","genre":"Electronic","price":"Free","supports":[],"ticketUrl":null,"time":" 7am"},{"categories":["Music"],"eDate":"2025-12-20","eName":"The Late Show","genre":"Electronic","price":"$26.52","supports":[],"ticketUrl":null,"time":"10pm"}],"vName":"Revolver Upstairs"},"type":"Feature"},{"geometry":{"coordinates":[145.0013923,-37.7559265],"type":"Point"},"properties":{"events":[{"categories":["Music"],"eDate":"2025-12-20","eName":"Kurt Rainbow","genre":null,"price":"$18.35","supports":[],"ticketUrl":null,"time":" 7:30pm"}],"vName":"Shotkickers"},"type":"Feature"},{"geometry":{"coordinates":[144.32141,-37.38866],"type":"Point"},"properties":{"events":[{"categories":["Free","Music"],"eDate":"2025-12-20","eName":"Joyce Prescher","genre":"Acoustic","price":"Free","supports":[],"ticketUrl":null,"time":" 3pm"}],"vName":"The Cosmopolitan Hotel"},"type":"Feature"},{"geometry":{"coordinates":[144.9770425,-37.8588717],"type":"Point"},"properties":{"events":[{"categories":["Music"],"eDate":"2025-12-20","eName":"Whiskey Business","genre":"Indie","price":"Free","supports":["DJ Shadow"],"ticketUrl":null,"time":" 9pm"}],"vName":"The Fifth Province"},"type":"Feature"},{"geometry":{"coordinates":[144.9463641,-37.8047757],"type":"Point"},"properties":{"events":[{"categories":["Music"],"eDate":"2025-12-20","eName":"Bloodmouth","genre":"Metal","price":"$16.35","supports":["Your Mother's Disgusting Window"," Slave Birth"," Messy Insides"],"ticketUrl":null,"time":" 7:30pm"}],"vName":"The Last Chance Rock & Roll Bar"},"type":"Feature"},{"geometry":{"coordinates":[144.9879283,-37.7505509],"type":"Point"},"properties":{"events":[{"categories":["Music"],"eDate":"2025-12-20","eName":"Tim Woodz","genre":"Acoustic","price":"Free","supports":[],"ticketUrl":null,"time":" 7pm"}],"vName":"The Merri Bar"},"type":"Feature"},{"geometry":{"coordinates":[144.9794553,-37.7982653],"type":"Point"},"properties":{"events":[{"categories":["Music"],"eDate":"2025-12-20","eName":"Maurice Fulton + DJ JNETT: All Night Long","genre":"Electronic","price":"$39.69","supports":[],"ticketUrl":null,"time":" 9pm"}],"vName":"The Night Cat"},"type":"Feature"},{"geometry":{"coordinates":[144.9651425,-37.8119429],"type":"Point"},"properties":{"events":[{"categories":["Free","Music"],"eDate":"2025-12-20","eName":"Is That Garage? Vol 10: The Afterparty","genre":"Electronic","price":"Free","supports":["Zacattacq"," Garcon"," Charbink$"," lufer"," Seb"],"ticketUrl":null,"time":"10:30pm"}],"vName":"The Toff In Town"},"type":"Feature"},{"geometry":{"coordinates":[144.9769451,-37.8055776],"type":"Point"},"properties":{"events":[{"categories":["Music"],"eDate":"2025-12-20","eName":"Street Carp","genre":"Rock","price":"$12.75","supports":["could be stars"," Clean Coil"],"ticketUrl":null,"time":" 1pm"}],"vName":"The Workers Club"},"type":"Feature"},{"geometry":{"coordinates":[144.9984324,-37.7729134],"type":"Point"},"properties":{"events":[{"categories":["Music"],"eDate":"2025-12-20","eName":"Tony Yang","genre":"Jazz","price":"Free","supports":[],"ticketUrl":null,"time":" 6pm"}],"vName":"Wesley Anne"},"type":"Feature"}],"type":"FeatureCollection"}