{"features":[{"geometry":{"coordinates":[144.9679835243618,-37.8201575],"type":"Point"},"properties":{"events":[{"categories":["Comedy","Theatre"],"eDate":"2024-04-20","eName":"Circus Oz: Smash It!","genre":null,"price":"$20.00 - 111.00","supports":[],"ticketUrl":null,"time":" 3:45pm"}],"vName":"Arts Centre Melbourne"},"type":"Feature"},{"geometry":{"coordinates":[144.9500257,-37.8032773],"type":"Point"},"properties":{"events":[{"categories":["Free","Art"],"eDate":"2024-04-20","eName":"ನಿರೀಕ್ಷಣೆ nireekshane","genre":null,"price":"Free","supports":[],"ticketUrl":null,"time":"11am"},{"categories":["Free","Art"],"eDate":"2024-04-20","eName":"ಒಡಲಾಳ Odalala","genre":null,"price":"Free","supports":[],"ticketUrl":null,"time":"11am"}],"vName":"Arts House"},"type":"Feature"},{"geometry":{"coordinates":[144.9715791,-37.8140656],"type":"Point"},"properties":{"events":[{"categories":["Festival","Comedy"],"eDate":"2024-04-20","eName":"My Cousin Vlad: DIS/DAT","genre":null,"price":"$55.00","supports":[],"ticketUrl":null,"time":" 5pm"}],"vName":"Athenaeum Theatre"},"type":"Feature"},{"geometry":{"coordinates":[144.9763781,-37.7983136],"type":"Point"},"properties":{"events":[{"categories":["Music"],"eDate":"2024-04-20","eName":"Tench","genre":null,"price":"$13.43","supports":["Scarn On"," Mousse Cannon"," Traumaboys"],"ticketUrl":null,"time":" 8pm"}],"vName":"Bad Decisions Bar"},"type":"Feature"},{"geometry":{"coordinates":[144.978425,-37.79773],"type":"Point"},"properties":{"events":[{"categories":["Music"],"eDate":"2024-04-20","eName":"Fair Call","genre":"Punk","price":"$17.35","supports":[],"ticketUrl":null,"time":" 8:30pm"},{"categories":["Free","Music"],"eDate":"2024-04-20","eName":"Midnight Circuitry / Synaptic Dreams","genre":"Electronic","price":"Free","supports":[],"ticketUrl":null,"time":"11pm"}],"vName":"Bar Open"},"type":"Feature"},{"geometry":{"coordinates":[144.9607158,-37.776327],"type":"Point"},"properties":{"events":[{"categories":["Music"],"eDate":"2024-04-20","eName":"Eye of the Enemy + Armoured Earth","genre":"Metal","price":"$16.85","supports":["Verona Lights"," Priorities"],"ticketUrl":null,"time":" 8pm"}],"vName":"Bergy Bandroom"},"type":"Feature"},{"geometry":{"coordinates":[144.9617018,-37.7704566],"type":"Point"},"properties":{"events":[{"categories":["Music"],"eDate":"2024-04-20","eName":"Yacht Rock Revival","genre":"Soul/Funk","price":"$43.96","supports":[],"ticketUrl":null,"time":" 8:30pm"}],"vName":"Brunswick Ballroom"},"type":"Feature"},{"geometry":{"coordinates":[145.299149,-38.0198687],"type":"Point"},"properties":{"events":[{"categories":["Music","Theatre"],"eDate":"2024-04-20","eName":"The Fleetwood Pac: A Tribute to Fleetwood Mac","genre":null,"price":"$50.00 - 59.00","supports":[],"ticketUrl":null,"time":" 7:30pm"}],"vName":"Bunjil Place"},"type":"Feature"},{"geometry":{"coordinates":[144.9628440552175,-37.76100605],"type":"Point"},"properties":{"events":[{"categories":["Music"],"eDate":"2024-04-20","eName":"Nature in the City","genre":"Country/Folk","price":"Free","supports":[],"ticketUrl":null,"time":" 6pm"}],"vName":"Edinburgh Castle Hotel"},"type":"Feature"},{"geometry":{"coordinates":[144.9679835243618,-37.8201575],"type":"Point"},"properties":{"events":[{"categories":["Music"],"eDate":"2024-04-20","eName":"Melbourne Symphony Orchestra presents Star Wars: Return of the Jedi in Concert","genre":"Classical","price":"$91.00","supports":[],"ticketUrl":null,"time":" 1pm"}],"vName":"Hamer Hall (Arts Centre Melbourne)"},"type":"Feature"},{"geometry":{"coordinates":[144.9596527,-37.7720304],"type":"Point"},"properties":{"events":[{"categories":["Music"],"eDate":"2024-04-20","eName":"Vaudeville Smash","genre":"Soul/Funk","price":"$33.66","supports":[],"ticketUrl":null,"time":" 7pm"},{"categories":["Music"],"eDate":"2024-04-20","eName":"Vaudeville Smash","genre":"Jazz","price":"$33.66","supports":[],"ticketUrl":null,"time":" 8pm"}],"vName":"Howler"},"type":"Feature"},{"geometry":{"coordinates":[145.0293642,-37.8073947],"type":"Point"},"properties":{"events":[{"categories":["Music"],"eDate":"2024-04-20","eName":"CANISHA","genre":null,"price":"$20.00 - 26.00","supports":[],"ticketUrl":null,"time":" 8pm"}],"vName":"Kew Court House"},"type":"Feature"},{"geometry":{"coordinates":[144.9764962,-37.7983139],"type":"Point"},"properties":{"events":[{"categories":["Music"],"eDate":"2024-04-20","eName":"Solana Collective. Presents: ATLANTIS","genre":null,"price":"$21.68","supports":["Sammy La Marca"," Ish K"," Miss Jade"," Ilker"," Naser"," Max Pudebat"," Zephir"],"ticketUrl":null,"time":" 8pm"},{"categories":["Music"],"eDate":"2024-04-20","eName":"LAUNDRY - Saturdays","genre":null,"price":"$16.53","supports":[],"ticketUrl":null,"time":"10pm"}],"vName":"Laundry Bar"},"type":"Feature"},{"geometry":{"coordinates":[144.8971518,-37.8054274],"type":"Point"},"properties":{"events":[{"categories":["Free","Music"],"eDate":"2024-04-20","eName":"Birthday Bonza Feat. Sad State Of Affairs","genre":null,"price":"Free","supports":["IRIS"," Taz Theo"],"ticketUrl":null,"time":" 2:15pm"},{"categories":["Music"],"eDate":"2024-04-20","eName":"Sanny Veloo","genre":null,"price":"$10.00 - 15.00","supports":["Martians Of Error"," Phase Wanderer"," Ninebarks"],"ticketUrl":null,"time":" 6pm"},{"categories":["Free","Music"],"eDate":"2024-04-20","eName":"Catharsis 1969","genre":null,"price":"Free","supports":["Shock Collar"," Little Theatre"],"ticketUrl":null,"time":" 7:45pm"}],"vName":"Mamma Chen's"},"type":"Feature"},{"geometry":{"coordinates":[145.1496717,-37.7125259],"type":"Point"},"properties":{"events":[{"categories":["Music"],"eDate":"2024-04-20","eName":"Million Dollar Riff (MDR)","genre":"Rock","price":"$25.00","supports":[],"ticketUrl":null,"time":" 9pm"}],"vName":"Missing Gorilla"},"type":"Feature"},{"geometry":{"coordinates":[144.9712356,-37.812902],"type":"Point"},"properties":{"events":[{"categories":["Comedy"],"eDate":"2024-04-20","eName":"Josh Earl: Don't You Know Who I Am? Live","genre":null,"price":"$20.50 - 65.50","supports":[],"ticketUrl":null,"time":" 3pm"}],"vName":"Morris House"},"type":"Feature"},{"geometry":{"coordinates":[144.998414,-37.771471],"type":"Point"},"properties":{"events":[{"categories":["Music"],"eDate":"2024-04-20","eName":"Noah Dillon","genre":"Indie","price":"$29.10","supports":["Platonic Sex"," Eaglemont"],"ticketUrl":null,"time":" 8:30pm"}],"vName":"Northcote Social Club"},"type":"Feature"},{"geometry":{"coordinates":[144.9977626,-37.7755001],"type":"Point"},"properties":{"events":[{"categories":["Music"],"eDate":"2024-04-20","eName":"The Beasts","genre":"Rock","price":"$61.30","supports":["JP Shilo"],"ticketUrl":null,"time":" 7:30pm"}],"vName":"Northcote Theatre"},"type":"Feature"},{"geometry":{"coordinates":[145.08963741959553,-37.896857600000004],"type":"Point"},"properties":{"events":[{"categories":["Music"],"eDate":"2024-04-20","eName":"Kings & Queens of Soul + Tina Loves Sam","genre":"Soul/Funk","price":"$50.00","supports":[],"ticketUrl":null,"time":" 8pm"}],"vName":"Oakleigh-Carnegie RSL"},"type":"Feature"},{"geometry":{"coordinates":[144.97711,-37.79833],"type":"Point"},"properties":{"events":[{"categories":["Music"],"eDate":"2024-04-20","eName":"Metal United Down Under 10 Year Party","genre":"Metal","price":"$25.00","supports":[],"ticketUrl":null,"time":" 6:30pm"}],"vName":"Old Bar"},"type":"Feature"},{"geometry":{"coordinates":[144.9408908,-37.8402429],"type":"Point"},"properties":{"events":[{"categories":["Free","Music","Other \"Food & Drink\""],"eDate":"2024-04-20","eName":"Sunshine Tip","genre":"Country/Folk","price":"Free","supports":[],"ticketUrl":null,"time":" 9pm"}],"vName":"Prince Alfred Hotel"},"type":"Feature"},{"geometry":{"coordinates":[144.9631913,-37.7617818],"type":"Point"},"properties":{"events":[{"categories":["Free","Music"],"eDate":"2024-04-20","eName":"The Halves + dogworld","genre":"Rock","price":"Free","supports":[],"ticketUrl":null,"time":" 8pm"}],"vName":"Ringo Barr"},"type":"Feature"},{"geometry":{"coordinates":[144.9715321,-37.8098002],"type":"Point"},"properties":{"events":[{"categories":["Comedy"],"eDate":"2024-04-20","eName":"Two Little Dickheads: Slot Fillers","genre":null,"price":"$20.00 - 25.00","supports":[],"ticketUrl":null,"time":" 8pm"}],"vName":"StoryVille"},"type":"Feature"},{"geometry":{"coordinates":[144.9706095,-37.7783326],"type":"Point"},"properties":{"events":[{"categories":["Free","Music"],"eDate":"2024-04-20","eName":"Bury Me In Smoke","genre":"Metal","price":"Free","supports":[],"ticketUrl":null,"time":" 9pm"}],"vName":"The Beast"},"type":"Feature"},{"geometry":{"coordinates":[144.99959550357977,-37.762376950000004],"type":"Point"},"properties":{"events":[{"categories":["Music"],"eDate":"2024-04-20","eName":"Forward Ever: Mungo's Hifi","genre":"Global","price":"$30.00","supports":["Housewife's Choice Sound System"," Heartical Hi-Powa"," Goody's Hi-Fi"," Solidarity Sound System"],"ticketUrl":null,"time":" 6pm"}],"vName":"The Croxton"},"type":"Feature"},{"geometry":{"coordinates":[144.9657057,-37.8061581],"type":"Point"},"properties":{"events":[{"categories":["Music"],"eDate":"2024-04-20","eName":"Acopia","genre":"Electronic","price":"$22.85","supports":[],"ticketUrl":null,"time":" 8pm"}],"vName":"The Curtin"},"type":"Feature"},{"geometry":{"coordinates":[144.9651425,-37.8119429],"type":"Point"},"properties":{"events":[{"categories":["Music"],"eDate":"2024-04-20","eName":"Proto Exotica","genre":"Electronic","price":"$23.46","supports":["Reenie"," Ezines"],"ticketUrl":null,"time":"11pm"}],"vName":"The Toff In Town"},"type":"Feature"},{"geometry":{"coordinates":[144.9846126,-37.7989941],"type":"Point"},"properties":{"events":[{"categories":["Music"],"eDate":"2024-04-20","eName":"Rack Off & Legless: Total Tote Takeover","genre":null,"price":"$55.60","supports":["more"],"ticketUrl":null,"time":" 1pm"}],"vName":"The Tote Hotel"},"type":"Feature"}],"type":"FeatureCollection"}