{"features":[{"geometry":{"coordinates":[144.99828116650363,-37.7713296],"type":"Point"},"properties":{"events":[{"categories":["Music"],"eDate":"2025-01-18","eName":"Cold Snap","genre":"Blues","price":"$20.00","supports":[],"ticketUrl":null,"time":" 3:30pm"},{"categories":["Music"],"eDate":"2025-01-18","eName":"Cold Snap","genre":null,"price":"$20.00","supports":[],"ticketUrl":null,"time":" 4pm"}],"vName":"Bar 303"},"type":"Feature"},{"geometry":{"coordinates":[144.978425,-37.79773],"type":"Point"},"properties":{"events":[{"categories":["Music"],"eDate":"2025-01-18","eName":"Indented Heads","genre":"Indie","price":"$15.00","supports":["All That’s Left Of You"," Teeth Dreams"],"ticketUrl":null,"time":" 8:30pm"}],"vName":"Bar Open"},"type":"Feature"},{"geometry":{"coordinates":[144.978682,-37.7981225],"type":"Point"},"properties":{"events":[{"categories":["Free","Music"],"eDate":"2025-01-18","eName":"Woody Samson","genre":null,"price":"Free","supports":[],"ticketUrl":null,"time":" 9pm"},{"categories":["Music"],"eDate":"2025-01-18","eName":"DJ Lewy C","genre":"Electronic","price":"Free","supports":[],"ticketUrl":null,"time":"10pm"}],"vName":"Baxter's Lot"},"type":"Feature"},{"geometry":{"coordinates":[144.98911674151407,-37.79964875],"type":"Point"},"properties":{"events":[{"categories":["Music"],"eDate":"2025-01-18","eName":"Küntsquäd","genre":"Metal","price":"$17.35","supports":[],"ticketUrl":null,"time":" 8:30pm"}],"vName":"Bendigo Hotel"},"type":"Feature"},{"geometry":{"coordinates":[144.9607158,-37.776327],"type":"Point"},"properties":{"events":[{"categories":["Music"],"eDate":"2025-01-18","eName":"Little Red Trucks","genre":"Indie","price":"$16.85","supports":["ENT UNT"," Mini Waters"," Charlie Valentine"],"ticketUrl":null,"time":" 8pm"}],"vName":"Bergy Bandroom"},"type":"Feature"},{"geometry":{"coordinates":[144.9567859,-37.8111049],"type":"Point"},"properties":{"events":[{"categories":["Music"],"eDate":"2025-01-18","eName":"Taylor Sheridan","genre":"Acoustic","price":"$60.00","supports":[],"ticketUrl":null,"time":" 7:30pm"}],"vName":"Bird's Basement"},"type":"Feature"},{"geometry":{"coordinates":[144.9617018,-37.7704566],"type":"Point"},"properties":{"events":[{"categories":["Music"],"eDate":"2025-01-18","eName":"Ramble Tamble: Australian Creedence Show","genre":"Rock","price":"$46.00","supports":[],"ticketUrl":null,"time":" 8:30pm"}],"vName":"Brunswick Ballroom"},"type":"Feature"},{"geometry":{"coordinates":[144.9248037207342,-37.7656716],"type":"Point"},"properties":{"events":[{"categories":["Comedy"],"eDate":"2025-01-18","eName":"Effie: UpYourselfness","genre":null,"price":"$45.00 - 55.00","supports":[],"ticketUrl":null,"time":" 8pm"}],"vName":"Clocktower Centre"},"type":"Feature"},{"geometry":{"coordinates":[144.99266639479475,-37.82488935],"type":"Point"},"properties":{"events":[{"categories":["Music"],"eDate":"2025-01-18","eName":"Noasis","genre":"Rock","price":"$26.05 - 40.40","supports":["In Your Honour"," SOTV"],"ticketUrl":null,"time":" 7pm"}],"vName":"Corner Hotel"},"type":"Feature"},{"geometry":{"coordinates":[144.9875917,-37.7963837],"type":"Point"},"properties":{"events":[{"categories":["Free","Music"],"eDate":"2025-01-18","eName":"Woollen Kits + The Sprouts","genre":"Rock","price":"Free","supports":[],"ticketUrl":null,"time":" 4pm"}],"vName":"Gem Bar"},"type":"Feature"},{"geometry":{"coordinates":[144.9679835243618,-37.8201575],"type":"Point"},"properties":{"events":[{"categories":["Other \"Spoken Word\"","Other \"Poetry & Forums\""],"eDate":"2025-01-18","eName":"Steve Backshall: Ocean","genre":null,"price":"$69.90 - 79.90","supports":[],"ticketUrl":null,"time":" 5pm"}],"vName":"Hamer Hall (Arts Centre Melbourne)"},"type":"Feature"},{"geometry":{"coordinates":[144.973013,-37.8640582],"type":"Point"},"properties":{"events":[{"categories":["Comedy"],"eDate":"2025-01-18","eName":"RAW Comedy 2025","genre":null,"price":"$15.00","supports":[],"ticketUrl":null,"time":"12:30pm"},{"categories":["Music"],"eDate":"2025-01-18","eName":"Rock Academy Live: Week Two","genre":"Rock","price":"$10.75 - 22.95","supports":[],"ticketUrl":null,"time":" 1:15pm"}],"vName":"Hotel Esplanade (aka The Espy)"},"type":"Feature"},{"geometry":{"coordinates":[144.9596527,-37.7720304],"type":"Point"},"properties":{"events":[{"categories":["Music"],"eDate":"2025-01-18","eName":"Phasmid","genre":"Electronic","price":"$38.76","supports":[],"ticketUrl":null,"time":" 8pm"}],"vName":"Howler"},"type":"Feature"},{"geometry":{"coordinates":[144.9631732,-37.8142454],"type":"Point"},"properties":{"events":[{"categories":["Free","Music"],"eDate":"2025-01-18","eName":"Dusk Til Dark at MPavilion: Purient","genre":"Electronic","price":"Free","supports":[],"ticketUrl":null,"time":" 7:30pm"}],"vName":"MPavilion"},"type":"Feature"},{"geometry":{"coordinates":[144.8971518,-37.8054274],"type":"Point"},"properties":{"events":[{"categories":["Music","Markets"],"eDate":"2025-01-18","eName":"Blondehouse","genre":null,"price":"$10.00 - 15.00","supports":["Special Guest"," Memory Palace"],"ticketUrl":null,"time":" 2pm"},{"categories":["Free","Music"],"eDate":"2025-01-18","eName":"Plastic Cheeses","genre":null,"price":"Free","supports":["The Soggy Pockets"," Kelsey Jean & The Bad Health"," The Wellingtons Duo"],"ticketUrl":null,"time":" 7:30pm"}],"vName":"Mamma Chen's"},"type":"Feature"},{"geometry":{"coordinates":[144.9659879,-37.8147557],"type":"Point"},"properties":{"events":[{"categories":["Music"],"eDate":"2025-01-18","eName":"Ohmega at Max Watts: Drum 'n' Bass Night","genre":"Electronic","price":"$17.35","supports":[],"ticketUrl":null,"time":" 9pm"}],"vName":"Max Watt's (Melbourne)"},"type":"Feature"},{"geometry":{"coordinates":[144.998414,-37.771471],"type":"Point"},"properties":{"events":[{"categories":["Music"],"eDate":"2025-01-18","eName":"CS + Kreme","genre":"Experimental","price":"$35.30","supports":["Jules Reidy"],"ticketUrl":null,"time":" 9pm"}],"vName":"Northcote Social Club"},"type":"Feature"},{"geometry":{"coordinates":[144.9977626,-37.7755001],"type":"Point"},"properties":{"events":[{"categories":["Music"],"eDate":"2025-01-18","eName":"Jalen Ngonda","genre":"R&B","price":"$79.90","supports":["Ella Thompson"],"ticketUrl":null,"time":" 8pm"}],"vName":"Northcote Theatre"},"type":"Feature"},{"geometry":{"coordinates":[144.97711,-37.79833],"type":"Point"},"properties":{"events":[{"categories":["Music"],"eDate":"2025-01-18","eName":"Don't Thank Me, Spank Me","genre":"Rock","price":"$28.60","supports":["Loretta Miller & Band"," Arabella & The Heist"," DJ Richie1250"],"ticketUrl":null,"time":" 8pm"}],"vName":"Old Bar"},"type":"Feature"},{"geometry":{"coordinates":[144.9605705,-37.8132486],"type":"Point"},"properties":{"events":[{"categories":["Music"],"eDate":"2025-01-18","eName":"Elly Poletti Sings The A List: Aretha-Adele-Alicia-Amy","genre":"Jazz","price":"$48.00","supports":[],"ticketUrl":null,"time":" 6pm"},{"categories":["Music"],"eDate":"2025-01-18","eName":"Anton Delecca Quartet featuring Emma Gilmartin","genre":"Jazz","price":"$45.00","supports":[],"ticketUrl":null,"time":" 6:30pm"},{"categories":["Music"],"eDate":"2025-01-18","eName":"Music of Sting / The Police: Rowan Pattison Band & Natasha Weatherill","genre":"Jazz","price":"$45.00","supports":[],"ticketUrl":null,"time":" 9pm"},{"categories":["Music"],"eDate":"2025-01-18","eName":"Chris Johnstone Quartet presents the Music of Miles Davis","genre":"Jazz","price":"$45.00","supports":[],"ticketUrl":null,"time":" 9:30pm"}],"vName":"Paris Cat Jazz Club"},"type":"Feature"},{"geometry":{"coordinates":[144.9615882,-37.7711432],"type":"Point"},"properties":{"events":[{"categories":["Free","Music"],"eDate":"2025-01-18","eName":"Snowy","genre":"Indie","price":"Free","supports":[],"ticketUrl":null,"time":" 2pm"}],"vName":"Retreat Hotel"},"type":"Feature"},{"geometry":{"coordinates":[144.993413,-37.8506652],"type":"Point"},"properties":{"events":[{"categories":["Music"],"eDate":"2025-01-18","eName":"Mystery","genre":"Rock","price":"$21.42","supports":["Black Aces"," Night Chaser"," Riot After Midnight"],"ticketUrl":null,"time":" 7pm"},{"categories":["Music"],"eDate":"2025-01-18","eName":"The Late Show: Madam X","genre":"Electronic","price":"$16.32 - 36.72","supports":[],"ticketUrl":null,"time":"10pm"}],"vName":"Revolver Upstairs"},"type":"Feature"},{"geometry":{"coordinates":[145.001392343033,-37.75592655],"type":"Point"},"properties":{"events":[{"categories":["Free","Music"],"eDate":"2025-01-18","eName":"Milksick","genre":"Rock","price":"Free","supports":["Echo Social Club"],"ticketUrl":null,"time":" 8pm"}],"vName":"Shotkickers"},"type":"Feature"},{"geometry":{"coordinates":[144.9746525926778,-37.823819181966286],"type":"Point"},"properties":{"events":[{"categories":["Music"],"eDate":"2025-01-18","eName":"City & Colour","genre":"Country/Folk","price":"$119.00 - 139.00","supports":["Nathaniel Rateliff & The Night Sweats"],"ticketUrl":null,"time":" 6pm"}],"vName":"Sidney Myer Music Bowl"},"type":"Feature"},{"geometry":{"coordinates":[144.9607404,-37.7743469],"type":"Point"},"properties":{"events":[{"categories":["Music"],"eDate":"2025-01-18","eName":"Sidney Phillips Penance","genre":"Hip Hop","price":"$29.13","supports":[],"ticketUrl":null,"time":" 7pm"},{"categories":["Music"],"eDate":"2025-01-18","eName":"On Repeat: Linkin Park","genre":"Metal","price":"$13.80 - 22.00","supports":[],"ticketUrl":null,"time":"11pm"}],"vName":"Stay Gold"},"type":"Feature"},{"geometry":{"coordinates":[144.9706095,-37.7783326],"type":"Point"},"properties":{"events":[{"categories":["Free","Music"],"eDate":"2025-01-18","eName":"Munkus Funkus","genre":"Soul/Funk","price":"Free","supports":[],"ticketUrl":null,"time":" 9pm"}],"vName":"The Beast"},"type":"Feature"},{"geometry":{"coordinates":[144.9585654,-37.8059962],"type":"Point"},"properties":{"events":[{"categories":["Music"],"eDate":"2025-01-18","eName":"Crankees","genre":"Punk","price":"$11.25","supports":["Lothario"," R.U.B"],"ticketUrl":null,"time":" 2:30pm"},{"categories":["Music"],"eDate":"2025-01-18","eName":"Humane Animal Rescue Fundraiser","genre":"Acoustic","price":"$23.50","supports":[],"ticketUrl":null,"time":" 8pm"}],"vName":"The Last Chance Rock & Roll Bar"},"type":"Feature"},{"geometry":{"coordinates":[144.9651425,-37.8119429],"type":"Point"},"properties":{"events":[{"categories":["Free","Music"],"eDate":"2025-01-18","eName":"Rhythm Express: DJ Jnett & Friends","genre":"Electronic","price":"Free","supports":["Raph Wall"," Tai Jai"],"ticketUrl":null,"time":" 9pm"},{"categories":["Free","Music"],"eDate":"2025-01-18","eName":"After Hours: Joey Coco","genre":"Electronic","price":"Free","supports":["GRIGGY"," Just Alice"," more"],"ticketUrl":null,"time":"10:30pm"}],"vName":"The Toff In Town"},"type":"Feature"},{"geometry":{"coordinates":[144.9846126,-37.7989941],"type":"Point"},"properties":{"events":[{"categories":["Music"],"eDate":"2025-01-18","eName":"Garage Sale","genre":"Rock","price":"$16.35","supports":["Swapmeet"," Freight"," Es Muss Sein"],"ticketUrl":null,"time":" 7:30pm"},{"categories":["Music"],"eDate":"2025-01-18","eName":"Bang Bang Boom","genre":null,"price":"$11.25 - 15.00","supports":[],"ticketUrl":null,"time":" 8pm"}],"vName":"The Tote Hotel"},"type":"Feature"},{"geometry":{"coordinates":[144.9769450659087,-37.8055776],"type":"Point"},"properties":{"events":[{"categories":["Music"],"eDate":"2025-01-18","eName":"Keggin","genre":"Rock","price":"$12.75 - 17.85","supports":["The Trepids"," The Ians"],"ticketUrl":null,"time":" 8pm"}],"vName":"The Workers Club"},"type":"Feature"},{"geometry":{"coordinates":[144.9827552,-37.8041303],"type":"Point"},"properties":{"events":[{"categories":["Music"],"eDate":"2025-01-18","eName":"Yah Yah Saturdays","genre":"Electronic","price":"$0.00 - 15.00","supports":[],"ticketUrl":null,"time":" 9pm"}],"vName":"Yah Yah's"},"type":"Feature"}],"type":"FeatureCollection"}