{"features":[{"geometry":{"coordinates":[144.9715791,-37.8140656],"type":"Point"},"properties":{"events":[{"categories":["Theatre"],"eDate":"2024-06-22","eName":"The Woman in Black (Matinee)","genre":null,"price":"$55.00 - 129.00","supports":[],"ticketUrl":null,"time":" 2pm"},{"categories":["Theatre"],"eDate":"2024-06-22","eName":"The Woman in Black","genre":null,"price":"$55.00 - 129.00","supports":[],"ticketUrl":null,"time":" 7:30pm"}],"vName":"Athenaeum Theatre"},"type":"Feature"},{"geometry":{"coordinates":[144.9763781,-37.7983136],"type":"Point"},"properties":{"events":[{"categories":["Music"],"eDate":"2024-06-22","eName":"Peaks Radio 50","genre":"Electronic","price":"$20.00","supports":[],"ticketUrl":null,"time":" 6:30pm"}],"vName":"Bad Decisions Bar"},"type":"Feature"},{"geometry":{"coordinates":[144.978425,-37.79773],"type":"Point"},"properties":{"events":[{"categories":["Music"],"eDate":"2024-06-22","eName":"No Hand-Brakes!","genre":"Rock","price":"$17.35","supports":[],"ticketUrl":null,"time":" 8:30pm"},{"categories":["Free","Music"],"eDate":"2024-06-22","eName":"Midnight Circuitry / Synaptic Dreams","genre":"Electronic","price":"Free","supports":[],"ticketUrl":null,"time":"11pm"}],"vName":"Bar Open"},"type":"Feature"},{"geometry":{"coordinates":[144.9617018,-37.7704566],"type":"Point"},"properties":{"events":[{"categories":["Other \"Cabaret\""],"eDate":"2024-06-22","eName":"Winter Solstice Dark Cabaret","genre":null,"price":"$38.86","supports":[],"ticketUrl":null,"time":" 2pm"}],"vName":"Brunswick Ballroom"},"type":"Feature"},{"geometry":{"coordinates":[145.00025846036164,-37.7592368],"type":"Point"},"properties":{"events":[{"categories":["Music"],"eDate":"2024-06-22","eName":"Yes Rave presents: Racerage","genre":"Hip Hop","price":"$15.00","supports":["4yrab"," Simo Soo"," The Maltese Well Monster"],"ticketUrl":null,"time":" 8pm"}],"vName":"Cafe Gummo"},"type":"Feature"},{"geometry":{"coordinates":[144.9947908,-37.8491931],"type":"Point"},"properties":{"events":[{"categories":["Music","Theatre"],"eDate":"2024-06-22","eName":"Son Called Moon","genre":"Indie","price":"$60.00","supports":[],"ticketUrl":null,"time":" 7:30pm"}],"vName":"Chapel Off Chapel"},"type":"Feature"},{"geometry":{"coordinates":[145.0006024,-37.8837941],"type":"Point"},"properties":{"events":[{"categories":["Music"],"eDate":"2024-06-22","eName":"The Jackie Bornstein Quartet","genre":"Jazz","price":"$30.00","supports":[],"ticketUrl":null,"time":" 8pm"}],"vName":"Classic Southside"},"type":"Feature"},{"geometry":{"coordinates":[144.9248037207342,-37.7656716],"type":"Point"},"properties":{"events":[{"categories":["Dance"],"eDate":"2024-06-22","eName":"Elevation Dance Studios 2024: Mid Year Showcase","genre":null,"price":"$40.00","supports":[],"ticketUrl":null,"time":" 6pm"}],"vName":"Clocktower Centre"},"type":"Feature"},{"geometry":{"coordinates":[144.9875917,-37.7963837],"type":"Point"},"properties":{"events":[{"categories":["Free","Music"],"eDate":"2024-06-22","eName":"Dez Dare + Grytt","genre":"Punk","price":"Free","supports":[],"ticketUrl":null,"time":" 4pm"}],"vName":"Gem Bar"},"type":"Feature"},{"geometry":{"coordinates":[144.9679835243618,-37.8201575],"type":"Point"},"properties":{"events":[{"categories":["Free","Theatre"],"eDate":"2024-06-22","eName":"Monster High","genre":null,"price":"Free","supports":[],"ticketUrl":null,"time":"12:30pm"}],"vName":"Hamer Hall (Arts Centre Melbourne)"},"type":"Feature"},{"geometry":{"coordinates":[144.9596527,-37.7720304],"type":"Point"},"properties":{"events":[{"categories":["Music"],"eDate":"2024-06-22","eName":"Peter Bibby","genre":"Rock","price":"$28.56","supports":[],"ticketUrl":null,"time":" 8pm"}],"vName":"Howler"},"type":"Feature"},{"geometry":{"coordinates":[144.90043927513608,-37.8115247],"type":"Point"},"properties":{"events":[{"categories":["Music"],"eDate":"2024-06-22","eName":"Odyssey 01","genre":"Electronic","price":"$25.00","supports":[],"ticketUrl":null,"time":" 8pm"}],"vName":"Kindred Bandroom"},"type":"Feature"},{"geometry":{"coordinates":[144.8971518,-37.8054274],"type":"Point"},"properties":{"events":[{"categories":["Music","Theatre","Dance","Other \"Cabaret\""],"eDate":"2024-06-22","eName":"It's Not A Phase: An Emo Variety Show","genre":"Punk","price":"Free","supports":["Areola Grande"," Annie Krevice"," April Le Feu Rouge"," Archie Absinthe"," Cora Noire"," G0RE WH0RE"," Mae D'fyre"," Melissa Intent"],"ticketUrl":null,"time":" 7pm"}],"vName":"Mamma Chen's"},"type":"Feature"},{"geometry":{"coordinates":[144.9659879,-37.8147557],"type":"Point"},"properties":{"events":[{"categories":["Music"],"eDate":"2024-06-22","eName":"1300","genre":"Hip Hop","price":"$40.80","supports":["FRIDAY*"," Dylan Atlantis"],"ticketUrl":null,"time":" 8pm"}],"vName":"Max Watt's (Melbourne)"},"type":"Feature"},{"geometry":{"coordinates":[144.9786817,-37.8671902],"type":"Point"},"properties":{"events":[{"categories":["Music"],"eDate":"2024-06-22","eName":"Forever 80s: Neon Nights","genre":"Pop","price":"$39.00 - 50.00","supports":[],"ticketUrl":null,"time":" 7pm"}],"vName":"Memo Music Hall"},"type":"Feature"},{"geometry":{"coordinates":[144.998414,-37.771471],"type":"Point"},"properties":{"events":[{"categories":["Music"],"eDate":"2024-06-22","eName":"Alain Johannes","genre":"Rock","price":"$55.20","supports":[],"ticketUrl":null,"time":" 8:30pm"}],"vName":"Northcote Social Club"},"type":"Feature"},{"geometry":{"coordinates":[144.9977626,-37.7755001],"type":"Point"},"properties":{"events":[{"categories":["Music"],"eDate":"2024-06-22","eName":"Pierce Brothers","genre":"Country/Folk","price":"$51.10","supports":["Flynn Gurry"," Anya Alchemy"],"ticketUrl":null,"time":" 7pm"}],"vName":"Northcote Theatre"},"type":"Feature"},{"geometry":{"coordinates":[144.9605705,-37.8132486],"type":"Point"},"properties":{"events":[{"categories":["Music"],"eDate":"2024-06-22","eName":"Georgia Brooks Swingtet","genre":"Jazz","price":"$45.00","supports":[],"ticketUrl":null,"time":" 6pm"}],"vName":"Paris Cat Jazz Club"},"type":"Feature"},{"geometry":{"coordinates":[144.9631913,-37.7617818],"type":"Point"},"properties":{"events":[{"categories":["Music"],"eDate":"2024-06-22","eName":"Rusted Blood + The Subordinates","genre":"Rock","price":"$20.00","supports":[],"ticketUrl":null,"time":" 8pm"}],"vName":"Ringo Barr"},"type":"Feature"},{"geometry":{"coordinates":[145.001392343033,-37.75592655],"type":"Point"},"properties":{"events":[{"categories":["Music"],"eDate":"2024-06-22","eName":"Sapphire Street","genre":"Rock","price":"$18.35","supports":["Dopplerhaus"," Echo Social Club"," Forrer Band"],"ticketUrl":null,"time":" 7:30pm"}],"vName":"Shotkickers"},"type":"Feature"},{"geometry":{"coordinates":[144.9607404,-37.7743469],"type":"Point"},"properties":{"events":[{"categories":["Music"],"eDate":"2024-06-22","eName":"Narrow Head","genre":"Pop","price":"$67.35","supports":[],"ticketUrl":null,"time":" 7pm"},{"categories":["Music"],"eDate":"2024-06-22","eName":"LOADED: Britpop, Madchester & Alternative Dance Party","genre":"Pop","price":"$10.00","supports":[],"ticketUrl":null,"time":"11pm"}],"vName":"Stay Gold"},"type":"Feature"},{"geometry":{"coordinates":[144.9706095,-37.7783326],"type":"Point"},"properties":{"events":[{"categories":["Free","Music"],"eDate":"2024-06-22","eName":"Wizard Tricks","genre":"Rock","price":"Free","supports":["Coco Jumbo"],"ticketUrl":null,"time":" 9:30pm"}],"vName":"The Beast"},"type":"Feature"},{"geometry":{"coordinates":[144.99959550357977,-37.762376950000004],"type":"Point"},"properties":{"events":[{"categories":["Music"],"eDate":"2024-06-22","eName":"Radio Birdman","genre":"Rock","price":"$98.85","supports":["CIVIC"],"ticketUrl":null,"time":" 8pm"}],"vName":"The Croxton"},"type":"Feature"},{"geometry":{"coordinates":[144.9657057,-37.8061581],"type":"Point"},"properties":{"events":[{"categories":["Music"],"eDate":"2024-06-22","eName":"Willowbank Grove","genre":"Rock","price":"$22.85","supports":[],"ticketUrl":null,"time":" 8pm"}],"vName":"The Curtin"},"type":"Feature"},{"geometry":{"coordinates":[144.9846126,-37.7989941],"type":"Point"},"properties":{"events":[{"categories":["Music"],"eDate":"2024-06-22","eName":"West Thebarton","genre":"Punk","price":"$28.60","supports":["Volt Jolt"," Psychosybin"],"ticketUrl":null,"time":" 7pm"}],"vName":"The Tote Hotel"},"type":"Feature"},{"geometry":{"coordinates":[144.9769450659087,-37.8055776],"type":"Point"},"properties":{"events":[{"categories":["Music"],"eDate":"2024-06-22","eName":"Second Hand High","genre":"Rock","price":"$7.65","supports":["Swim State"," Dusthead"," Berkeley"],"ticketUrl":null,"time":" 8pm"}],"vName":"The Workers Club"},"type":"Feature"},{"geometry":{"coordinates":[144.9618426,-37.8125531],"type":"Point"},"properties":{"events":[{"categories":["Free","Music"],"eDate":"2024-06-22","eName":"Kombucha","genre":null,"price":"Free","supports":[],"ticketUrl":null,"time":" 4pm"},{"categories":["Free","Music","Other \"Food & Drink\""],"eDate":"2024-06-22","eName":"KOMBUCHA","genre":null,"price":"Free","supports":[],"ticketUrl":null,"time":" 5pm"}],"vName":"Whitehart Bar"},"type":"Feature"}],"type":"FeatureCollection"}