{"features":[{"geometry":{"coordinates":[144.978682,-37.7981225],"type":"Point"},"properties":{"events":[{"categories":["Free","Music"],"eDate":"2025-12-06","eName":"Woody Samson","genre":null,"price":"Free","supports":[],"ticketUrl":null,"time":" 9pm"}],"vName":"Baxter's Lot"},"type":"Feature"},{"geometry":{"coordinates":[145.0004166,-37.7612582],"type":"Point"},"properties":{"events":[{"categories":["Music"],"eDate":"2025-12-06","eName":"Heinous Crimes","genre":"Rock","price":"$18.90","supports":["Jack Harlon & The Dead Crows"," Honeybone"],"ticketUrl":null,"time":" 8pm"}],"vName":"Cactus Room"},"type":"Feature"},{"geometry":{"coordinates":[145.0002585,-37.7592368],"type":"Point"},"properties":{"events":[{"categories":["Music"],"eDate":"2025-12-06","eName":"Small Room Much Noise with Guests","genre":"Metal","price":"$20.00","supports":["White Horse"," Shipyard"," Colostomy Baguette?"],"ticketUrl":null,"time":" 8pm"}],"vName":"Cafe Gummo"},"type":"Feature"},{"geometry":{"coordinates":[144.9713425,-37.8128595],"type":"Point"},"properties":{"events":[{"categories":["Music"],"eDate":"2025-12-06","eName":"Murray & The Movers","genre":null,"price":"$21.05","supports":["The Brakes"," The Pearlies"],"ticketUrl":null,"time":" 8pm"}],"vName":"Cherry Bar"},"type":"Feature"},{"geometry":{"coordinates":[144.9785611,-37.7965465],"type":"Point"},"properties":{"events":[{"categories":["Music"],"eDate":"2025-12-06","eName":"J.Tajor & Teo Glacier","genre":"R&B","price":"$40.30","supports":[],"ticketUrl":null,"time":" 8pm"}],"vName":"Evelyn Hotel"},"type":"Feature"},{"geometry":{"coordinates":[144.9761619,-37.8230506],"type":"Point"},"properties":{"events":[{"categories":["Comedy"],"eDate":"2025-12-06","eName":"Jimmy O. Yang: Big & Tall (Early Show)","genre":null,"price":"Free","supports":[],"ticketUrl":null,"time":" 6pm"},{"categories":["Comedy"],"eDate":"2025-12-06","eName":"Jimmy O. Yang: Big & Tall","genre":null,"price":"$91.65","supports":[],"ticketUrl":null,"time":" 9:30pm"}],"vName":"Margaret Court Arena"},"type":"Feature"},{"geometry":{"coordinates":[144.9790251,-37.8675008],"type":"Point"},"properties":{"events":[{"categories":["Music"],"eDate":"2025-12-06","eName":"BABBA: End Of Year Party","genre":"Pop","price":"$45.00 - 60.00","supports":[],"ticketUrl":null,"time":" 7pm"}],"vName":"Memo Music Hall"},"type":"Feature"},{"geometry":{"coordinates":[144.9712356,-37.812902],"type":"Point"},"properties":{"events":[{"categories":["Comedy"],"eDate":"2025-12-06","eName":"Jokes In Progress","genre":null,"price":"$15.00","supports":[],"ticketUrl":null,"time":" 6:15pm"},{"categories":["Music"],"eDate":"2025-12-06","eName":"Söjourn","genre":"Electronic","price":"Free","supports":[],"ticketUrl":null,"time":" 7pm"}],"vName":"Morris House"},"type":"Feature"},{"geometry":{"coordinates":[144.32141,-37.38866],"type":"Point"},"properties":{"events":[{"categories":["Free","Music"],"eDate":"2025-12-06","eName":"Kier Stevens","genre":"Acoustic","price":"Free","supports":[],"ticketUrl":null,"time":" 3pm"}],"vName":"The Cosmopolitan Hotel"},"type":"Feature"},{"geometry":{"coordinates":[144.9770425,-37.8588717],"type":"Point"},"properties":{"events":[{"categories":["Music"],"eDate":"2025-12-06","eName":"Chayse Trio","genre":"Indie","price":"Free","supports":["DJ Shadow"],"ticketUrl":null,"time":" 9pm"}],"vName":"The Fifth Province"},"type":"Feature"},{"geometry":{"coordinates":[144.9879283,-37.7505509],"type":"Point"},"properties":{"events":[{"categories":["Music"],"eDate":"2025-12-06","eName":"Front Porch","genre":"Acoustic","price":"Free","supports":[],"ticketUrl":null,"time":" 7pm"}],"vName":"The Merri Bar"},"type":"Feature"},{"geometry":{"coordinates":[145.1818891,-37.8163371],"type":"Point"},"properties":{"events":[{"categories":["Theatre","Other \"Dance \""],"eDate":"2025-12-06","eName":"Utassy’s 65th Annual Performance","genre":null,"price":"$52.00","supports":[],"ticketUrl":null,"time":" 5pm"}],"vName":"The Round"},"type":"Feature"},{"geometry":{"coordinates":[144.9651425,-37.8119429],"type":"Point"},"properties":{"events":[{"categories":["Music"],"eDate":"2025-12-06","eName":"Blue Hawaii","genre":"Electronic","price":"$40.00","supports":["Lucy Lamb"," Mayari"," Tina Disco"," Top Hun"],"ticketUrl":null,"time":"11pm"}],"vName":"The Toff In Town"},"type":"Feature"},{"geometry":{"coordinates":[144.9870814,-37.799406],"type":"Point"},"properties":{"events":[{"categories":["Music"],"eDate":"2025-12-06","eName":"Night of Progressive Rock","genre":"Rock","price":"$15.00 - 20.00","supports":["Walls & Waves"," Obdurate"],"ticketUrl":null,"time":" 7:30pm"}],"vName":"The Tote Hotel"},"type":"Feature"}],"type":"FeatureCollection"}