{"features":[{"geometry":{"coordinates":[144.978682,-37.7981225],"type":"Point"},"properties":{"events":[{"categories":["Free","Music"],"eDate":"2024-11-30","eName":"Lewis Toms","genre":null,"price":"Free","supports":[],"ticketUrl":null,"time":" 9pm"},{"categories":["Music"],"eDate":"2024-11-30","eName":"DJ Lewy C","genre":"Electronic","price":"Free","supports":[],"ticketUrl":null,"time":"10pm"}],"vName":"Baxter's Lot"},"type":"Feature"},{"geometry":{"coordinates":[144.98911674151407,-37.79964875],"type":"Point"},"properties":{"events":[{"categories":["Music"],"eDate":"2024-11-30","eName":"Uncle Geezer","genre":"Metal","price":"$22.95","supports":["Fuxache"," Meth Leppard"," Tongue Scum"," Nephelam"," Who Bastard"],"ticketUrl":null,"time":" 7:50pm"}],"vName":"Bendigo Hotel"},"type":"Feature"},{"geometry":{"coordinates":[144.9607158,-37.776327],"type":"Point"},"properties":{"events":[{"categories":["Music"],"eDate":"2024-11-30","eName":"Dub Divination Sound System Presents... Bergy Session","genre":"Electronic","price":"$15.00 - 20.00","supports":["Dub Koala"," Dub Dahlia"],"ticketUrl":null,"time":" 8pm"}],"vName":"Bergy Bandroom"},"type":"Feature"},{"geometry":{"coordinates":[144.9567859,-37.8111049],"type":"Point"},"properties":{"events":[{"categories":["Music"],"eDate":"2024-11-30","eName":"Grand WaZoo: Soul In The City","genre":"Jazz","price":"$60.00 - 100.00","supports":[],"ticketUrl":null,"time":" 7:30pm"}],"vName":"Bird's Basement"},"type":"Feature"},{"geometry":{"coordinates":[144.9617018,-37.7704566],"type":"Point"},"properties":{"events":[{"categories":["Music"],"eDate":"2024-11-30","eName":"La Descarga","genre":"Global","price":"$28.15","supports":["Agobloco"," DJ Paprika"],"ticketUrl":null,"time":" 1pm"},{"categories":["Music"],"eDate":"2024-11-30","eName":"Vaudeville Smash: Christmas Spectacular","genre":"Soul/Funk","price":"$37.33","supports":[],"ticketUrl":null,"time":" 8:30pm"}],"vName":"Brunswick Ballroom"},"type":"Feature"},{"geometry":{"coordinates":[144.9713425,-37.8128595],"type":"Point"},"properties":{"events":[{"categories":["Music"],"eDate":"2024-11-30","eName":"Ronnie Simmons & The Redback Spiders","genre":"Rock","price":"$15.00","supports":[],"ticketUrl":null,"time":" 8pm"}],"vName":"Cherry Bar"},"type":"Feature"},{"geometry":{"coordinates":[144.99266639479475,-37.82488935],"type":"Point"},"properties":{"events":[{"categories":["Music"],"eDate":"2024-11-30","eName":"Big Special","genre":"Rock","price":"$43.45","supports":["Radio Free Alice"," Sex Mask"],"ticketUrl":null,"time":" 8:30pm"}],"vName":"Corner Hotel"},"type":"Feature"},{"geometry":{"coordinates":[144.9787445,-37.7967357],"type":"Point"},"properties":{"events":[{"categories":["Music"],"eDate":"2024-11-30","eName":"The Meanies","genre":"Punk","price":"$40.30","supports":["Smoked Salmon"," Curlers"],"ticketUrl":null,"time":" 8pm"}],"vName":"Evelyn Hotel"},"type":"Feature"},{"geometry":{"coordinates":[144.9679835243618,-37.8201575],"type":"Point"},"properties":{"events":[{"categories":["Music"],"eDate":"2024-11-30","eName":"Ryman Healthcare Spring Gala: Beethoven's Ninth","genre":"Classical","price":"$84.00 - 142.00","supports":[],"ticketUrl":null,"time":" 2pm"}],"vName":"Hamer Hall (Arts Centre Melbourne)"},"type":"Feature"},{"geometry":{"coordinates":[144.973013,-37.8640582],"type":"Point"},"properties":{"events":[{"categories":["Music"],"eDate":"2024-11-30","eName":"Studio38 Presents Daytime Clubbing for Over 30s","genre":"Electronic","price":"$39.95","supports":[],"ticketUrl":null,"time":" 3pm"},{"categories":["Music"],"eDate":"2024-11-30","eName":"Studio38 Presents Daytime Clubbing for Over 30’s","genre":"Electronic","price":"$39.95","supports":[],"ticketUrl":null,"time":" 3pm"}],"vName":"Hotel Esplanade (aka The Espy)"},"type":"Feature"},{"geometry":{"coordinates":[145.0293642,-37.8073947],"type":"Point"},"properties":{"events":[{"categories":["Music"],"eDate":"2024-11-30","eName":"Xani","genre":"Rock","price":"$22.00 - 28.00","supports":[],"ticketUrl":null,"time":" 8pm"}],"vName":"Kew Court House"},"type":"Feature"},{"geometry":{"coordinates":[145.0008148,-37.8107158],"type":"Point"},"properties":{"events":[{"categories":["Music"],"eDate":"2024-11-30","eName":"Operation Karma Presents GUNK: Girls in Punk","genre":"Punk","price":"$10.00 - 18.00","supports":[],"ticketUrl":null,"time":" 5pm"}],"vName":"Leadbeater Hotel"},"type":"Feature"},{"geometry":{"coordinates":[144.8971518,-37.8054274],"type":"Point"},"properties":{"events":[{"categories":["Music"],"eDate":"2024-11-30","eName":"Daisypicker","genre":null,"price":"$15.00","supports":["April May"," Lucy Harrington"],"ticketUrl":null,"time":" 2pm"},{"categories":["Music","Comedy","Dance","Other \"Cabaret\""],"eDate":"2024-11-30","eName":"CARABINERS: A Queer Variety Night","genre":null,"price":"$5.00 - 50.00","supports":["Prue Brown"," Redacted"," Tamara"," Bigboy"," Rita"," Jasper"," Charlie XSXC"," DJ Girl Whatever"],"ticketUrl":null,"time":" 7pm"}],"vName":"Mamma Chen's"},"type":"Feature"},{"geometry":{"coordinates":[144.96741062735794,-37.82454855],"type":"Point"},"properties":{"events":[{"categories":["Music"],"eDate":"2024-11-30","eName":"Always Live and The Boite presents Maiem: Songs of the Torres Strait Islands","genre":"Country/Folk","price":"$20.00 - 79.00","supports":[],"ticketUrl":null,"time":" 7pm"}],"vName":"Melbourne Recital Centre"},"type":"Feature"},{"geometry":{"coordinates":[144.9786817,-37.8671902],"type":"Point"},"properties":{"events":[{"categories":["Music"],"eDate":"2024-11-30","eName":"The Gadflys","genre":null,"price":"$40.00 - 55.00","supports":[],"ticketUrl":null,"time":" 7pm"}],"vName":"Memo Music Hall"},"type":"Feature"},{"geometry":{"coordinates":[144.9712356,-37.812902],"type":"Point"},"properties":{"events":[{"categories":["Comedy"],"eDate":"2024-11-30","eName":"Basement Comedy Club","genre":null,"price":"$25.00","supports":["more"],"ticketUrl":null,"time":" 8pm"}],"vName":"Morris House"},"type":"Feature"},{"geometry":{"coordinates":[144.998414,-37.771471],"type":"Point"},"properties":{"events":[{"categories":["Music"],"eDate":"2024-11-30","eName":"Mousik-i Festival 2024","genre":null,"price":"$32.15","supports":[],"ticketUrl":null,"time":" 7pm"}],"vName":"Northcote Social Club"},"type":"Feature"},{"geometry":{"coordinates":[144.9977626,-37.7755001],"type":"Point"},"properties":{"events":[{"categories":["Music"],"eDate":"2024-11-30","eName":"The Elvis Big Band Christmas Spectacular","genre":null,"price":"$51.10","supports":[],"ticketUrl":null,"time":" 7pm"}],"vName":"Northcote Theatre"},"type":"Feature"},{"geometry":{"coordinates":[144.97711,-37.79833],"type":"Point"},"properties":{"events":[{"categories":["Music"],"eDate":"2024-11-30","eName":"Rootbeer","genre":"Rock","price":"$17.35","supports":["Four Sinners"," The Antics"],"ticketUrl":null,"time":" 8pm"}],"vName":"Old Bar"},"type":"Feature"},{"geometry":{"coordinates":[144.9981771,-37.7742773],"type":"Point"},"properties":{"events":[{"categories":["Music"],"eDate":"2024-11-30","eName":"Ella Fence + Danii","genre":null,"price":"$20.00","supports":[],"ticketUrl":null,"time":" 7pm"},{"categories":["Free","Music"],"eDate":"2024-11-30","eName":"Conte Milano","genre":"Electronic","price":"Free","supports":[],"ticketUrl":null,"time":" 9:30pm"}],"vName":"Open Studio"},"type":"Feature"},{"geometry":{"coordinates":[144.9605705,-37.8132486],"type":"Point"},"properties":{"events":[{"categories":["Music"],"eDate":"2024-11-30","eName":"Not So Big Band: The Best of Frank & Ella with Ben McGill & Amelia Evans","genre":"Jazz","price":"$48.00","supports":[],"ticketUrl":null,"time":" 6pm"},{"categories":["Music"],"eDate":"2024-11-30","eName":"Rebecca Mendoza with Mark Fitzgibbon","genre":"Jazz","price":"$45.00","supports":[],"ticketUrl":null,"time":" 6:30pm"},{"categories":["Music"],"eDate":"2024-11-30","eName":"Georga Byrne & Mel Lukin present: Songbird / The Story & Music of Eva Cassidy","genre":"Jazz","price":"$45.00","supports":[],"ticketUrl":null,"time":" 9pm"},{"categories":["Music"],"eDate":"2024-11-30","eName":"Hot Club Swing","genre":"Jazz","price":"$45.00","supports":[],"ticketUrl":null,"time":" 9:30pm"}],"vName":"Paris Cat Jazz Club"},"type":"Feature"},{"geometry":{"coordinates":[144.90239079583333,-37.79990865],"type":"Point"},"properties":{"events":[{"categories":["Comedy"],"eDate":"2024-11-30","eName":"Pride Comedy","genre":null,"price":"$20.00","supports":[],"ticketUrl":null,"time":" 7:30pm"}],"vName":"Pride Of Our Footscray Community Bar"},"type":"Feature"},{"geometry":{"coordinates":[144.9828155,-37.8567825],"type":"Point"},"properties":{"events":[{"categories":["Music"],"eDate":"2024-11-30","eName":"Belters Only","genre":"Electronic","price":"$35.20 - 56.10","supports":[],"ticketUrl":null,"time":" 9pm"}],"vName":"Prince Bandroom"},"type":"Feature"},{"geometry":{"coordinates":[145.0142411,-37.7310367],"type":"Point"},"properties":{"events":[{"categories":["Music"],"eDate":"2024-11-30","eName":"Beltin’ Elton With Nitida","genre":"Pop","price":"Free","supports":[],"ticketUrl":null,"time":" 8pm"}],"vName":"Ragtime Tavern"},"type":"Feature"},{"geometry":{"coordinates":[144.9631913,-37.7617818],"type":"Point"},"properties":{"events":[{"categories":["Free","Music"],"eDate":"2024-11-30","eName":"Salutations + Jamie Lena","genre":"Acoustic","price":"Free","supports":[],"ticketUrl":null,"time":" 8pm"}],"vName":"Ringo Barr"},"type":"Feature"},{"geometry":{"coordinates":[145.001392343033,-37.75592655],"type":"Point"},"properties":{"events":[{"categories":["Music"],"eDate":"2024-11-30","eName":"Magic Machine","genre":"Rock","price":"$23.45","supports":[],"ticketUrl":null,"time":" 8pm"}],"vName":"Shotkickers"},"type":"Feature"},{"geometry":{"coordinates":[144.99959550357977,-37.762376950000004],"type":"Point"},"properties":{"events":[{"categories":["Music"],"eDate":"2024-11-30","eName":"Hey-Smith + Voodoo Glow Skulls","genre":"Punk","price":"$89.00","supports":["Operation Big Jake Bosstone"," Admiral Ackbar's Dishonourable Discharge"," Steel City All Stars"," The Kittyhawks"," The Resignators"],"ticketUrl":null,"time":" 1pm"}],"vName":"The Croxton"},"type":"Feature"},{"geometry":{"coordinates":[144.9657057,-37.8061581],"type":"Point"},"properties":{"events":[{"categories":["Music"],"eDate":"2024-11-30","eName":"Second Hand High","genre":"Rock","price":"$7.15 - 9.70","supports":["Peach Fuzz"," My Dog Satellite"],"ticketUrl":null,"time":" 8pm"}],"vName":"The Curtin"},"type":"Feature"},{"geometry":{"coordinates":[144.9585654,-37.8059962],"type":"Point"},"properties":{"events":[{"categories":["Music"],"eDate":"2024-11-30","eName":"Dartz","genre":"Rock","price":"$23.50","supports":["Romcom"," Hail Mary Jane"],"ticketUrl":null,"time":" 7pm"}],"vName":"The Last Chance Rock & Roll Bar"},"type":"Feature"},{"geometry":{"coordinates":[144.9708437,-37.7973184],"type":"Point"},"properties":{"events":[{"categories":["Free","Music"],"eDate":"2024-11-30","eName":"Jazz Arvos","genre":"Jazz","price":"Free","supports":[],"ticketUrl":null,"time":" 5pm"},{"categories":["Comedy"],"eDate":"2024-11-30","eName":"The Big HOO HAA!","genre":null,"price":"$30.39","supports":[],"ticketUrl":null,"time":" 8:30pm"}],"vName":"The Motley Bauhaus"},"type":"Feature"},{"geometry":{"coordinates":[144.9830837,-37.7988316],"type":"Point"},"properties":{"events":[{"categories":["Music"],"eDate":"2024-11-30","eName":"Chi Wow Wah City","genre":null,"price":"$50.11","supports":[],"ticketUrl":null,"time":" 9pm"}],"vName":"The Night Cat"},"type":"Feature"},{"geometry":{"coordinates":[144.9830837,-37.7988316],"type":"Point"},"properties":{"events":[{"categories":["Music"],"eDate":"2024-11-30","eName":"R&R","genre":"Electronic","price":"$20.00","supports":[],"ticketUrl":null,"time":"11pm"}],"vName":"The Rochester"},"type":"Feature"},{"geometry":{"coordinates":[144.99987967655426,-37.76165125],"type":"Point"},"properties":{"events":[{"categories":["Music"],"eDate":"2024-11-30","eName":"Blue Windows","genre":"Country/Folk","price":"Free","supports":[],"ticketUrl":null,"time":" 8pm"}],"vName":"The Thornbury Local"},"type":"Feature"},{"geometry":{"coordinates":[144.9651425,-37.8119429],"type":"Point"},"properties":{"events":[{"categories":["Music"],"eDate":"2024-11-30","eName":"Hamish Anderson","genre":"Acoustic","price":"$31.62","supports":[],"ticketUrl":null,"time":" 7:30pm"}],"vName":"The Toff In Town"},"type":"Feature"},{"geometry":{"coordinates":[144.9846126,-37.7989941],"type":"Point"},"properties":{"events":[{"categories":["Music"],"eDate":"2024-11-30","eName":"Licklash","genre":"Punk","price":"$15.00","supports":["Bughunt"," Hearts & Rockets"," Glen"],"ticketUrl":null,"time":" 8pm"},{"categories":["Music"],"eDate":"2024-11-30","eName":"Licklash","genre":"Punk","price":"$16.35","supports":["Bughunt"," Hearts & Rockets"," Glen"],"ticketUrl":null,"time":" 8pm"},{"categories":["Music"],"eDate":"2024-11-30","eName":"Shrimpwitch","genre":"Rock","price":"$23.50","supports":["Hunny Machete"," Rhysics"],"ticketUrl":null,"time":" 8:30pm"}],"vName":"The Tote Hotel"},"type":"Feature"},{"geometry":{"coordinates":[144.9769450659087,-37.8055776],"type":"Point"},"properties":{"events":[{"categories":["Free","Music","Other \"Spoken Word\"","Other \"Poetry & Forums\""],"eDate":"2024-11-30","eName":"Dug By Us (Live Podcast)","genre":"Indie","price":"Free","supports":["The Naysayers"," Gretta Ziller"," Elizabeth Riodan"],"ticketUrl":null,"time":" 2pm"},{"categories":["Music"],"eDate":"2024-11-30","eName":"Little Quirks","genre":null,"price":"$28.60","supports":["Jacqui Lumsden"," Jarryn Phegan"],"ticketUrl":null,"time":" 8pm"}],"vName":"The Workers Club"},"type":"Feature"},{"geometry":{"coordinates":[144.94904484115614,-37.80420155],"type":"Point"},"properties":{"events":[{"categories":["Music"],"eDate":"2024-11-30","eName":"Porcus vs Equus + Ze Wisenheimer","genre":null,"price":"Free","supports":[],"ticketUrl":null,"time":" 8pm"}],"vName":"Town Hall Hotel"},"type":"Feature"}],"type":"FeatureCollection"}