{"features":[{"geometry":{"coordinates":[145.0192156,-37.7562323],"type":"Point"},"properties":{"events":[{"categories":["Music","Theatre"],"eDate":"2025-11-02","eName":"Hair The Musical (Matinee Session)","genre":"Rock","price":"$59.00 - 139.00","supports":[],"ticketUrl":null,"time":" 1pm"},{"categories":["Music","Theatre"],"eDate":"2025-11-02","eName":"Hair The Musical","genre":"Rock","price":"$59.00 - 139.00","supports":[],"ticketUrl":null,"time":" 6:30pm"}],"vName":"Athenaeum Theatre"},"type":"Feature"},{"geometry":{"coordinates":[144.978682,-37.7981225],"type":"Point"},"properties":{"events":[{"categories":["Free","Music"],"eDate":"2025-11-02","eName":"Baxter’s Open Mic","genre":null,"price":"Free","supports":[],"ticketUrl":null,"time":" 6pm"},{"categories":["Free","Music"],"eDate":"2025-11-02","eName":"Tejo D’Cruz","genre":null,"price":"Free","supports":[],"ticketUrl":null,"time":" 9pm"}],"vName":"Baxter's Lot"},"type":"Feature"},{"geometry":{"coordinates":[144.9607158,-37.776327],"type":"Point"},"properties":{"events":[{"categories":["Music"],"eDate":"2025-11-02","eName":"Seek Misery + Cultists + Pray4Me","genre":"Metal","price":"$29.99","supports":[],"ticketUrl":null,"time":" 6pm"}],"vName":"Bergy Bandroom"},"type":"Feature"},{"geometry":{"coordinates":[144.9945274,-37.8001115],"type":"Point"},"properties":{"events":[{"categories":["Free","Music","Theatre","Other \"Dance \"","Other \"Wrestling\"","Other \"Food \""],"eDate":"2025-11-02","eName":"Buck Dancer’s Choice + Bootscootin’","genre":null,"price":"Free","supports":["Aligned Dance"],"ticketUrl":null,"time":" 1:30pm"},{"categories":["Music","Festival"],"eDate":"2025-11-02","eName":"Dance Distillery","genre":null,"price":"$25.00","supports":["3LOAR"," Ace"," Callum Mitchell"," DJ Monke"," Edgebug"," Gerard"," HARBY"," M!a Wallace"," Ruby Lou"," Squill"," Telefixa"],"ticketUrl":null,"time":" 2pm"}],"vName":"Bodriggy Brewing Company"},"type":"Feature"},{"geometry":{"coordinates":[144.9617083,-37.7704205],"type":"Point"},"properties":{"events":[{"categories":["Music"],"eDate":"2025-11-02","eName":"Grand WaZoo presents 60s-70s Soul Divas Spectacular","genre":"Soul/Funk","price":"$54.67","supports":["Ms Melanie"," Anastasia"," Andrea"],"ticketUrl":null,"time":" 6pm"}],"vName":"Brunswick Ballroom"},"type":"Feature"},{"geometry":{"coordinates":[145.0057542,-37.8030033],"type":"Point"},"properties":{"events":[{"categories":["Music","Festival"],"eDate":"2025-11-02","eName":"M87 x Slack: The Farm [Barn + Open Air Paddock]","genre":"Electronic","price":"$57.85","supports":["Dori Fintyy"," GRIGGY"," Jove"," Mara"," MC Manaki"," Mimosa"," Shagalicious"," Sonas"," Yarra"],"ticketUrl":null,"time":" 2pm"}],"vName":"Collingwood Children’s Farm"},"type":"Feature"},{"geometry":{"coordinates":[144.9679835,-37.8201575],"type":"Point"},"properties":{"events":[{"categories":["Music"],"eDate":"2025-11-02","eName":"Katie Noonan: Jeff Buckley’s Grace Tour","genre":"Rock","price":"$69.90 - 79.90","supports":[],"ticketUrl":null,"time":" 8pm"}],"vName":"Hamer Hall (Arts Centre Melbourne)"},"type":"Feature"},{"geometry":{"coordinates":[144.9936498,-37.8000264],"type":"Point"},"properties":{"events":[{"categories":["Music"],"eDate":"2025-11-02","eName":"Blue Sabbath","genre":"Rock","price":"Free","supports":[],"ticketUrl":null,"time":" 5pm"}],"vName":"Lulie Tavern"},"type":"Feature"},{"geometry":{"coordinates":[144.9790251,-37.8675008],"type":"Point"},"properties":{"events":[{"categories":["Other \"Dance \"","Other \"Cabaret\""],"eDate":"2025-11-02","eName":"The Australian Burlesque Festival: New Follies","genre":null,"price":"$70.00","supports":[],"ticketUrl":null,"time":" 6:30pm"}],"vName":"Memo Music Hall"},"type":"Feature"},{"geometry":{"coordinates":[144.9984324,-37.7729134],"type":"Point"},"properties":{"events":[{"categories":["Music"],"eDate":"2025-11-02","eName":"Rosario De Marco","genre":"Acoustic","price":"Free","supports":[],"ticketUrl":null,"time":" 6pm"}],"vName":"Wesley Anne"},"type":"Feature"}],"type":"FeatureCollection"}