{"features":[{"geometry":{"coordinates":[144.9679369,-37.8120109],"type":"Point"},"properties":{"events":[{"categories":["Music"],"eDate":"2025-02-21","eName":"Hot Water Music","genre":"Punk","price":"$79.90","supports":["The Flatliners"],"ticketUrl":null,"time":" 7pm"}],"vName":"170 Russell"},"type":"Feature"},{"geometry":{"coordinates":[144.99828116650363,-37.7713296],"type":"Point"},"properties":{"events":[{"categories":["Music"],"eDate":"2025-02-21","eName":"The Tonalists","genre":"Soul/Funk","price":"$15.00","supports":[],"ticketUrl":null,"time":" 7:30pm"}],"vName":"Bar 303"},"type":"Feature"},{"geometry":{"coordinates":[144.978425,-37.79773],"type":"Point"},"properties":{"events":[{"categories":["Music"],"eDate":"2025-02-21","eName":"Rare Phenomenon","genre":null,"price":"$17.35","supports":["Anglerr"," Astrogate"],"ticketUrl":null,"time":" 8:30pm"}],"vName":"Bar Open"},"type":"Feature"},{"geometry":{"coordinates":[144.978682,-37.7981225],"type":"Point"},"properties":{"events":[{"categories":["Free","Music"],"eDate":"2025-02-21","eName":"Lewis Toms","genre":null,"price":"Free","supports":[],"ticketUrl":null,"time":" 9pm"},{"categories":["Music"],"eDate":"2025-02-21","eName":"DJ Lewy C","genre":"Electronic","price":"Free","supports":[],"ticketUrl":null,"time":"10pm"}],"vName":"Baxter's Lot"},"type":"Feature"},{"geometry":{"coordinates":[144.98911674151407,-37.79964875],"type":"Point"},"properties":{"events":[{"categories":["Music"],"eDate":"2025-02-21","eName":"Australian Pantera Show","genre":"Metal","price":"$33.70","supports":[],"ticketUrl":null,"time":" 9pm"}],"vName":"Bendigo Hotel"},"type":"Feature"},{"geometry":{"coordinates":[144.9607158,-37.776327],"type":"Point"},"properties":{"events":[{"categories":["Music"],"eDate":"2025-02-21","eName":"Thunder Fox","genre":"Rock","price":"$22.95","supports":[],"ticketUrl":null,"time":" 8pm"}],"vName":"Bergy Bandroom"},"type":"Feature"},{"geometry":{"coordinates":[144.9248037207342,-37.7656716],"type":"Point"},"properties":{"events":[{"categories":["Dance"],"eDate":"2025-02-21","eName":"Leap Into Dance: Accessible Creative Dance Workshop","genre":null,"price":"$15.00","supports":[],"ticketUrl":null,"time":"10am"}],"vName":"Clocktower Centre"},"type":"Feature"},{"geometry":{"coordinates":[144.99266639479475,-37.82488935],"type":"Point"},"properties":{"events":[{"categories":["Music"],"eDate":"2025-02-21","eName":"The Beasts","genre":"Rock","price":"$56.80","supports":[],"ticketUrl":null,"time":" 8:30pm"}],"vName":"Corner Hotel"},"type":"Feature"},{"geometry":{"coordinates":[144.98535244416098,-37.79426315],"type":"Point"},"properties":{"events":[{"categories":["Music"],"eDate":"2025-02-21","eName":"Skin Thief","genre":"Metal","price":"$17.85","supports":["All Is Violent"," Sliknita"],"ticketUrl":null,"time":" 8pm"}],"vName":"Gasometer Hotel"},"type":"Feature"},{"geometry":{"coordinates":[144.9875917,-37.7963837],"type":"Point"},"properties":{"events":[{"categories":["Music"],"eDate":"2025-02-21","eName":"Honky Tonk Town #13","genre":"Country/Folk","price":"Free","supports":[],"ticketUrl":null,"time":" 8pm"}],"vName":"Gem Bar"},"type":"Feature"},{"geometry":{"coordinates":[144.973013,-37.8640582],"type":"Point"},"properties":{"events":[{"categories":["Music"],"eDate":"2025-02-21","eName":"Groove Vultures","genre":"Rock","price":"$10.75","supports":["Skytanic"," Seven Pound Halo"],"ticketUrl":null,"time":" 7pm"},{"categories":["Music"],"eDate":"2025-02-21","eName":"Groove Vultures","genre":"Rock","price":"$10.75","supports":["Skytanic"," Seven Pound Halo"],"ticketUrl":null,"time":" 7pm"}],"vName":"Hotel Esplanade (aka The Espy)"},"type":"Feature"},{"geometry":{"coordinates":[144.9596527,-37.7720304],"type":"Point"},"properties":{"events":[{"categories":["Music"],"eDate":"2025-02-21","eName":"Shock Corridor","genre":"Electronic","price":"$17.34 - 19.89","supports":["Vanessa Worm"," Dumbhead"," Who Cares?"],"ticketUrl":null,"time":" 7:30pm"},{"categories":["Music"],"eDate":"2025-02-21","eName":"Shock Corridor","genre":"Electronic","price":"$17.34 - 24.48","supports":[],"ticketUrl":null,"time":" 8pm"}],"vName":"Howler"},"type":"Feature"},{"geometry":{"coordinates":[145.0399431,-37.9409048],"type":"Point"},"properties":{"events":[{"categories":["Music","Comedy","Markets","Art","Other \"Spoken Word\"","Other \"Poetry & Forums\"","Other \"Cabaret\""],"eDate":"2025-02-21","eName":"Moorabbin Music + Arts","genre":null,"price":"$0.00 - 15.00","supports":[],"ticketUrl":null,"time":"12pm"}],"vName":"Kingston City Hall"},"type":"Feature"},{"geometry":{"coordinates":[145.0355738,-37.8205529],"type":"Point"},"properties":{"events":[{"categories":["Music"],"eDate":"2025-02-21","eName":"Alanna & Old Hat","genre":"Jazz","price":"$25.00 - 30.00","supports":[],"ticketUrl":null,"time":" 8pm"}],"vName":"Lido Jazz Room"},"type":"Feature"},{"geometry":{"coordinates":[144.8971518,-37.8054274],"type":"Point"},"properties":{"events":[{"categories":["Music"],"eDate":"2025-02-21","eName":"Firm Filters","genre":null,"price":"$10.00 - 15.00","supports":["Daisypicker"," Emma Painter"],"ticketUrl":null,"time":" 7:30pm"}],"vName":"Mamma Chen's"},"type":"Feature"},{"geometry":{"coordinates":[144.9712356,-37.812902],"type":"Point"},"properties":{"events":[{"categories":["Comedy"],"eDate":"2025-02-21","eName":"Basement Comedy Club","genre":null,"price":"$27.00","supports":[],"ticketUrl":null,"time":" 8pm"}],"vName":"Morris House"},"type":"Feature"},{"geometry":{"coordinates":[144.998414,-37.771471],"type":"Point"},"properties":{"events":[{"categories":["Music"],"eDate":"2025-02-21","eName":"The Vasco Era","genre":"Rock","price":"$24.00","supports":[],"ticketUrl":null,"time":" 8:30pm"}],"vName":"Northcote Social Club"},"type":"Feature"},{"geometry":{"coordinates":[144.9977626,-37.7755001],"type":"Point"},"properties":{"events":[{"categories":["Music"],"eDate":"2025-02-21","eName":"Ghost-Note","genre":"Soul/Funk","price":"$84.00","supports":[],"ticketUrl":null,"time":" 7:30pm"}],"vName":"Northcote Theatre"},"type":"Feature"},{"geometry":{"coordinates":[144.9988348,-37.8525949],"type":"Point"},"properties":{"events":[{"categories":["Music"],"eDate":"2025-02-21","eName":"Robbie Doherty","genre":"Electronic","price":"$20.00","supports":["Apolett"," Danni B"," MiMi"," Bohn"," Jay Ramon"," Benny S"," Adam Trace"],"ticketUrl":null,"time":"10pm"}],"vName":"OneSixOne"},"type":"Feature"},{"geometry":{"coordinates":[144.9605705,-37.8132486],"type":"Point"},"properties":{"events":[{"categories":["Music"],"eDate":"2025-02-21","eName":"Susy Hull sings Gershwin: A Mark Morand Production","genre":"Jazz","price":"$45.00","supports":[],"ticketUrl":null,"time":" 6pm"},{"categories":["Music"],"eDate":"2025-02-21","eName":"Piaf: A Tribute with Noria Letts","genre":"Jazz","price":"$45.00","supports":[],"ticketUrl":null,"time":" 6:30pm"},{"categories":["Music"],"eDate":"2025-02-21","eName":"We May Never Meet Again: The Music Of Amy Winehouse with Elly Poletti","genre":"Jazz","price":"$48.00","supports":[],"ticketUrl":null,"time":" 9pm"},{"categories":["Music"],"eDate":"2025-02-21","eName":"Sugarfoot Ramblers with Georgie Darvidis","genre":"Jazz","price":"$45.00","supports":[],"ticketUrl":null,"time":" 9:30pm"},{"categories":["Music"],"eDate":"2025-02-21","eName":"Nardia & Jimi Hocking: A Celebration of BB King & Etta James","genre":"Jazz","price":"$45.00","supports":[],"ticketUrl":null,"time":" 9:30pm"}],"vName":"Paris Cat Jazz Club"},"type":"Feature"},{"geometry":{"coordinates":[144.9828155,-37.8567825],"type":"Point"},"properties":{"events":[{"categories":["Music"],"eDate":"2025-02-21","eName":"CG5","genre":"Electronic","price":"$69.90","supports":[],"ticketUrl":null,"time":" 7:30pm"}],"vName":"Prince Bandroom"},"type":"Feature"},{"geometry":{"coordinates":[144.9615882,-37.7711432],"type":"Point"},"properties":{"events":[{"categories":["Music"],"eDate":"2025-02-21","eName":"Fan Girl","genre":"Rock","price":"$20.00","supports":["The Genevieves"," Gush"],"ticketUrl":null,"time":" 7:30pm"}],"vName":"Retreat Hotel"},"type":"Feature"},{"geometry":{"coordinates":[145.35345070507591,-37.9100746],"type":"Point"},"properties":{"events":[{"categories":["Music"],"eDate":"2025-02-21","eName":"DZ Deathrays","genre":"Rock","price":"$58.15","supports":["Drunk Mums"," Mannequin Death Squad"],"ticketUrl":null,"time":" 7pm"}],"vName":"Sooki Lounge"},"type":"Feature"},{"geometry":{"coordinates":[144.9555612,-37.8066759],"type":"Point"},"properties":{"events":[{"categories":["Music"],"eDate":"2025-02-21","eName":"Traditional Irish Music Session","genre":"Country/Folk","price":"Free","supports":[],"ticketUrl":null,"time":" 6pm"}],"vName":"The Drunken Poet"},"type":"Feature"},{"geometry":{"coordinates":[144.958676,-37.7669571],"type":"Point"},"properties":{"events":[{"categories":["Music"],"eDate":"2025-02-21","eName":"The Pearly Shells Swing Orchestra with Yvette Johansson","genre":"Jazz","price":"$35.00 - 40.00","supports":[],"ticketUrl":null,"time":" 8pm"}],"vName":"The Jazzlab"},"type":"Feature"},{"geometry":{"coordinates":[144.9585654,-37.8059962],"type":"Point"},"properties":{"events":[{"categories":["Music"],"eDate":"2025-02-21","eName":"Promaja","genre":"Electronic","price":"$23.50","supports":["Voice Imitator"," Phantasm"],"ticketUrl":null,"time":" 7:30pm"},{"categories":["Music"],"eDate":"2025-02-21","eName":"Promaja","genre":"Punk","price":"$23.50","supports":["Voice Imitator"," Phantasm"],"ticketUrl":null,"time":" 8:30pm"}],"vName":"The Last Chance Rock & Roll Bar"},"type":"Feature"},{"geometry":{"coordinates":[144.9651425,-37.8119429],"type":"Point"},"properties":{"events":[{"categories":["Free","Music"],"eDate":"2025-02-21","eName":"In The Moment","genre":"Electronic","price":"Free","supports":[],"ticketUrl":null,"time":"10pm"}],"vName":"The Toff In Town"},"type":"Feature"},{"geometry":{"coordinates":[144.9846126,-37.7989941],"type":"Point"},"properties":{"events":[{"categories":["Music"],"eDate":"2025-02-21","eName":"Sure Boy","genre":"Rock","price":"$16.35","supports":[],"ticketUrl":null,"time":" 8:30pm"}],"vName":"The Tote Hotel"},"type":"Feature"},{"geometry":{"coordinates":[144.9769450659087,-37.8055776],"type":"Point"},"properties":{"events":[{"categories":["Music"],"eDate":"2025-02-21","eName":"Transience","genre":"Metal","price":"$17.85","supports":["Bushido"," Terrestrials"," Sentia"],"ticketUrl":null,"time":" 8pm"},{"categories":["Music"],"eDate":"2025-02-21","eName":"Transience","genre":"Metal","price":"$17.85","supports":["Bushido"," Terrestrials"," Sentia"],"ticketUrl":null,"time":" 8pm"}],"vName":"The Workers Club"},"type":"Feature"},{"geometry":{"coordinates":[144.9807148,-37.7801461],"type":"Point"},"properties":{"events":[{"categories":["Music"],"eDate":"2025-02-21","eName":"Franks Fish Tank","genre":"Country/Folk","price":"Free","supports":["Sam Kucera"," Seth Henderson"],"ticketUrl":null,"time":" 8pm"}],"vName":"Tramway Hotel"},"type":"Feature"},{"geometry":{"coordinates":[144.9983987,-37.7729204],"type":"Point"},"properties":{"events":[{"categories":["Music"],"eDate":"2025-02-21","eName":"Pat Tierney","genre":"Country/Folk","price":"$25.00","supports":[],"ticketUrl":null,"time":" 8pm"}],"vName":"Wesley Anne"},"type":"Feature"}],"type":"FeatureCollection"}