{"features":[{"geometry":{"coordinates":[144.978425,-37.79773],"type":"Point"},"properties":{"events":[{"categories":["Free","Music"],"eDate":"2026-01-24","eName":"Mellowing","genre":"Rock","price":"Free","supports":["Mellow Colony"],"ticketUrl":null,"time":"10pm"}],"vName":"Bar Open"},"type":"Feature"},{"geometry":{"coordinates":[144.978682,-37.7981225],"type":"Point"},"properties":{"events":[{"categories":["Free","Music"],"eDate":"2026-01-24","eName":"Lewis Toms","genre":null,"price":"Free","supports":[],"ticketUrl":null,"time":" 9pm"}],"vName":"Baxter's Lot"},"type":"Feature"},{"geometry":{"coordinates":[144.9568039,-37.8111442],"type":"Point"},"properties":{"events":[{"categories":["Music"],"eDate":"2026-01-24","eName":"SPIRIT: Supernatural – The Santana Songbook","genre":"Rock","price":"$45.00","supports":[],"ticketUrl":null,"time":" 7:30pm"}],"vName":"Bird's Basement"},"type":"Feature"},{"geometry":{"coordinates":[144.9617083,-37.7704205],"type":"Point"},"properties":{"events":[{"categories":["Free","Music"],"eDate":"2026-01-24","eName":"Matt Dwyer & The Magnatones","genre":"Blues","price":"Free","supports":[],"ticketUrl":null,"time":" 4:30pm"}],"vName":"Brunswick Artists' Bar"},"type":"Feature"},{"geometry":{"coordinates":[144.9617083,-37.7704205],"type":"Point"},"properties":{"events":[{"categories":["Music"],"eDate":"2026-01-24","eName":"Crime & the City Solution","genre":"Rock","price":"$60.79","supports":["Hungry Ghosts"," Joshua Murphy"],"ticketUrl":null,"time":" 8:30pm"}],"vName":"Brunswick Ballroom"},"type":"Feature"},{"geometry":{"coordinates":[144.9713425,-37.8128595],"type":"Point"},"properties":{"events":[{"categories":["Music"],"eDate":"2026-01-24","eName":"Crazy Nights","genre":"Rock","price":"$22.59","supports":["Celebrating Bon Jovi"],"ticketUrl":null,"time":" 8pm"}],"vName":"Cherry Bar"},"type":"Feature"},{"geometry":{"coordinates":[144.9926664,-37.8248893],"type":"Point"},"properties":{"events":[{"categories":["Music"],"eDate":"2026-01-24","eName":"The Talking Heads Experience","genre":"Rock","price":"$46.00","supports":[],"ticketUrl":null,"time":" 7:30pm"}],"vName":"Corner Hotel"},"type":"Feature"},{"geometry":{"coordinates":[144.9627513,-37.760963],"type":"Point"},"properties":{"events":[{"categories":["Free","Music"],"eDate":"2026-01-24","eName":"Little Legends Summer Series: Ania Reynolds","genre":null,"price":"Free","supports":[],"ticketUrl":null,"time":" 1pm"},{"categories":["Free","Music"],"eDate":"2026-01-24","eName":"Moonee Valley Drifters","genre":"Country/Folk","price":"Free","supports":[],"ticketUrl":null,"time":" 8pm"}],"vName":"Edinburgh Castle Hotel"},"type":"Feature"},{"geometry":{"coordinates":[144.9875792,-37.7963739],"type":"Point"},"properties":{"events":[{"categories":["Music"],"eDate":"2026-01-24","eName":"Spoonful","genre":"Rock","price":"$18.10","supports":[],"ticketUrl":null,"time":" 3:30pm"}],"vName":"Gem Bar"},"type":"Feature"},{"geometry":{"coordinates":[144.9787378,-37.7954205],"type":"Point"},"properties":{"events":[{"categories":["Music"],"eDate":"2026-01-24","eName":"Glamorama Saturdays: Project 95 + dozie","genre":"Electronic","price":"$0.00 - 30.00","supports":[],"ticketUrl":null,"time":" 9pm"}],"vName":"Glamorama"},"type":"Feature"},{"geometry":{"coordinates":[144.998414,-37.771471],"type":"Point"},"properties":{"events":[{"categories":["Music"],"eDate":"2026-01-24","eName":"Moody Beaches","genre":"Rock","price":"$35.30","supports":["Kate Alexander Band"," Bizzargo"],"ticketUrl":null,"time":" 8pm"}],"vName":"Northcote Social Club"},"type":"Feature"},{"geometry":{"coordinates":[145.0015248,-37.8258878],"type":"Point"},"properties":{"events":[{"categories":["Free","Music"],"eDate":"2026-01-24","eName":"Real Thing: Celebrating Australian Artists","genre":"Rock","price":"Free","supports":[],"ticketUrl":null,"time":" 1pm"}],"vName":"Odeon Richmond"},"type":"Feature"},{"geometry":{"coordinates":[144.96084,-37.813514],"type":"Point"},"properties":{"events":[{"categories":["Music"],"eDate":"2026-01-24","eName":"Not So Big Band: An Evening In La La Land with Ava McDermott","genre":"Jazz","price":"Free","supports":[],"ticketUrl":null,"time":" 6pm"},{"categories":["Music"],"eDate":"2026-01-24","eName":"Emma Gilmartin Quartet with James Sherlock","genre":"Jazz","price":"$45.00","supports":[],"ticketUrl":null,"time":" 6:30pm"},{"categories":["Music"],"eDate":"2026-01-24","eName":"Not So Big Band: An Evening In La La Land with Ava McDermott (Later Session)","genre":"Jazz","price":"Free","supports":[],"ticketUrl":null,"time":" 9pm"},{"categories":["Music"],"eDate":"2026-01-24","eName":"Joys Njambi Presents: Queens of Soul","genre":"Soul/Funk","price":"$48.00","supports":[],"ticketUrl":null,"time":" 9:30pm"}],"vName":"Paris Cat Jazz Club"},"type":"Feature"},{"geometry":{"coordinates":[144.9655352,-37.8097696],"type":"Point"},"properties":{"events":[{"categories":["Music","Other \"Dance \"","Other \"Cabaret\""],"eDate":"2026-01-24","eName":"Midsumma Festival: Kiki House of Furia Presents – The Fantasy Ball","genre":"Electronic","price":"$35.00 - 55.00","supports":[],"ticketUrl":null,"time":" 6:30pm"}],"vName":"State Library Victoria"},"type":"Feature"},{"geometry":{"coordinates":[144.9607404,-37.7743469],"type":"Point"},"properties":{"events":[{"categories":["Music"],"eDate":"2026-01-24","eName":"Red Heart Rising: Goth Night","genre":null,"price":"$23.30","supports":[],"ticketUrl":null,"time":" 6pm"}],"vName":"Stay Gold"},"type":"Feature"},{"geometry":{"coordinates":[144.9657057,-37.8061581],"type":"Point"},"properties":{"events":[{"categories":["Music"],"eDate":"2026-01-24","eName":"Good Music Party at The Curtin","genre":"Rock","price":"Free","supports":[],"ticketUrl":null,"time":" 8pm"}],"vName":"The Curtin"},"type":"Feature"},{"geometry":{"coordinates":[144.9840598,-37.7827901],"type":"Point"},"properties":{"events":[{"categories":["Music"],"eDate":"2026-01-24","eName":"Felix Worner","genre":null,"price":"$15.00","supports":["Elena Jones"," Babyccino"],"ticketUrl":null,"time":" 8:30pm"}],"vName":"The Fitzroy Pinnacle"},"type":"Feature"},{"geometry":{"coordinates":[144.9879283,-37.7505509],"type":"Point"},"properties":{"events":[{"categories":["Music"],"eDate":"2026-01-24","eName":"Bossa Brunswick","genre":"Jazz","price":"Free","supports":[],"ticketUrl":null,"time":" 7pm"}],"vName":"The Merri Bar"},"type":"Feature"},{"geometry":{"coordinates":[144.9708437,-37.7973184],"type":"Point"},"properties":{"events":[{"categories":["Music","Other \"Dance \""],"eDate":"2026-01-24","eName":"MoCo: Summer Break","genre":"Pop","price":"$24.00","supports":[],"ticketUrl":null,"time":" 7pm"},{"categories":["Comedy"],"eDate":"2026-01-24","eName":"Space Comedy","genre":null,"price":"$10.63","supports":[],"ticketUrl":null,"time":" 8:30pm"}],"vName":"The Motley Bauhaus"},"type":"Feature"},{"geometry":{"coordinates":[144.9794553,-37.7982653],"type":"Point"},"properties":{"events":[{"categories":["Music"],"eDate":"2026-01-24","eName":"Birdsnake","genre":null,"price":"$25.00","supports":["RAMZi"," High Pass Filter"," Space'd Ensemble"," Tess Monaghan"," Jon Jones"],"ticketUrl":null,"time":" 8pm"}],"vName":"The Night Cat"},"type":"Feature"},{"geometry":{"coordinates":[144.9998797,-37.7616512],"type":"Point"},"properties":{"events":[{"categories":["Music"],"eDate":"2026-01-24","eName":"The Delvenes","genre":"Country/Folk","price":"Free","supports":["BMA"],"ticketUrl":null,"time":" 8pm"}],"vName":"The Thornbury Local"},"type":"Feature"},{"geometry":{"coordinates":[144.9661635,-37.8176298],"type":"Point"},"properties":{"events":[{"categories":["Music"],"eDate":"2026-01-24","eName":"The House of Ralf Gum","genre":"Electronic","price":"$32.90 - 43.85","supports":["Chris NG"," Kgomotso"," Massimo"," Neo"," Kasanova"],"ticketUrl":null,"time":" 8pm"}],"vName":"Wax Music Lounge"},"type":"Feature"},{"geometry":{"coordinates":[144.9984324,-37.7729134],"type":"Point"},"properties":{"events":[{"categories":["Music"],"eDate":"2026-01-24","eName":"Conor Anderson-Vague Trio","genre":"Jazz","price":"Free","supports":[],"ticketUrl":null,"time":" 6pm"}],"vName":"Wesley Anne"},"type":"Feature"}],"type":"FeatureCollection"}