{"features":[{"geometry":{"coordinates":[145.0048929,-37.8035316],"type":"Point"},"properties":{"events":[{"categories":["Music"],"eDate":"2025-11-28","eName":"Harmonies Du Soir: Festival of French Chamber Music – POÈME","genre":"Classical","price":"$40.00","supports":[],"ticketUrl":null,"time":" 3pm"},{"categories":["Music"],"eDate":"2025-11-28","eName":"Harmonies Du Soir: Festival of French Chamber Music – In Search of Lost Time","genre":"Classical","price":"$40.00","supports":[],"ticketUrl":null,"time":" 7pm"}],"vName":"Abbotsford Convent"},"type":"Feature"},{"geometry":{"coordinates":[145.0192156,-37.7562323],"type":"Point"},"properties":{"events":[{"categories":["Music","Other \"Art \""],"eDate":"2025-11-28","eName":"Sonic City: To Kill A Magic We Got Used To","genre":null,"price":"$49.00","supports":[],"ticketUrl":null,"time":" 7:30pm"}],"vName":"Athenaeum Theatre"},"type":"Feature"},{"geometry":{"coordinates":[145.0004166,-37.7612582],"type":"Point"},"properties":{"events":[{"categories":["Music"],"eDate":"2025-11-28","eName":"Poison Fish","genre":"Punk","price":"$13.80","supports":["Long Hours"," RQTBL"],"ticketUrl":null,"time":" 8pm"}],"vName":"Cactus Room"},"type":"Feature"},{"geometry":{"coordinates":[145.0002585,-37.7592368],"type":"Point"},"properties":{"events":[{"categories":["Comedy","Theatre","Other \"Dance \"","Other \"Spoken Word, Poetry \""],"eDate":"2025-11-28","eName":"Drag at Gummo: DRAG AID 10 First Nations & Palestinian Aid","genre":null,"price":"$25.00","supports":["Ur Dad Daryl"," Sidney From Melbourne"," Miss Piggy Mitchell"," Dexamphetamine"," Miss Iona Imporbable"," Streweth"],"ticketUrl":null,"time":" 7pm"}],"vName":"Cafe Gummo"},"type":"Feature"},{"geometry":{"coordinates":[144.9713425,-37.8128595],"type":"Point"},"properties":{"events":[{"categories":["Music"],"eDate":"2025-11-28","eName":"Madonna: The Immaculate Collection","genre":"Pop","price":"$17.48","supports":[],"ticketUrl":null,"time":" 8pm"}],"vName":"Cherry Bar"},"type":"Feature"},{"geometry":{"coordinates":[144.9926664,-37.8248893],"type":"Point"},"properties":{"events":[{"categories":["Music"],"eDate":"2025-11-28","eName":"Damon R. + Suzy Sheer","genre":"Electronic","price":"$62.80","supports":[],"ticketUrl":null,"time":" 8:30pm"}],"vName":"Corner Hotel"},"type":"Feature"},{"geometry":{"coordinates":[144.9777885,-37.8597831],"type":"Point"},"properties":{"events":[{"categories":["Music"],"eDate":"2025-11-28","eName":"Johnny Gurr","genre":"Acoustic","price":"Free","supports":[],"ticketUrl":null,"time":"11am"},{"categories":["Music"],"eDate":"2025-11-28","eName":"Cliff Raux","genre":"Acoustic","price":"Free","supports":[],"ticketUrl":null,"time":" 8pm"}],"vName":"Freddie Wimpoles"},"type":"Feature"},{"geometry":{"coordinates":[144.9780305,-37.8599731],"type":"Point"},"properties":{"events":[{"categories":["Music"],"eDate":"2025-11-28","eName":"Kim Salmon’s Smoked Salmon + Richie Weed (Tumbleweed)","genre":"Rock","price":"$33.00 - 38.00","supports":[],"ticketUrl":null,"time":" 7pm"}],"vName":"George Lane"},"type":"Feature"},{"geometry":{"coordinates":[144.983442,-37.804851],"type":"Point"},"properties":{"events":[{"categories":["Music"],"eDate":"2025-11-28","eName":"Surely Shirley","genre":"Indie","price":"$20.00 - 25.00","supports":[],"ticketUrl":null,"time":" 7:30pm"},{"categories":["Music"],"eDate":"2025-11-28","eName":"Duncan Graham & The Way In","genre":"Pop","price":"$10.00","supports":["Good Moon"," Old Places"],"ticketUrl":null,"time":" 8:30pm"}],"vName":"Grace Darling Hotel"},"type":"Feature"},{"geometry":{"coordinates":[144.973013,-37.8640582],"type":"Point"},"properties":{"events":[{"categories":["Music"],"eDate":"2025-11-28","eName":"Best of Both Worlds Presents: Club Wicked","genre":"Pop","price":"$14.80 - 22.95","supports":[],"ticketUrl":null,"time":" 9pm"}],"vName":"Hotel Esplanade (aka The Espy)"},"type":"Feature"},{"geometry":{"coordinates":[144.9596527,-37.7720304],"type":"Point"},"properties":{"events":[{"categories":["Music"],"eDate":"2025-11-28","eName":"Melbourne Cumbia Fest 2025","genre":null,"price":"$34.00","supports":["Emma Peel"," Otorongo"," Sonidero Esperanza"],"ticketUrl":null,"time":" 8pm"}],"vName":"Howler"},"type":"Feature"},{"geometry":{"coordinates":[144.8975289,-37.8022392],"type":"Point"},"properties":{"events":[{"categories":["Free","Music"],"eDate":"2025-11-28","eName":"Liberate Pop","genre":"Pop","price":"Free","supports":["Lovy"," Tom Nethersole"," Emilou"],"ticketUrl":null,"time":" 8pm"}],"vName":"Mamma Chen's"},"type":"Feature"},{"geometry":{"coordinates":[144.9658499,-37.8147453],"type":"Point"},"properties":{"events":[{"categories":["Music"],"eDate":"2025-11-28","eName":"Two Another","genre":"R&B","price":"$43.90 - 49.00","supports":[],"ticketUrl":null,"time":" 8pm"}],"vName":"Max Watt's (Melbourne)"},"type":"Feature"},{"geometry":{"coordinates":[144.9675876,-37.8240849],"type":"Point"},"properties":{"events":[{"categories":["Music","Other \"Cabaret\""],"eDate":"2025-11-28","eName":"Reuben Kaye: enGORGED","genre":null,"price":"$99.00","supports":[],"ticketUrl":null,"time":" 8pm"}],"vName":"Melbourne Recital Centre"},"type":"Feature"},{"geometry":{"coordinates":[144.9790251,-37.8675008],"type":"Point"},"properties":{"events":[{"categories":["Music"],"eDate":"2025-11-28","eName":"Painters & Dockers","genre":"Rock","price":"$59.00 - 79.00","supports":["Arabella & The Heist"],"ticketUrl":null,"time":" 7pm"}],"vName":"Memo Music Hall"},"type":"Feature"},{"geometry":{"coordinates":[144.9712356,-37.812902],"type":"Point"},"properties":{"events":[{"categories":["Music"],"eDate":"2025-11-28","eName":"Marcus Knight","genre":"Electronic","price":"Free","supports":[],"ticketUrl":null,"time":" 6pm"},{"categories":["Comedy"],"eDate":"2025-11-28","eName":"Daniel Muggleton: You May Be White, I May Be Crazy (Melbourne Encore)","genre":null,"price":"$36.95","supports":[],"ticketUrl":null,"time":" 6:15pm"},{"categories":["Comedy"],"eDate":"2025-11-28","eName":"Daniel Muggleton: You May Be White, I May Be Crazy","genre":null,"price":"$36.95","supports":[],"ticketUrl":null,"time":" 6:15pm"},{"categories":["Music"],"eDate":"2025-11-28","eName":"Nema","genre":"Electronic","price":"Free","supports":[],"ticketUrl":null,"time":"10pm"}],"vName":"Morris House"},"type":"Feature"},{"geometry":{"coordinates":[144.998414,-37.771471],"type":"Point"},"properties":{"events":[{"categories":["Music"],"eDate":"2025-11-28","eName":"Willowbank Grove","genre":"Rock","price":"$17.35 - 24.00","supports":[],"ticketUrl":null,"time":" 8:30pm"}],"vName":"Northcote Social Club"},"type":"Feature"},{"geometry":{"coordinates":[144.9982706,-37.7737068],"type":"Point"},"properties":{"events":[{"categories":["Music"],"eDate":"2025-11-28","eName":"Moodymann","genre":"Soul/Funk","price":"$67.52 - 88.94","supports":["DJ Jnett"],"ticketUrl":null,"time":" 7:30pm"}],"vName":"Northcote Theatre"},"type":"Feature"},{"geometry":{"coordinates":[144.97711,-37.79833],"type":"Point"},"properties":{"events":[{"categories":["Music"],"eDate":"2025-11-28","eName":"Joshua Seymour","genre":"Rock","price":"$17.35","supports":["Little John"," Esther Rivers"],"ticketUrl":null,"time":" 8pm"},{"categories":["Music"],"eDate":"2025-11-28","eName":"DJ Hot Wheels","genre":"Rock","price":"Free","supports":[],"ticketUrl":null,"time":"11:30pm"},{"categories":["Music"],"eDate":"2025-11-28","eName":"DJ Badger","genre":"Electronic","price":"Free","supports":[],"ticketUrl":null,"time":"11:59pm"}],"vName":"Old Bar"},"type":"Feature"},{"geometry":{"coordinates":[144.9256335,-37.8296919],"type":"Point"},"properties":{"events":[{"categories":["Music"],"eDate":"2025-11-28","eName":"Love Reggaeton Fest","genre":"Electronic","price":"$109.00 - 315.00","supports":["more"],"ticketUrl":null,"time":" 6pm"}],"vName":"PICA (Port Melbourne Industrial Centre for the Arts)"},"type":"Feature"},{"geometry":{"coordinates":[144.96084,-37.813514],"type":"Point"},"properties":{"events":[{"categories":["Music"],"eDate":"2025-11-28","eName":"Elly Poletti presents: Heart Strings","genre":"Soul/Funk","price":"$48.00","supports":[],"ticketUrl":null,"time":" 6pm"},{"categories":["Music"],"eDate":"2025-11-28","eName":"Noria Letts: Piaf – A Tribute","genre":"Jazz","price":"$45.00","supports":[],"ticketUrl":null,"time":" 6:30pm"},{"categories":["Music"],"eDate":"2025-11-28","eName":"Elly Poletti: A Tribute to Elton John","genre":"Pop","price":"$48.00","supports":[],"ticketUrl":null,"time":" 9pm"},{"categories":["Music"],"eDate":"2025-11-28","eName":"Tamara Kuldin’s Dirty Martini","genre":"Jazz","price":"$45.00","supports":[],"ticketUrl":null,"time":" 9:30pm"}],"vName":"Paris Cat Jazz Club"},"type":"Feature"},{"geometry":{"coordinates":[144.9706211,-37.778276],"type":"Point"},"properties":{"events":[{"categories":["Free","Music"],"eDate":"2025-11-28","eName":"Surf Rock Shindig!","genre":"Rock","price":"Free","supports":["The Bluebottles"],"ticketUrl":null,"time":" 9pm"}],"vName":"The Beast"},"type":"Feature"},{"geometry":{"coordinates":[144.32141,-37.38866],"type":"Point"},"properties":{"events":[{"categories":["Free","Music"],"eDate":"2025-11-28","eName":"Kathleen Halloran","genre":"Acoustic","price":"$40.00","supports":[],"ticketUrl":null,"time":" 7:30pm"}],"vName":"The Cosmopolitan Hotel"},"type":"Feature"},{"geometry":{"coordinates":[144.9657057,-37.8061581],"type":"Point"},"properties":{"events":[{"categories":["Music"],"eDate":"2025-11-28","eName":"Among The Restless","genre":"Rock","price":"$15.00 - 23.00","supports":["Emma Yue"," The Satts"],"ticketUrl":null,"time":" 8pm"}],"vName":"The Curtin"},"type":"Feature"},{"geometry":{"coordinates":[144.9770425,-37.8588717],"type":"Point"},"properties":{"events":[{"categories":["Music"],"eDate":"2025-11-28","eName":"MD Duo","genre":"Acoustic","price":"Free","supports":["DJ Boujie Koala"],"ticketUrl":null,"time":" 9pm"}],"vName":"The Fifth Province"},"type":"Feature"},{"geometry":{"coordinates":[144.9621651,-37.7679775],"type":"Point"},"properties":{"events":[{"categories":["Music"],"eDate":"2025-11-28","eName":"Sandy Dish","genre":"Rock","price":"$20.00","supports":["Whip"," Hail Mary Jane"],"ticketUrl":null,"time":" 8:30pm"}],"vName":"The Penny Black"},"type":"Feature"},{"geometry":{"coordinates":[144.9651425,-37.8119429],"type":"Point"},"properties":{"events":[{"categories":["Free","Music"],"eDate":"2025-11-28","eName":"Toff Club: Adam Trace + DJ Hijack","genre":"Electronic","price":"Free","supports":[],"ticketUrl":null,"time":"10pm"}],"vName":"The Toff In Town"},"type":"Feature"},{"geometry":{"coordinates":[144.9769451,-37.8055776],"type":"Point"},"properties":{"events":[{"categories":["Music"],"eDate":"2025-11-28","eName":"Camino Gold","genre":"Rock","price":"$17.85 - 23.50","supports":["Middle Palms"," Atomic Entourage"],"ticketUrl":null,"time":" 8pm"}],"vName":"The Workers Club"},"type":"Feature"},{"geometry":{"coordinates":[144.9984324,-37.7729134],"type":"Point"},"properties":{"events":[{"categories":["Music"],"eDate":"2025-11-28","eName":"Leila","genre":"Pop","price":"$25.00","supports":["Kaylah Thomas"," Will Rounds"],"ticketUrl":null,"time":" 7:30pm"},{"categories":["Music"],"eDate":"2025-11-28","eName":"Leila","genre":"Country/Folk","price":"$23.20","supports":["Will Rounds"," Kaylah Thomas"],"ticketUrl":null,"time":" 7:30pm"}],"vName":"Wesley Anne"},"type":"Feature"},{"geometry":{"coordinates":[144.9618781,-37.8126316],"type":"Point"},"properties":{"events":[{"categories":["Music"],"eDate":"2025-11-28","eName":"Soul Energise","genre":"Electronic","price":"Free","supports":["Colette"," Perla"],"ticketUrl":null,"time":" 4pm"}],"vName":"Whitehart Bar"},"type":"Feature"}],"type":"FeatureCollection"}