{"features":[{"geometry":{"coordinates":[144.9679369,-37.8120109],"type":"Point"},"properties":{"events":[{"categories":["Music"],"eDate":"2026-04-03","eName":"nimino","genre":"Electronic","price":"$61.10","supports":["Tiff Cornish"," Rubisco"],"ticketUrl":null,"time":" 7:30pm"}],"vName":"170 Russell"},"type":"Feature"},{"geometry":{"coordinates":[144.978682,-37.7981225],"type":"Point"},"properties":{"events":[{"categories":["Music","Free"],"eDate":"2026-04-03","eName":"Xander Cuming","genre":null,"price":"Free","supports":[],"ticketUrl":null,"time":" 9pm"}],"vName":"Baxter's Lot"},"type":"Feature"},{"geometry":{"coordinates":[145.0004166,-37.7612582],"type":"Point"},"properties":{"events":[{"categories":["Music"],"eDate":"2026-04-03","eName":"Divers","genre":null,"price":"$15.00","supports":["Lunar Lagoon"," Milou Moon"],"ticketUrl":null,"time":" 8pm"}],"vName":"Cactus Room"},"type":"Feature"},{"geometry":{"coordinates":[144.9713425,-37.8128595],"type":"Point"},"properties":{"events":[{"categories":["Music","Free"],"eDate":"2026-04-03","eName":"Willie J’s 6v6s","genre":"Rock","price":"Free","supports":[],"ticketUrl":null,"time":" 8:30pm"},{"categories":["Music","Free"],"eDate":"2026-04-03","eName":"STATIC: New Wave & Post-Punk Party","genre":null,"price":"Free","supports":[],"ticketUrl":null,"time":"11pm"}],"vName":"Cherry Bar"},"type":"Feature"},{"geometry":{"coordinates":[144.9627513,-37.760963],"type":"Point"},"properties":{"events":[{"categories":["Music","Free"],"eDate":"2026-04-03","eName":"Laneous Duo","genre":"Jazz","price":"Free","supports":[],"ticketUrl":null,"time":" 8pm"}],"vName":"Edinburgh Castle Hotel"},"type":"Feature"},{"geometry":{"coordinates":[144.9787378,-37.7954205],"type":"Point"},"properties":{"events":[{"categories":["Music"],"eDate":"2026-04-03","eName":"Interval: Jack Marlow","genre":"Electronic","price":"$25.00 - 35.00","supports":["Jessy"," La tüsh"," Millhouse"," Princess Pri"," YGAL"],"ticketUrl":null,"time":"10pm"}],"vName":"Glamorama"},"type":"Feature"},{"geometry":{"coordinates":[144.9675876,-37.8240849],"type":"Point"},"properties":{"events":[{"categories":["Music"],"eDate":"2026-04-03","eName":"Melbourne Bach Choir presents St Matthew Passion: J.S. Bach","genre":"Classical","price":"$79.00 - 139.00","supports":[],"ticketUrl":null,"time":" 2:30pm"}],"vName":"Melbourne Recital Centre"},"type":"Feature"},{"geometry":{"coordinates":[144.96084,-37.813514],"type":"Point"},"properties":{"events":[{"categories":["Music"],"eDate":"2026-04-03","eName":"Not So Big Band: An Evening In La La Land","genre":"Jazz","price":"Free","supports":[],"ticketUrl":null,"time":" 5:30pm"},{"categories":["Music"],"eDate":"2026-04-03","eName":"Kind of Blue Deluxe","genre":"Jazz","price":"Free","supports":[],"ticketUrl":null,"time":" 6pm"},{"categories":["Music"],"eDate":"2026-04-03","eName":"Not So Big Band: An Evening In La La Land","genre":"Jazz","price":"Free","supports":[],"ticketUrl":null,"time":" 8:30pm"},{"categories":["Music"],"eDate":"2026-04-03","eName":"The Shuffle Club","genre":"Jazz","price":"$48.00","supports":[],"ticketUrl":null,"time":" 9pm"}],"vName":"Paris Cat Jazz Club"},"type":"Feature"},{"geometry":{"coordinates":[144.9607404,-37.7743469],"type":"Point"},"properties":{"events":[{"categories":["Music"],"eDate":"2026-04-03","eName":"Unholy Good Friday","genre":"Metal","price":"$30.00","supports":["Battlegrave"," Womb To Tomb"," Munitions"," 100 Years War"," Knife"," Mind Rot"],"ticketUrl":null,"time":" 4pm"}],"vName":"Stay Gold"},"type":"Feature"},{"geometry":{"coordinates":[144.9661635,-37.8176298],"type":"Point"},"properties":{"events":[{"categories":["Music"],"eDate":"2026-04-03","eName":"The Winfield Road Experiment","genre":null,"price":"$16.45","supports":[],"ticketUrl":null,"time":" 9pm"}],"vName":"Wax Music Lounge"},"type":"Feature"},{"geometry":{"coordinates":[144.9984324,-37.7729134],"type":"Point"},"properties":{"events":[{"categories":["Music"],"eDate":"2026-04-03","eName":"Yemo Wang","genre":"Jazz","price":"Free","supports":[],"ticketUrl":null,"time":" 6pm"}],"vName":"Wesley Anne"},"type":"Feature"}],"type":"FeatureCollection"}