{"features":[{"geometry":{"coordinates":[144.978425,-37.79773],"type":"Point"},"properties":{"events":[{"categories":["Music"],"eDate":"2024-05-13","eName":"Bohjass","genre":"Jazz","price":"$5.00","supports":["Factory House Band"," Careful Yelling"," Sweet Nothing"],"ticketUrl":null,"time":" 6pm"}],"vName":"Bar Open"},"type":"Feature"},{"geometry":{"coordinates":[144.9248037207342,-37.7656716],"type":"Point"},"properties":{"events":[{"categories":["Free","Music","Art","Other \"Spoken Word\"","Other \"Poetry & Forums\""],"eDate":"2024-05-13","eName":"Moonee Valley's Gathering of Artists","genre":"Indie","price":"Free","supports":[],"ticketUrl":null,"time":" 5:30pm"}],"vName":"Clocktower Centre"},"type":"Feature"},{"geometry":{"coordinates":[144.99266639479475,-37.82488935],"type":"Point"},"properties":{"events":[{"categories":["Music"],"eDate":"2024-05-13","eName":"The Mary Wallopers","genre":"Country/Folk","price":"$91.90","supports":["Bones & Jones"],"ticketUrl":null,"time":" 7:30pm"}],"vName":"Corner Hotel"},"type":"Feature"},{"geometry":{"coordinates":[144.96741062735794,-37.82454855],"type":"Point"},"properties":{"events":[{"categories":["Music"],"eDate":"2024-05-13","eName":"Selby & Friends (Matinee)","genre":"Classical","price":"$79.00","supports":[],"ticketUrl":null,"time":" 2pm"},{"categories":["Music"],"eDate":"2024-05-13","eName":"Selby & Friends","genre":"Classical","price":"$79.00","supports":[],"ticketUrl":null,"time":" 7pm"},{"categories":["Music"],"eDate":"2024-05-13","eName":"Australian Chamber Orchestra: Mahler's Song of the Earth","genre":"Classical","price":"$59.00","supports":[],"ticketUrl":null,"time":" 7:30pm"}],"vName":"Melbourne Recital Centre"},"type":"Feature"},{"geometry":{"coordinates":[144.998414,-37.771471],"type":"Point"},"properties":{"events":[{"categories":["Free","Music"],"eDate":"2024-05-13","eName":"Social Sanctuary: Catholic Guilt","genre":"Punk","price":"Free","supports":["Kill Bell"," Bollard"],"ticketUrl":null,"time":" 7pm"}],"vName":"Northcote Social Club"},"type":"Feature"}],"type":"FeatureCollection"}