{"features":[{"geometry":{"coordinates":[144.978682,-37.7981225],"type":"Point"},"properties":{"events":[{"categories":["Free","Music"],"eDate":"2026-02-27","eName":"Woody Samson (with Jay Bruno on the Drums)","genre":null,"price":"Free","supports":[],"ticketUrl":null,"time":" 9pm"}],"vName":"Baxter's Lot"},"type":"Feature"},{"geometry":{"coordinates":[145.0004166,-37.7612582],"type":"Point"},"properties":{"events":[{"categories":["Music"],"eDate":"2026-02-27","eName":"JAN Presents: Feeding Fauna","genre":null,"price":"$15.00","supports":["Emma Shields"," JAN"," fehlbergo"],"ticketUrl":null,"time":" 8pm"}],"vName":"Cactus Room"},"type":"Feature"},{"geometry":{"coordinates":[144.9713425,-37.8128595],"type":"Point"},"properties":{"events":[{"categories":["Music"],"eDate":"2026-02-27","eName":"Father Deer Hands","genre":"Punk","price":"$15.43","supports":["Irken Armada"],"ticketUrl":null,"time":" 8pm"}],"vName":"Cherry Bar"},"type":"Feature"},{"geometry":{"coordinates":[144.9248037,-37.7656716],"type":"Point"},"properties":{"events":[{"categories":["Music"],"eDate":"2026-02-27","eName":"Melbourne Chamber Orchestra with Slava Grigoryan: Flexible Sky","genre":"Classical","price":"$65.00","supports":[],"ticketUrl":null,"time":" 7:30pm"}],"vName":"Clocktower Centre"},"type":"Feature"},{"geometry":{"coordinates":[144.9926664,-37.8248893],"type":"Point"},"properties":{"events":[{"categories":["Music"],"eDate":"2026-02-27","eName":"The Belair Lip Bombs","genre":"Rock","price":"Free","supports":[],"ticketUrl":null,"time":" 8pm"}],"vName":"Corner Hotel"},"type":"Feature"},{"geometry":{"coordinates":[144.9787378,-37.7954205],"type":"Point"},"properties":{"events":[{"categories":["Music"],"eDate":"2026-02-27","eName":"Interval: Backyard Mix + GOLDI","genre":"Electronic","price":"$20.00 - 30.00","supports":[],"ticketUrl":null,"time":"10pm"}],"vName":"Glamorama"},"type":"Feature"},{"geometry":{"coordinates":[145.0008148,-37.8107158],"type":"Point"},"properties":{"events":[{"categories":["Music"],"eDate":"2026-02-27","eName":"Death By Denim","genre":"Rock","price":"$28.85","supports":[],"ticketUrl":null,"time":" 7pm"}],"vName":"Leadbeater Hotel"},"type":"Feature"},{"geometry":{"coordinates":[144.9895284,-37.7993224],"type":"Point"},"properties":{"events":[{"categories":["Music"],"eDate":"2026-02-27","eName":"Fur Blossom","genre":"Rock","price":"$12.00","supports":["The Pearlies"," Fauna"],"ticketUrl":null,"time":" 8pm"}],"vName":"Nighthawks"},"type":"Feature"},{"geometry":{"coordinates":[144.998414,-37.771471],"type":"Point"},"properties":{"events":[{"categories":["Music"],"eDate":"2026-02-27","eName":"Day We Ran","genre":"Rock","price":"$30.00","supports":[],"ticketUrl":null,"time":" 8pm"}],"vName":"Northcote Social Club"},"type":"Feature"},{"geometry":{"coordinates":[144.97711,-37.79833],"type":"Point"},"properties":{"events":[{"categories":["Music"],"eDate":"2026-02-27","eName":"LXRP","genre":"Rock","price":"$13.30","supports":["Shirkher"," Simona 808GTR"],"ticketUrl":null,"time":" 8pm"},{"categories":["Music"],"eDate":"2026-02-27","eName":"DJ ASIO","genre":"Rock","price":"Free","supports":[],"ticketUrl":null,"time":"11:45pm"}],"vName":"Old Bar"},"type":"Feature"},{"geometry":{"coordinates":[144.96084,-37.813514],"type":"Point"},"properties":{"events":[{"categories":["Music"],"eDate":"2026-02-27","eName":"Not So Big Band: A New Take on Disney","genre":"Jazz","price":"$45.00","supports":[],"ticketUrl":null,"time":" 6pm"},{"categories":["Music"],"eDate":"2026-02-27","eName":"Come to Brazil: Georgie Aué Band","genre":"Jazz","price":"$45.00","supports":[],"ticketUrl":null,"time":" 6:30pm"},{"categories":["Music"],"eDate":"2026-02-27","eName":"Craig Smith Quintet plays Billy Joel: In A Jazz State of Mind","genre":"Jazz","price":"$45.00","supports":[],"ticketUrl":null,"time":" 9pm"},{"categories":["Music"],"eDate":"2026-02-27","eName":"Chris Johnstone/John Mackey Quintet Presents The Music Of John Coltrane","genre":"Jazz","price":"$45.00","supports":[],"ticketUrl":null,"time":" 9pm"}],"vName":"Paris Cat Jazz Club"},"type":"Feature"},{"geometry":{"coordinates":[144.9657057,-37.8061581],"type":"Point"},"properties":{"events":[{"categories":["Music"],"eDate":"2026-02-27","eName":"Split System","genre":"Punk","price":"$43.80","supports":["Puffer"," Condor"," The Antics"],"ticketUrl":null,"time":" 8pm"}],"vName":"The Curtin"},"type":"Feature"},{"geometry":{"coordinates":[144.9794553,-37.7982653],"type":"Point"},"properties":{"events":[{"categories":["Music"],"eDate":"2026-02-27","eName":"Snotty Nose Rez Kids x Baarka","genre":"Hip Hop","price":"$65.47","supports":[],"ticketUrl":null,"time":" 8pm"}],"vName":"The Night Cat"},"type":"Feature"},{"geometry":{"coordinates":[145.1818891,-37.8163371],"type":"Point"},"properties":{"events":[{"categories":["Music"],"eDate":"2026-02-27","eName":"The Eagles Greatest Hits: 2026 Tour","genre":"Rock","price":"$79.00","supports":[],"ticketUrl":null,"time":" 7:30pm"}],"vName":"The Round"},"type":"Feature"},{"geometry":{"coordinates":[144.9870814,-37.799406],"type":"Point"},"properties":{"events":[{"categories":["Music"],"eDate":"2026-02-27","eName":"Mellowing","genre":null,"price":"$20.00","supports":["Pet Therapy"," The Mundaynes"," Quiet Neighbours"],"ticketUrl":null,"time":" 7pm"},{"categories":["Music"],"eDate":"2026-02-27","eName":"Mellowing","genre":"Rock","price":"$23.50","supports":["Quiet Neighbours"," The Mundaynes"," Pet Therapy"],"ticketUrl":null,"time":" 8pm"},{"categories":["Music"],"eDate":"2026-02-27","eName":"Rain Dogs","genre":null,"price":"$23.50","supports":["Dogworld"," Grazer"," Idle Flowers"," April May"],"ticketUrl":null,"time":" 8pm"}],"vName":"The Tote Hotel"},"type":"Feature"}],"type":"FeatureCollection"}