{"features":[{"geometry":{"coordinates":[144.9982812,-37.7713296],"type":"Point"},"properties":{"events":[{"categories":["Music"],"eDate":"2025-09-13","eName":"Violent Disorder Festival III","genre":"Punk","price":"Free","supports":["more"],"ticketUrl":null,"time":" 7:30pm"}],"vName":"Bar 303"},"type":"Feature"},{"geometry":{"coordinates":[144.9607158,-37.776327],"type":"Point"},"properties":{"events":[{"categories":["Music","Comedy"],"eDate":"2025-09-13","eName":"Evelyn Yuen","genre":"Pop","price":"$22.95","supports":["Curly & The Fringe"," Joanne Fong"," Minhy"],"ticketUrl":null,"time":" 1pm"},{"categories":["Music"],"eDate":"2025-09-13","eName":"Bridge Left To Burn + Some Heard Trouble","genre":"Metal","price":"$19.99","supports":[],"ticketUrl":null,"time":" 8pm"}],"vName":"Bergy Bandroom"},"type":"Feature"},{"geometry":{"coordinates":[144.9568039,-37.8111442],"type":"Point"},"properties":{"events":[{"categories":["Music"],"eDate":"2025-09-13","eName":"Fleetwood Max","genre":"Rock","price":"$40.00","supports":[],"ticketUrl":null,"time":" 7:30pm"}],"vName":"Bird's Basement"},"type":"Feature"},{"geometry":{"coordinates":[144.9617083,-37.7704205],"type":"Point"},"properties":{"events":[{"categories":["Music"],"eDate":"2025-09-13","eName":"Cairo Club Orchestra","genre":"Jazz","price":"$23.05","supports":[],"ticketUrl":null,"time":" 2pm"},{"categories":["Music"],"eDate":"2025-09-13","eName":"Taxiride with TTSAR","genre":"Rock","price":"$40.00","supports":[],"ticketUrl":null,"time":" 6:30pm"}],"vName":"Brunswick Ballroom"},"type":"Feature"},{"geometry":{"coordinates":[144.9713425,-37.8128595],"type":"Point"},"properties":{"events":[{"categories":["Free","Music"],"eDate":"2025-09-13","eName":"The Hush","genre":"Rock","price":"Free","supports":["Crimson Caravan"," El Bebe"],"ticketUrl":null,"time":" 8pm"},{"categories":["Free","Music"],"eDate":"2025-09-13","eName":"TRASH","genre":null,"price":"Free","supports":[],"ticketUrl":null,"time":"11pm"}],"vName":"Cherry Bar"},"type":"Feature"},{"geometry":{"coordinates":[144.9248037,-37.7656716],"type":"Point"},"properties":{"events":[{"categories":["Music"],"eDate":"2025-09-13","eName":"AO Crew presents K-NEXT 2025","genre":"Pop","price":"$35.00","supports":[],"ticketUrl":null,"time":" 7pm"}],"vName":"Clocktower Centre"},"type":"Feature"},{"geometry":{"coordinates":[144.9926664,-37.8248893],"type":"Point"},"properties":{"events":[{"categories":["Music"],"eDate":"2025-09-13","eName":"Folk Bitch Trio","genre":"Country/Folk","price":"Free","supports":["Katy Kirby"," Milly Strange"],"ticketUrl":null,"time":" 8pm"}],"vName":"Corner Hotel"},"type":"Feature"},{"geometry":{"coordinates":[144.9627513,-37.760963],"type":"Point"},"properties":{"events":[{"categories":["Music"],"eDate":"2025-09-13","eName":"Sam O’Halloran Trio","genre":"Jazz","price":"Free","supports":[],"ticketUrl":null,"time":" 8pm"}],"vName":"Edinburgh Castle Hotel"},"type":"Feature"},{"geometry":{"coordinates":[144.9777885,-37.8597831],"type":"Point"},"properties":{"events":[{"categories":["Music"],"eDate":"2025-09-13","eName":"Lonely Weekenders","genre":"Rock","price":"Free","supports":[],"ticketUrl":null,"time":" 9pm"}],"vName":"Freddie Wimpoles"},"type":"Feature"},{"geometry":{"coordinates":[144.9679835,-37.8201575],"type":"Point"},"properties":{"events":[{"categories":["Music"],"eDate":"2025-09-13","eName":"Classic Kids: Eliza’s Orchestral Adventures","genre":"Classical","price":"$28.00","supports":[],"ticketUrl":null,"time":"10:30am"}],"vName":"Hamer Hall (Arts Centre Melbourne)"},"type":"Feature"},{"geometry":{"coordinates":[144.973013,-37.8640582],"type":"Point"},"properties":{"events":[{"categories":["Music"],"eDate":"2025-09-13","eName":"Emma Boult Studios: The Entertainer’s Series","genre":"Indie","price":"$22.95","supports":["Aysha Bree"," Felix Peretz"],"ticketUrl":null,"time":" 4pm"}],"vName":"Hotel Esplanade (aka The Espy)"},"type":"Feature"},{"geometry":{"coordinates":[145.0008148,-37.8107158],"type":"Point"},"properties":{"events":[{"categories":["Music"],"eDate":"2025-09-13","eName":"Hellz4rockin’ Fest","genre":null,"price":"$28.85","supports":[],"ticketUrl":null,"time":" 3pm"}],"vName":"Leadbeater Hotel"},"type":"Feature"},{"geometry":{"coordinates":[144.998414,-37.771471],"type":"Point"},"properties":{"events":[{"categories":["Music"],"eDate":"2025-09-13","eName":"Bernadette Novembre","genre":"Rock","price":"$24.00","supports":["Supa Lucia"," Ozergun"," Ben Mastwyk"],"ticketUrl":null,"time":" 7pm"}],"vName":"Northcote Social Club"},"type":"Feature"},{"geometry":{"coordinates":[144.9976902,-37.7745111],"type":"Point"},"properties":{"events":[{"categories":["Music"],"eDate":"2025-09-13","eName":"Bunjil & Paliyang","genre":"Acoustic","price":"$30.00","supports":[],"ticketUrl":null,"time":" 7:30pm"}],"vName":"Northcote Town Hall"},"type":"Feature"},{"geometry":{"coordinates":[144.97711,-37.79833],"type":"Point"},"properties":{"events":[{"categories":["Free","Music"],"eDate":"2025-09-13","eName":"Magic Mile + Rockin’ Pelmets","genre":"Rock","price":"Free","supports":[],"ticketUrl":null,"time":" 3:30pm"},{"categories":["Music"],"eDate":"2025-09-13","eName":"Reverie","genre":"Punk","price":"$13.30","supports":["Hiraeth"," Bad Posture"],"ticketUrl":null,"time":" 8pm"}],"vName":"Old Bar"},"type":"Feature"},{"geometry":{"coordinates":[144.96084,-37.813514],"type":"Point"},"properties":{"events":[{"categories":["Music"],"eDate":"2025-09-13","eName":"Dean’s Martini","genre":"Jazz","price":"$45.00","supports":[],"ticketUrl":null,"time":" 6pm"},{"categories":["Music"],"eDate":"2025-09-13","eName":"Nardia Presents The Women Of Jazz & Soul with Iseula","genre":"Jazz","price":"Free","supports":[],"ticketUrl":null,"time":" 6:30pm"},{"categories":["Music"],"eDate":"2025-09-13","eName":"The Words & Music of Vince Jones with Adam Rudegeair","genre":"Soul/Funk","price":"$40.00","supports":[],"ticketUrl":null,"time":" 9pm"},{"categories":["Music"],"eDate":"2025-09-13","eName":"Nardia Presents The Women Of Jazz & Soul with Iseula (Later Session)","genre":"Jazz","price":"$45.00","supports":[],"ticketUrl":null,"time":" 9:30pm"}],"vName":"Paris Cat Jazz Club"},"type":"Feature"},{"geometry":{"coordinates":[144.9574795,-37.7697547],"type":"Point"},"properties":{"events":[{"categories":["Music"],"eDate":"2025-09-13","eName":"28 Fest","genre":null,"price":"$25.00","supports":["Catholic Guilt"," Something Something Explosion"," The Murderballs"," Sugartone"],"ticketUrl":null,"time":" 5pm"}],"vName":"Rubix Warehouse"},"type":"Feature"},{"geometry":{"coordinates":[144.965405,-37.8117457],"type":"Point"},"properties":{"events":[{"categories":["Free","Music"],"eDate":"2025-09-13","eName":"Prima (Sadiva Birthday Edition)","genre":"Electronic","price":"Free","supports":[],"ticketUrl":null,"time":" 6pm"}],"vName":"Section 8"},"type":"Feature"},{"geometry":{"coordinates":[144.9607404,-37.7743469],"type":"Point"},"properties":{"events":[{"categories":["Music"],"eDate":"2025-09-13","eName":"Riff Mania","genre":"Rock","price":"$23.30","supports":["Bench Cup"," Backbone"],"ticketUrl":null,"time":" 7pm"},{"categories":["Music"],"eDate":"2025-09-13","eName":"Avril Only","genre":null,"price":"$5.00","supports":[],"ticketUrl":null,"time":"11pm"}],"vName":"Stay Gold"},"type":"Feature"},{"geometry":{"coordinates":[144.32141,-37.38866],"type":"Point"},"properties":{"events":[{"categories":["Free","Music"],"eDate":"2025-09-13","eName":"Kier Stevens","genre":"Acoustic","price":"Free","supports":[],"ticketUrl":null,"time":" 3pm"}],"vName":"The Cosmopolitan Hotel"},"type":"Feature"},{"geometry":{"coordinates":[144.9770425,-37.8588717],"type":"Point"},"properties":{"events":[{"categories":["Music"],"eDate":"2025-09-13","eName":"Bonnie & Clyde + DJ MCB","genre":"Rock","price":"Free","supports":[],"ticketUrl":null,"time":" 9pm"}],"vName":"The Fifth Province"},"type":"Feature"},{"geometry":{"coordinates":[144.9708437,-37.7973184],"type":"Point"},"properties":{"events":[{"categories":["Comedy","Theatre"],"eDate":"2025-09-13","eName":"The Big HOO-HAA!","genre":null,"price":"$32.00","supports":[],"ticketUrl":null,"time":" 8:30pm"}],"vName":"The Motley Bauhaus"},"type":"Feature"},{"geometry":{"coordinates":[144.9998797,-37.7616512],"type":"Point"},"properties":{"events":[{"categories":["Music"],"eDate":"2025-09-13","eName":"Lot56","genre":"Rock","price":"Free","supports":[],"ticketUrl":null,"time":" 8pm"}],"vName":"The Thornbury Local"},"type":"Feature"},{"geometry":{"coordinates":[144.9985126,-37.7588241],"type":"Point"},"properties":{"events":[{"categories":["Music"],"eDate":"2025-09-13","eName":"It Records 11th Birthday Bash","genre":null,"price":"$20.00","supports":[],"ticketUrl":null,"time":" 6pm"}],"vName":"Thornbury Bowls Club"},"type":"Feature"}],"type":"FeatureCollection"}