{"features":[{"geometry":{"coordinates":[144.9679835243618,-37.8201575],"type":"Point"},"properties":{"events":[{"categories":["Comedy","Other \"Food & Drink\""],"eDate":"2024-04-04","eName":"Merrick Watts: An Idiot's Guide to Wine - Volume Two","genre":null,"price":"$60.00 - 70.00","supports":[],"ticketUrl":null,"time":" 6:30pm"}],"vName":"Arts Centre Melbourne"},"type":"Feature"},{"geometry":{"coordinates":[144.9763781,-37.7983136],"type":"Point"},"properties":{"events":[{"categories":["Music"],"eDate":"2024-04-04","eName":"Euterpe: The Amnion Tour","genre":"Rock","price":"$12.00","supports":["Tonics Good Ramen"," Pepper La Floyd"," Babe"," The Subordinates"],"ticketUrl":null,"time":" 7:30pm"}],"vName":"Bad Decisions Bar"},"type":"Feature"},{"geometry":{"coordinates":[144.99828116650363,-37.7713296],"type":"Point"},"properties":{"events":[{"categories":["Music"],"eDate":"2024-04-04","eName":"Tim Neal Trio","genre":"Jazz","price":"$20.00","supports":[],"ticketUrl":null,"time":" 8pm"}],"vName":"Bar 303"},"type":"Feature"},{"geometry":{"coordinates":[144.9567859,-37.8111049],"type":"Point"},"properties":{"events":[{"categories":["Music"],"eDate":"2024-04-04","eName":"Isaiah Collier & The Chosen Few","genre":"Jazz","price":"$50.00","supports":[],"ticketUrl":null,"time":" 7:30pm"},{"categories":["Music"],"eDate":"2024-04-04","eName":"Isaiah Collier & The Chosen Few (Late Show)","genre":"Jazz","price":"$50.00","supports":[],"ticketUrl":null,"time":"10pm"}],"vName":"Bird's Basement"},"type":"Feature"},{"geometry":{"coordinates":[144.9945274,-37.8001115],"type":"Point"},"properties":{"events":[{"categories":["Free","Music","Other \"Food & Drink\""],"eDate":"2024-04-04","eName":"Mount Kujo: Bodriggy Residency","genre":null,"price":"Free","supports":[],"ticketUrl":null,"time":" 7:30pm"}],"vName":"Bodriggy Brewing Company"},"type":"Feature"},{"geometry":{"coordinates":[144.9617018,-37.7704566],"type":"Point"},"properties":{"events":[{"categories":["Music","Comedy"],"eDate":"2024-04-04","eName":"Paul McDermott +1: Blood Orange","genre":"Acoustic","price":"$43.96","supports":[],"ticketUrl":null,"time":" 8pm"}],"vName":"Brunswick Ballroom"},"type":"Feature"},{"geometry":{"coordinates":[144.9787445,-37.7967357],"type":"Point"},"properties":{"events":[{"categories":["Music"],"eDate":"2024-04-04","eName":"aplegate Thursdays in April","genre":null,"price":"$16.10","supports":["Lovesick Dream"," Elvis"],"ticketUrl":null,"time":" 8pm"}],"vName":"Evelyn Hotel"},"type":"Feature"},{"geometry":{"coordinates":[144.9875917,-37.7963837],"type":"Point"},"properties":{"events":[{"categories":["Free","Music"],"eDate":"2024-04-04","eName":"Patrick Wilson","genre":"Indie","price":"Free","supports":["Katie May"],"ticketUrl":null,"time":" 8pm"}],"vName":"Gem Bar"},"type":"Feature"},{"geometry":{"coordinates":[144.9679835243618,-37.8201575],"type":"Point"},"properties":{"events":[{"categories":["Music"],"eDate":"2024-04-04","eName":"Baroque Festival: Handel & Vivaldi Arias","genre":"Classical","price":"$99.90 - 279.90","supports":[],"ticketUrl":null,"time":" 7:30pm"}],"vName":"Hamer Hall (Arts Centre Melbourne)"},"type":"Feature"},{"geometry":{"coordinates":[144.8971518,-37.8054274],"type":"Point"},"properties":{"events":[{"categories":["Music"],"eDate":"2024-04-04","eName":"The Phosphenes","genre":null,"price":"$15.00","supports":["Heather Fiona"],"ticketUrl":null,"time":" 7pm"}],"vName":"Mamma Chen's"},"type":"Feature"},{"geometry":{"coordinates":[144.9631913,-37.7617818],"type":"Point"},"properties":{"events":[{"categories":["Free","Music"],"eDate":"2024-04-04","eName":"Open Mic Thursdays @ Ringo Barr","genre":"Acoustic","price":"Free","supports":[],"ticketUrl":null,"time":" 7pm"}],"vName":"Ringo Barr"},"type":"Feature"},{"geometry":{"coordinates":[144.9846126,-37.7989941],"type":"Point"},"properties":{"events":[{"categories":["Music"],"eDate":"2024-04-04","eName":"Double Pumper","genre":"Punk","price":"$11.25","supports":["The Sun Is A Deadly Laser"," Protoplanet"],"ticketUrl":null,"time":" 7:30pm"}],"vName":"The Tote Hotel"},"type":"Feature"},{"geometry":{"coordinates":[144.9985126,-37.7588241],"type":"Point"},"properties":{"events":[{"categories":["Free","Music"],"eDate":"2024-04-04","eName":"Hume Blues Club","genre":"Blues","price":"Free","supports":["Blues Jam Sessions"],"ticketUrl":null,"time":" 7:30pm"}],"vName":"Thornbury Bowls Club"},"type":"Feature"}],"type":"FeatureCollection"}