{"features":[{"geometry":{"coordinates":[144.978682,-37.7981225],"type":"Point"},"properties":{"events":[{"categories":["Free","Music"],"eDate":"2025-04-30","eName":"Libby Ingels","genre":null,"price":"Free","supports":[],"ticketUrl":null,"time":" 9pm"}],"vName":"Baxter's Lot"},"type":"Feature"},{"geometry":{"coordinates":[144.9693768,-37.8164414],"type":"Point"},"properties":{"events":[{"categories":["Music"],"eDate":"2025-04-30","eName":"HTRK","genre":"Rock","price":"$48.00","supports":[],"ticketUrl":null,"time":" 7pm"}],"vName":"Forum Melbourne"},"type":"Feature"},{"geometry":{"coordinates":[144.9679835,-37.8201575],"type":"Point"},"properties":{"events":[{"categories":["Music"],"eDate":"2025-04-30","eName":"The Verdi Gala Concert","genre":"Classical","price":"$65.00 - 189.00","supports":[],"ticketUrl":null,"time":" 7:30pm"}],"vName":"Hamer Hall (Arts Centre Melbourne)"},"type":"Feature"},{"geometry":{"coordinates":[144.9596527,-37.7720304],"type":"Point"},"properties":{"events":[{"categories":["Other \"Spoken Word, Poetry \""],"eDate":"2025-04-30","eName":"Generation Women – Failing Forward: Stories About Mistakes","genre":null,"price":"$33.66","supports":[],"ticketUrl":null,"time":" 6:30pm"}],"vName":"Howler"},"type":"Feature"},{"geometry":{"coordinates":[145.0314658,-37.8067273],"type":"Point"},"properties":{"events":[{"categories":["Music"],"eDate":"2025-04-30","eName":"Ally Row","genre":null,"price":"$20.00","supports":["Peter Westwood"],"ticketUrl":null,"time":" 7:30pm"}],"vName":"Kew Court House"},"type":"Feature"},{"geometry":{"coordinates":[144.9023908,-37.7999086],"type":"Point"},"properties":{"events":[{"categories":["Comedy"],"eDate":"2025-04-30","eName":"Pride Comedy","genre":null,"price":"Free","supports":[],"ticketUrl":null,"time":" 7:30pm"}],"vName":"Pride Of Our Footscray Community Bar"},"type":"Feature"},{"geometry":{"coordinates":[145.3534507,-37.9100746],"type":"Point"},"properties":{"events":[{"categories":["Music"],"eDate":"2025-04-30","eName":"Kickarse Karaoke","genre":"Acoustic","price":"Free","supports":[],"ticketUrl":null,"time":" 7pm"}],"vName":"Sooki Lounge"},"type":"Feature"},{"geometry":{"coordinates":[144.9555612,-37.8066759],"type":"Point"},"properties":{"events":[{"categories":["Free","Music"],"eDate":"2025-04-30","eName":"Topaz Lyon","genre":"Indie","price":"Free","supports":[],"ticketUrl":null,"time":" 8pm"},{"categories":["Music","Free"],"eDate":"2025-04-30","eName":"Jess Parker","genre":"Country/Folk","price":"Free","supports":[],"ticketUrl":null,"time":" 9pm"}],"vName":"The Drunken Poet"},"type":"Feature"},{"geometry":{"coordinates":[145.1334272,-37.9135736],"type":"Point"},"properties":{"events":[{"categories":["Music"],"eDate":"2025-04-30","eName":"Herbie’s World – International Jazz Day: Live at The Count’s","genre":"Jazz","price":"$15.00 - 29.00","supports":[],"ticketUrl":null,"time":" 6:30pm"}],"vName":"The Ian Potter Centre for Performing Arts"},"type":"Feature"},{"geometry":{"coordinates":[144.9661635,-37.8176298],"type":"Point"},"properties":{"events":[{"categories":["Free","Music"],"eDate":"2025-04-30","eName":"Mellowdias Thump","genre":null,"price":"Free","supports":[],"ticketUrl":null,"time":" 8pm"}],"vName":"Wax Music Lounge"},"type":"Feature"},{"geometry":{"coordinates":[144.9618781,-37.8126316],"type":"Point"},"properties":{"events":[{"categories":["Free","Music"],"eDate":"2025-04-30","eName":"House Of Hers with DJ Naliita","genre":null,"price":"Free","supports":[],"ticketUrl":null,"time":" 3pm"}],"vName":"Whitehart Bar"},"type":"Feature"}],"type":"FeatureCollection"}