{"features":[{"geometry":{"coordinates":[144.9679369,-37.8120109],"type":"Point"},"properties":{"events":[{"categories":["Music"],"eDate":"2025-04-13","eName":"Deborah De Luca","genre":"Electronic","price":"$23.46 - 51.00","supports":[],"ticketUrl":null,"time":"10pm"}],"vName":"170 Russell"},"type":"Feature"},{"geometry":{"coordinates":[144.968386,-37.81843],"type":"Point"},"properties":{"events":[{"categories":["Music","Comedy"],"eDate":"2025-04-13","eName":"Cameron James: Broken Records","genre":"Indie","price":"$25.00 - 35.00","supports":[],"ticketUrl":null,"time":" 6:30pm"}],"vName":"ACMI"},"type":"Feature"},{"geometry":{"coordinates":[144.9679835243618,-37.8201575],"type":"Point"},"properties":{"events":[{"categories":["Music","Comedy","Other \"Cabaret\""],"eDate":"2025-04-13","eName":"Jude Perl: Jude Perl Tries To Finish A Sentence","genre":"Pop","price":"$32.00 - 35.00","supports":[],"ticketUrl":null,"time":" 5pm"},{"categories":["Comedy"],"eDate":"2025-04-13","eName":"Geraldine Hickey: Meander","genre":null,"price":"$38.00 - 42.00","supports":[],"ticketUrl":null,"time":" 5:15pm"},{"categories":["Comedy","Other \"Cabaret\""],"eDate":"2025-04-13","eName":"The Booth Variety Spectacular & Formal Apology Hour!","genre":null,"price":"$23.00 - 33.00","supports":[],"ticketUrl":null,"time":" 5:15pm"},{"categories":["Music","Comedy"],"eDate":"2025-04-13","eName":"Gillian Cosgriff: Fresh New Worries","genre":"Pop","price":"$30.00 - 39.00","supports":[],"ticketUrl":null,"time":" 6:20pm"},{"categories":["Music","Comedy","Other \"Cabaret\""],"eDate":"2025-04-13","eName":"One Man Musical By Flo & Joan","genre":"Classical","price":"$32.00 - 36.00","supports":[],"ticketUrl":null,"time":" 7pm"},{"categories":["Comedy","Other \"Cabaret\""],"eDate":"2025-04-13","eName":"Adults Only Magic Show","genre":null,"price":"$39.00 - 49.00","supports":[],"ticketUrl":null,"time":" 8:45pm"}],"vName":"Arts Centre Melbourne"},"type":"Feature"},{"geometry":{"coordinates":[144.978682,-37.7981225],"type":"Point"},"properties":{"events":[{"categories":["Free","Music"],"eDate":"2025-04-13","eName":"Lewis Ciavarella","genre":null,"price":"Free","supports":[],"ticketUrl":null,"time":" 9pm"}],"vName":"Baxter's Lot"},"type":"Feature"},{"geometry":{"coordinates":[144.96918237308262,-37.817775499999996],"type":"Point"},"properties":{"events":[{"categories":["Comedy"],"eDate":"2025-04-13","eName":"Bron Lewis: Who’s Talking?","genre":null,"price":"$25.00 - 30.00","supports":[],"ticketUrl":null,"time":" 5:15pm"}],"vName":"Beer Deluxe"},"type":"Feature"},{"geometry":{"coordinates":[144.9607158,-37.776327],"type":"Point"},"properties":{"events":[{"categories":["Comedy","Trivia","Other \"Spoken Word\"","Other \"Poetry & Forums\""],"eDate":"2025-04-13","eName":"WrestleBrainia VII","genre":null,"price":"$30.00","supports":[],"ticketUrl":null,"time":" 7pm"}],"vName":"Bergy Bandroom"},"type":"Feature"},{"geometry":{"coordinates":[144.9945274,-37.8001115],"type":"Point"},"properties":{"events":[{"categories":["Festival","Comedy","Other \"Food & Drink\""],"eDate":"2025-04-13","eName":"On The Gags: Melbourne Comedy Festival","genre":null,"price":"$27.00","supports":[],"ticketUrl":null,"time":" 7:30pm"}],"vName":"Bodriggy Brewing Company"},"type":"Feature"},{"geometry":{"coordinates":[144.9617018,-37.7704566],"type":"Point"},"properties":{"events":[{"categories":["Music"],"eDate":"2025-04-13","eName":"Nardia","genre":null,"price":"$33.76","supports":["Mayfield"," Tanya George"],"ticketUrl":null,"time":" 2pm"}],"vName":"Brunswick Ballroom"},"type":"Feature"},{"geometry":{"coordinates":[144.9668096,-37.8133834],"type":"Point"},"properties":{"events":[{"categories":["Comedy"],"eDate":"2025-04-13","eName":"Hannah Camilleri: The Mechanics","genre":null,"price":"$20.00 - 25.00","supports":[],"ticketUrl":null,"time":" 4:30pm"}],"vName":"Comedy Republic"},"type":"Feature"},{"geometry":{"coordinates":[144.96947,-37.816565],"type":"Point"},"properties":{"events":[{"categories":["Music"],"eDate":"2025-04-13","eName":"Tom Morello","genre":"Metal","price":"$111.00","supports":["Big Noter"],"ticketUrl":null,"time":" 7pm"}],"vName":"Forum Melbourne"},"type":"Feature"},{"geometry":{"coordinates":[144.9679835243618,-37.8201575],"type":"Point"},"properties":{"events":[{"categories":["Comedy"],"eDate":"2025-04-13","eName":"Danny Bhoy: DEAR WORLD...","genre":null,"price":"$56.90","supports":[],"ticketUrl":null,"time":" 5:30pm"},{"categories":["Comedy"],"eDate":"2025-04-13","eName":"Vivek Mahbubani","genre":null,"price":"$26.00 - 36.00","supports":[],"ticketUrl":null,"time":" 6:45pm"},{"categories":["Comedy"],"eDate":"2025-04-13","eName":"Nish Kumar: Nish, Don't Kill My Vibe","genre":null,"price":"$52.90","supports":[],"ticketUrl":null,"time":" 7:30pm"}],"vName":"Hamer Hall (Arts Centre Melbourne)"},"type":"Feature"},{"geometry":{"coordinates":[144.9659879,-37.8147557],"type":"Point"},"properties":{"events":[{"categories":["Comedy"],"eDate":"2025-04-13","eName":"Ray O'Leary: Laughter? I Hardly Know Her!","genre":null,"price":"$40.00","supports":[],"ticketUrl":null,"time":" 3pm"},{"categories":["Comedy"],"eDate":"2025-04-13","eName":"Melanie Bracewell: A Little Treat","genre":null,"price":"$35.00 - 45.00","supports":[],"ticketUrl":null,"time":" 5:15pm"},{"categories":["Comedy"],"eDate":"2025-04-13","eName":"Melbourne International Comedy Festival presents Festival Club","genre":null,"price":"$10.00 - 22.00","supports":[],"ticketUrl":null,"time":"10pm"}],"vName":"Max Watt's (Melbourne)"},"type":"Feature"},{"geometry":{"coordinates":[144.96741062735794,-37.82454855],"type":"Point"},"properties":{"events":[{"categories":["Music"],"eDate":"2025-04-13","eName":"John Grant + Luluc","genre":"Indie","price":"$69.00 - 79.00","supports":[],"ticketUrl":null,"time":" 7:30pm"}],"vName":"Melbourne Recital Centre"},"type":"Feature"},{"geometry":{"coordinates":[144.9627231,-37.8073581],"type":"Point"},"properties":{"events":[{"categories":["Comedy"],"eDate":"2025-04-13","eName":"Nazeem Hussain: You Paid For This","genre":null,"price":"$35.00 - 45.00","supports":[],"ticketUrl":null,"time":" 5pm"},{"categories":["Comedy"],"eDate":"2025-04-13","eName":"Tom Cashman: 2 Truths, 1 Lie & 17 Slight Exaggerations","genre":null,"price":"$25.00 - 35.00","supports":[],"ticketUrl":null,"time":" 6:40pm"}],"vName":"Melbourne Town Hall"},"type":"Feature"},{"geometry":{"coordinates":[144.9712356,-37.812902],"type":"Point"},"properties":{"events":[{"categories":["Comedy"],"eDate":"2025-04-13","eName":"Best of Melbourne Comedy","genre":null,"price":"$27.00","supports":[],"ticketUrl":null,"time":" 6:45pm"},{"categories":["Comedy"],"eDate":"2025-04-13","eName":"Guy Williams: If you midly criticise me I’ll say its cancel culture and turn to the alt right","genre":null,"price":"$25.00 - 35.00","supports":[],"ticketUrl":null,"time":" 7:50pm"}],"vName":"Morris House"},"type":"Feature"},{"geometry":{"coordinates":[145.0142411,-37.7310367],"type":"Point"},"properties":{"events":[{"categories":["Free","Music"],"eDate":"2025-04-13","eName":"Sunday Sunset Sessions","genre":"Jazz","price":"Free","supports":[],"ticketUrl":null,"time":" 7pm"}],"vName":"Ragtime Tavern"},"type":"Feature"},{"geometry":{"coordinates":[144.9615882,-37.7711432],"type":"Point"},"properties":{"events":[{"categories":["Music"],"eDate":"2025-04-13","eName":"PSI PHI","genre":null,"price":"$12.00 - 15.00","supports":[],"ticketUrl":null,"time":" 7:30pm"}],"vName":"Retreat Hotel"},"type":"Feature"},{"geometry":{"coordinates":[144.993413,-37.8506652],"type":"Point"},"properties":{"events":[{"categories":["Music"],"eDate":"2025-04-13","eName":"Josh Baker","genre":"Electronic","price":"$32.11 - 47.41","supports":[],"ticketUrl":null,"time":" 9pm"}],"vName":"Revolver Upstairs"},"type":"Feature"},{"geometry":{"coordinates":[144.965405,-37.8117457],"type":"Point"},"properties":{"events":[{"categories":["Free","Music"],"eDate":"2025-04-13","eName":"Isu Taki","genre":"Electronic","price":"Free","supports":[],"ticketUrl":null,"time":" 6pm"}],"vName":"Section 8"},"type":"Feature"},{"geometry":{"coordinates":[145.35345070507591,-37.9100746],"type":"Point"},"properties":{"events":[{"categories":["Music"],"eDate":"2025-04-13","eName":"Grayscale","genre":"Rock","price":"$69.90","supports":[],"ticketUrl":null,"time":" 7pm"}],"vName":"Sooki Lounge"},"type":"Feature"},{"geometry":{"coordinates":[144.9555612,-37.8066759],"type":"Point"},"properties":{"events":[{"categories":["Free","Music"],"eDate":"2025-04-13","eName":"Steamboat Whistlers","genre":"Jazz","price":"Free","supports":[],"ticketUrl":null,"time":" 4pm"},{"categories":["Free","Music"],"eDate":"2025-04-13","eName":"Craićn","genre":"Country/Folk","price":"Free","supports":[],"ticketUrl":null,"time":" 6:30pm"}],"vName":"The Drunken Poet"},"type":"Feature"},{"geometry":{"coordinates":[144.9585654,-37.8059962],"type":"Point"},"properties":{"events":[{"categories":["Music"],"eDate":"2025-04-13","eName":"Harold Holt Search Party","genre":null,"price":"$10.00","supports":["Vague Rituals"," Ze Wisenheimer"],"ticketUrl":null,"time":" 7pm"},{"categories":["Music"],"eDate":"2025-04-13","eName":"Harold Holt Search Party","genre":null,"price":"$10.00","supports":["Ze Wisenheimer"," Vague Rituals"],"ticketUrl":null,"time":" 7pm"}],"vName":"The Last Chance Rock & Roll Bar"},"type":"Feature"},{"geometry":{"coordinates":[144.9708437,-37.7973184],"type":"Point"},"properties":{"events":[{"categories":["Art","Other \"Spoken Word\"","Other \"Poetry & Forums\""],"eDate":"2025-04-13","eName":"What The Art World Won’t Teach You: How To Write Artist Statements & Bios","genre":null,"price":"$60.00","supports":[],"ticketUrl":null,"time":" 3pm"}],"vName":"The Motley Bauhaus"},"type":"Feature"},{"geometry":{"coordinates":[144.9622,-37.7679857],"type":"Point"},"properties":{"events":[{"categories":["Free","Music"],"eDate":"2025-04-13","eName":"Joshua Batten & The Lablighters","genre":"Blues","price":"Free","supports":[],"ticketUrl":null,"time":" 3pm"}],"vName":"The Penny Black"},"type":"Feature"}],"type":"FeatureCollection"}