{"features":[{"geometry":{"coordinates":[144.978682,-37.7981225],"type":"Point"},"properties":{"events":[{"categories":["Free","Music"],"eDate":"2025-11-21","eName":"Lewis Toms","genre":null,"price":"Free","supports":[],"ticketUrl":null,"time":" 9pm"}],"vName":"Baxter's Lot"},"type":"Feature"},{"geometry":{"coordinates":[144.9891167,-37.7996488],"type":"Point"},"properties":{"events":[{"categories":["Music"],"eDate":"2025-11-21","eName":"The Bennies","genre":"Punk","price":"$33.70","supports":["Cheapskate"," Sidesplitter"],"ticketUrl":null,"time":" 8pm"},{"categories":["Music"],"eDate":"2025-11-21","eName":"Big League","genre":"Rock","price":"$17.35","supports":["4hr Parking"," Ze Wisenheimer"," Noturns"],"ticketUrl":null,"time":" 8:30pm"}],"vName":"Bendigo Hotel"},"type":"Feature"},{"geometry":{"coordinates":[144.9607158,-37.776327],"type":"Point"},"properties":{"events":[{"categories":["Music"],"eDate":"2025-11-21","eName":"Great Falls","genre":"Rock","price":"$22.95","supports":["Tom Lyngcoln"," COMETS"],"ticketUrl":null,"time":" 8pm"}],"vName":"Bergy Bandroom"},"type":"Feature"},{"geometry":{"coordinates":[145.0002585,-37.7592368],"type":"Point"},"properties":{"events":[{"categories":["Music"],"eDate":"2025-11-21","eName":"Queer Punk Fundraiser","genre":"Punk","price":"$15.00","supports":["Heterophobes"," Supertart"," Sylvi Gunn"],"ticketUrl":null,"time":" 8pm"}],"vName":"Cafe Gummo"},"type":"Feature"},{"geometry":{"coordinates":[144.9713425,-37.8128595],"type":"Point"},"properties":{"events":[{"categories":["Music"],"eDate":"2025-11-21","eName":"Heavy Fest #4: Blvd Of Eyes","genre":"Rock","price":"$22.59","supports":["Shotgun Mistress"," Karly Jewell"," Awaken The Hate"],"ticketUrl":null,"time":" 7pm"}],"vName":"Cherry Bar"},"type":"Feature"},{"geometry":{"coordinates":[144.9926664,-37.8248893],"type":"Point"},"properties":{"events":[{"categories":["Music"],"eDate":"2025-11-21","eName":"Liz Stringer","genre":"Rock","price":"$51.10","supports":[],"ticketUrl":null,"time":" 8pm"},{"categories":["Music"],"eDate":"2025-11-21","eName":"Liz Stringer","genre":"Rock","price":"$51.10","supports":["Kyarna Cruse"," Maeve Grieve"],"ticketUrl":null,"time":" 8pm"}],"vName":"Corner Hotel"},"type":"Feature"},{"geometry":{"coordinates":[144.9784379,-37.7975956],"type":"Point"},"properties":{"events":[{"categories":["Music"],"eDate":"2025-11-21","eName":"Relays","genre":"Punk","price":"$10.00","supports":["Keyo Roses Flying Circus"," Skezm"],"ticketUrl":null,"time":" 8pm"}],"vName":"Creatures of Habit Bar & Bandroom"},"type":"Feature"},{"geometry":{"coordinates":[144.9627513,-37.760963],"type":"Point"},"properties":{"events":[{"categories":["Music"],"eDate":"2025-11-21","eName":"Ania Reynolds","genre":"Jazz","price":"Free","supports":[],"ticketUrl":null,"time":" 8pm"}],"vName":"Edinburgh Castle Hotel"},"type":"Feature"},{"geometry":{"coordinates":[144.9693768,-37.8164414],"type":"Point"},"properties":{"events":[{"categories":["Music"],"eDate":"2025-11-21","eName":"Kokoroko","genre":"Jazz","price":"$79.90","supports":["Setwun & the Soulstranauts"],"ticketUrl":null,"time":" 8pm"}],"vName":"Forum Melbourne"},"type":"Feature"},{"geometry":{"coordinates":[144.9787378,-37.7954205],"type":"Point"},"properties":{"events":[{"categories":["Music"],"eDate":"2025-11-21","eName":"Interval: IN PARALLEL + DJ Optimism","genre":"Electronic","price":"$15.00 - 25.00","supports":[],"ticketUrl":null,"time":"10pm"}],"vName":"Glamorama"},"type":"Feature"},{"geometry":{"coordinates":[144.9679835,-37.8201575],"type":"Point"},"properties":{"events":[{"categories":["Music"],"eDate":"2025-11-21","eName":"MSO Mornings: Respighi’s Rome","genre":"Classical","price":"$62.00","supports":[],"ticketUrl":null,"time":"11am"}],"vName":"Hamer Hall (Arts Centre Melbourne)"},"type":"Feature"},{"geometry":{"coordinates":[144.973013,-37.8640582],"type":"Point"},"properties":{"events":[{"categories":["Music"],"eDate":"2025-11-21","eName":"The Reflex: The Australian Duran Duran Experience","genre":"Pop","price":"$39.00","supports":[],"ticketUrl":null,"time":" 7pm"},{"categories":["Music"],"eDate":"2025-11-21","eName":"Rowland & The Howards","genre":"Rock","price":"$18.90","supports":["Souls Of Ambience"," Ethereal Gone Kids"],"ticketUrl":null,"time":" 7:30pm"},{"categories":["Music"],"eDate":"2025-11-21","eName":"Rodriguez Jr.","genre":"Electronic","price":"$35.70 - 49.50","supports":[],"ticketUrl":null,"time":"10pm"}],"vName":"Hotel Esplanade (aka The Espy)"},"type":"Feature"},{"geometry":{"coordinates":[144.9596527,-37.7720304],"type":"Point"},"properties":{"events":[{"categories":["Music"],"eDate":"2025-11-21","eName":"Wade Forster","genre":"Country/Folk","price":"Free","supports":["Tori Forsyth"],"ticketUrl":null,"time":" 8pm"}],"vName":"Howler"},"type":"Feature"},{"geometry":{"coordinates":[144.9571785,-37.8188809],"type":"Point"},"properties":{"events":[{"categories":["Music"],"eDate":"2025-11-21","eName":"FORZA","genre":"Electronic","price":"$24.61 - 33.08","supports":[],"ticketUrl":null,"time":" 8pm"}],"vName":"Inflation Entertainment Complex"},"type":"Feature"},{"geometry":{"coordinates":[145.0314658,-37.8067273],"type":"Point"},"properties":{"events":[{"categories":["Music"],"eDate":"2025-11-21","eName":"Kew Court House Live: Rebecca Mendoza","genre":null,"price":"$20.00","supports":[],"ticketUrl":null,"time":" 7:30pm"}],"vName":"Kew Court House"},"type":"Feature"},{"geometry":{"coordinates":[145.0008148,-37.8107158],"type":"Point"},"properties":{"events":[{"categories":["Music"],"eDate":"2025-11-21","eName":"The 3rd Annual Intervarsity Battle of the Bands","genre":"Rock","price":"$15.00","supports":[],"ticketUrl":null,"time":" 5:30pm"}],"vName":"Leadbeater Hotel"},"type":"Feature"},{"geometry":{"coordinates":[144.8975289,-37.8022392],"type":"Point"},"properties":{"events":[{"categories":["Music"],"eDate":"2025-11-21","eName":"Astrogate","genre":"Rock","price":"$10.00 - 15.00","supports":["Porcus vs Equus"," Southscope"," Ozergun"],"ticketUrl":null,"time":" 8pm"}],"vName":"Mamma Chen's"},"type":"Feature"},{"geometry":{"coordinates":[144.998414,-37.771471],"type":"Point"},"properties":{"events":[{"categories":["Music"],"eDate":"2025-11-21","eName":"Black Cab","genre":"Electronic","price":"Free","supports":["Tongue Dissolver"," Sooji"],"ticketUrl":null,"time":" 8:30pm"}],"vName":"Northcote Social Club"},"type":"Feature"},{"geometry":{"coordinates":[144.9982706,-37.7737068],"type":"Point"},"properties":{"events":[{"categories":["Music"],"eDate":"2025-11-21","eName":"Gilles Peterson","genre":"Jazz","price":"$89.90","supports":["Allysha Joy"," Anu"," Midlife"," Milo Eastwood"],"ticketUrl":null,"time":" 7pm"}],"vName":"Northcote Theatre"},"type":"Feature"},{"geometry":{"coordinates":[144.96084,-37.813514],"type":"Point"},"properties":{"events":[{"categories":["Music"],"eDate":"2025-11-21","eName":"Adam Donaldson & The Collective: MJ – Remember The Time","genre":"Jazz","price":"$45.00","supports":["Adelaide Clark"],"ticketUrl":null,"time":" 6pm"},{"categories":["Music"],"eDate":"2025-11-21","eName":"Sophisticated Lady: A Tribute to Jazz’s First Ladies of Song","genre":"Jazz","price":"$45.00","supports":[],"ticketUrl":null,"time":" 6:30pm"},{"categories":["Music"],"eDate":"2025-11-21","eName":"Emily Williams: Love Songs With A Twist with Nate Dousand","genre":"Jazz","price":"$48.00","supports":[],"ticketUrl":null,"time":" 9pm"},{"categories":["Music"],"eDate":"2025-11-21","eName":"The Aretha Franklin Project with Joys Njambi","genre":"Jazz","price":"$45.00","supports":["Adelaide Clark"],"ticketUrl":null,"time":" 9:30pm"}],"vName":"Paris Cat Jazz Club"},"type":"Feature"},{"geometry":{"coordinates":[144.9741326,-37.8619943],"type":"Point"},"properties":{"events":[{"categories":["Music"],"eDate":"2025-11-21","eName":"The Coronas","genre":"Rock","price":"$77.90","supports":[],"ticketUrl":null,"time":" 7pm"}],"vName":"Prince Bandroom"},"type":"Feature"},{"geometry":{"coordinates":[144.993413,-37.8506652],"type":"Point"},"properties":{"events":[{"categories":["Music"],"eDate":"2025-11-21","eName":"Post Heaven","genre":"Metal","price":"$26.52","supports":["Sunbleached"," Energy Angel"," Crawling"],"ticketUrl":null,"time":" 7pm"}],"vName":"Revolver Upstairs"},"type":"Feature"},{"geometry":{"coordinates":[144.965405,-37.8117457],"type":"Point"},"properties":{"events":[{"categories":["Free","Music"],"eDate":"2025-11-21","eName":"Sensible Antixx: A Very Sensible Block Party","genre":"Hip Hop","price":"Free","supports":[],"ticketUrl":null,"time":" 6pm"}],"vName":"Section 8"},"type":"Feature"},{"geometry":{"coordinates":[144.9607404,-37.7743469],"type":"Point"},"properties":{"events":[{"categories":["Music"],"eDate":"2025-11-21","eName":"Kalandra","genre":"Country/Folk","price":"$69.90","supports":[],"ticketUrl":null,"time":" 7pm"}],"vName":"Stay Gold"},"type":"Feature"},{"geometry":{"coordinates":[144.9706211,-37.778276],"type":"Point"},"properties":{"events":[{"categories":["Free","Music"],"eDate":"2025-11-21","eName":"Aus Music T-Shirt Day: Hypno Sex Ray + Splitting Chips","genre":"Rock","price":"Free","supports":[],"ticketUrl":null,"time":" 9pm"}],"vName":"The Beast"},"type":"Feature"},{"geometry":{"coordinates":[144.9495319,-37.8044987],"type":"Point"},"properties":{"events":[{"categories":["Comedy"],"eDate":"2025-11-21","eName":"Jeff Dye","genre":null,"price":"$79.90","supports":[],"ticketUrl":null,"time":" 7pm"}],"vName":"The Comic's Lounge"},"type":"Feature"},{"geometry":{"coordinates":[144.9657057,-37.8061581],"type":"Point"},"properties":{"events":[{"categories":["Music"],"eDate":"2025-11-21","eName":"Dumbhead","genre":"Electronic","price":"$17.75 - 22.85","supports":["Dogworld"," Cold/Heat"," Girl Version"],"ticketUrl":null,"time":" 8pm"}],"vName":"The Curtin"},"type":"Feature"},{"geometry":{"coordinates":[144.9463641,-37.8047757],"type":"Point"},"properties":{"events":[{"categories":["Music"],"eDate":"2025-11-21","eName":"Dad They Broke Me","genre":"Metal","price":"$20.00","supports":["Religious Observance"," Bonnie Mercer"],"ticketUrl":null,"time":" 8pm"}],"vName":"The Last Chance Rock & Roll Bar"},"type":"Feature"},{"geometry":{"coordinates":[144.9794553,-37.7982653],"type":"Point"},"properties":{"events":[{"categories":["Music"],"eDate":"2025-11-21","eName":"Kirollus","genre":"Electronic","price":"$49.90","supports":[],"ticketUrl":null,"time":"11pm"}],"vName":"The Night Cat"},"type":"Feature"},{"geometry":{"coordinates":[144.9790327,-37.7960561],"type":"Point"},"properties":{"events":[{"categories":["Music"],"eDate":"2025-11-21","eName":"Memory Motel","genre":"Rock","price":"Free","supports":["Chick"],"ticketUrl":null,"time":" 8pm"}],"vName":"The Punters Club"},"type":"Feature"},{"geometry":{"coordinates":[144.9984324,-37.7729134],"type":"Point"},"properties":{"events":[{"categories":["Music"],"eDate":"2025-11-21","eName":"Wave Jazz Trio","genre":"Jazz","price":"Free","supports":[],"ticketUrl":null,"time":" 6pm"},{"categories":["Music","Other \"Cabaret\""],"eDate":"2025-11-21","eName":"Love Me Or Leave Me: Nina Simone Tribute","genre":"Jazz","price":"$34.80","supports":[],"ticketUrl":null,"time":" 8pm"}],"vName":"Wesley Anne"},"type":"Feature"}],"type":"FeatureCollection"}