{"features":[{"geometry":{"coordinates":[144.9982812,-37.7713296],"type":"Point"},"properties":{"events":[{"categories":["Music"],"eDate":"2025-06-05","eName":"14th Anniversary Kickin the B at 303","genre":"Jazz","price":"$30.00","supports":[],"ticketUrl":null,"time":" 7:30pm"}],"vName":"Bar 303"},"type":"Feature"},{"geometry":{"coordinates":[144.978682,-37.7981225],"type":"Point"},"properties":{"events":[{"categories":["Free","Music"],"eDate":"2025-06-05","eName":"Emile Battour","genre":null,"price":"Free","supports":[],"ticketUrl":null,"time":" 9pm"}],"vName":"Baxter's Lot"},"type":"Feature"},{"geometry":{"coordinates":[144.9945274,-37.8001115],"type":"Point"},"properties":{"events":[{"categories":["Free","Music","Other \"Food \""],"eDate":"2025-06-05","eName":"Dune Castle Present: Cantrips","genre":null,"price":"Free","supports":[],"ticketUrl":null,"time":" 6pm"}],"vName":"Bodriggy Brewing Company"},"type":"Feature"},{"geometry":{"coordinates":[144.9713425,-37.8128595],"type":"Point"},"properties":{"events":[{"categories":["Music"],"eDate":"2025-06-05","eName":"Ezra Lee & Henri Herbert","genre":"Rock","price":"$14.41","supports":[],"ticketUrl":null,"time":" 8pm"}],"vName":"Cherry Bar"},"type":"Feature"},{"geometry":{"coordinates":[144.9693768,-37.8164414],"type":"Point"},"properties":{"events":[{"categories":["Music"],"eDate":"2025-06-05","eName":"Mount Kimbie","genre":"Electronic","price":"$89.00","supports":[],"ticketUrl":null,"time":" 8pm"}],"vName":"Forum Melbourne"},"type":"Feature"},{"geometry":{"coordinates":[144.959768,-37.831777],"type":"Point"},"properties":{"events":[{"categories":["Music"],"eDate":"2025-06-05","eName":"Thursday Jazz with JMQ Ensemble","genre":"Jazz","price":"$20.00","supports":[],"ticketUrl":null,"time":" 7pm"}],"vName":"Golden Gate Hotel"},"type":"Feature"},{"geometry":{"coordinates":[145.0314658,-37.8067273],"type":"Point"},"properties":{"events":[{"categories":["Music"],"eDate":"2025-06-05","eName":"Global Music Thursdays: Ajak Kwai","genre":null,"price":"$20.00","supports":[],"ticketUrl":null,"time":" 7:30pm"}],"vName":"Kew Court House"},"type":"Feature"},{"geometry":{"coordinates":[144.8975289,-37.8022392],"type":"Point"},"properties":{"events":[{"categories":["Music"],"eDate":"2025-06-05","eName":"Inside Out LGBTQI+ Prisoner Solidarity Network Fundraiser","genre":null,"price":"$10.00 - 15.00","supports":["Bitchcoin"," VSB"],"ticketUrl":null,"time":" 6:45pm"}],"vName":"Mamma Chen's"},"type":"Feature"},{"geometry":{"coordinates":[144.9675876,-37.8240849],"type":"Point"},"properties":{"events":[{"categories":["Music"],"eDate":"2025-06-05","eName":"BrunnhAilde: A Wagnerian Concert","genre":"Classical","price":"$55.00","supports":[],"ticketUrl":null,"time":" 7pm"}],"vName":"Melbourne Recital Centre"},"type":"Feature"},{"geometry":{"coordinates":[144.9256335,-37.8296919],"type":"Point"},"properties":{"events":[{"categories":["Music"],"eDate":"2025-06-05","eName":"Japanese Breakfast","genre":"Electronic","price":"$101.00 - 116.00","supports":[],"ticketUrl":null,"time":" 6:30pm"}],"vName":"PICA (Port Melbourne Industrial Centre for the Arts)"},"type":"Feature"},{"geometry":{"coordinates":[144.96084,-37.813514],"type":"Point"},"properties":{"events":[{"categories":["Music"],"eDate":"2025-06-05","eName":"Night of 80’s Jazz Fusion","genre":"Jazz","price":"$40.00","supports":[],"ticketUrl":null,"time":" 7:30pm"},{"categories":["Music"],"eDate":"2025-06-05","eName":"Reunited with Angela & Jerson","genre":"Jazz","price":"$45.00","supports":[],"ticketUrl":null,"time":" 7:30pm"}],"vName":"Paris Cat Jazz Club"},"type":"Feature"},{"geometry":{"coordinates":[144.9586498,-37.766903],"type":"Point"},"properties":{"events":[{"categories":["Music"],"eDate":"2025-06-05","eName":"Barney McAll, Perrin Moss, Julien Wilson, Javier Fredes & Yunior Terry","genre":"Jazz","price":"$25.00 - 30.00","supports":[],"ticketUrl":null,"time":" 7:30pm"}],"vName":"The Jazzlab"},"type":"Feature"},{"geometry":{"coordinates":[144.9870814,-37.799406],"type":"Point"},"properties":{"events":[{"categories":["Music"],"eDate":"2025-06-05","eName":"Maggie Alley","genre":"Rock","price":"$23.50","supports":[],"ticketUrl":null,"time":" 7:30pm"},{"categories":["Music"],"eDate":"2025-06-05","eName":"Elo & The Shinkicks","genre":"Rock","price":"$16.35","supports":["Cass Aware"," The Pearlies"],"ticketUrl":null,"time":" 7:30pm"}],"vName":"The Tote Hotel"},"type":"Feature"},{"geometry":{"coordinates":[144.9984324,-37.7729134],"type":"Point"},"properties":{"events":[{"categories":["Music"],"eDate":"2025-06-05","eName":"Reverse Swing Trio","genre":"Jazz","price":"Free","supports":[],"ticketUrl":null,"time":" 6pm"},{"categories":["Music"],"eDate":"2025-06-05","eName":"Áine Tyrrell","genre":"Country/Folk","price":"$38.80","supports":[],"ticketUrl":null,"time":" 8pm"}],"vName":"Wesley Anne"},"type":"Feature"}],"type":"FeatureCollection"}