{"features":[{"geometry":{"coordinates":[144.978682,-37.7981225],"type":"Point"},"properties":{"events":[{"categories":["Free","Music"],"eDate":"2025-11-20","eName":"Xander Cuming","genre":null,"price":"Free","supports":[],"ticketUrl":null,"time":" 9pm"}],"vName":"Baxter's Lot"},"type":"Feature"},{"geometry":{"coordinates":[144.9607158,-37.776327],"type":"Point"},"properties":{"events":[{"categories":["Music"],"eDate":"2025-11-20","eName":"Harper Bloom","genre":"Indie","price":"$13.80 - 16.85","supports":["My Giddy Aunt"," Kash Music"],"ticketUrl":null,"time":" 7pm"}],"vName":"Bergy Bandroom"},"type":"Feature"},{"geometry":{"coordinates":[144.9945274,-37.8001115],"type":"Point"},"properties":{"events":[{"categories":["Free","Music","Other \"Food \""],"eDate":"2025-11-20","eName":"Black Jesus Experience","genre":null,"price":"Free","supports":[],"ticketUrl":null,"time":" 7:30pm"},{"categories":["Comedy","Other \"Food \""],"eDate":"2025-11-20","eName":"On The Gags Comedy","genre":null,"price":"$22.00","supports":["more"],"ticketUrl":null,"time":" 7:30pm"}],"vName":"Bodriggy Brewing Company"},"type":"Feature"},{"geometry":{"coordinates":[144.9617083,-37.7704205],"type":"Point"},"properties":{"events":[{"categories":["Music"],"eDate":"2025-11-20","eName":"Charm Of Finches","genre":"Country/Folk","price":"$33.76","supports":[],"ticketUrl":null,"time":" 8pm"}],"vName":"Brunswick Ballroom"},"type":"Feature"},{"geometry":{"coordinates":[145.0004166,-37.7612582],"type":"Point"},"properties":{"events":[{"categories":["Free","Music"],"eDate":"2025-11-20","eName":"Succulent Thursday","genre":"Country/Folk","price":"Free","supports":["Mystery Shopper"," Grant Money"],"ticketUrl":null,"time":" 7pm"}],"vName":"Cactus Room"},"type":"Feature"},{"geometry":{"coordinates":[145.0002585,-37.7592368],"type":"Point"},"properties":{"events":[{"categories":["Music"],"eDate":"2025-11-20","eName":"The Nova Fiends","genre":null,"price":"$15.00","supports":["Sheep Dog"," The Ians"],"ticketUrl":null,"time":" 7pm"}],"vName":"Cafe Gummo"},"type":"Feature"},{"geometry":{"coordinates":[144.9713425,-37.8128595],"type":"Point"},"properties":{"events":[{"categories":["Music"],"eDate":"2025-11-20","eName":"Heavy Fest #4: The Midnight Devils","genre":"Rock","price":"$22.59","supports":["Karly Jewell"," Crosson"," Engraved"],"ticketUrl":null,"time":" 7pm"}],"vName":"Cherry Bar"},"type":"Feature"},{"geometry":{"coordinates":[144.9784379,-37.7975956],"type":"Point"},"properties":{"events":[{"categories":["Music"],"eDate":"2025-11-20","eName":"ARIE ROSE","genre":"Metal","price":"$15.00","supports":["Big Fat Elephant"," Dennis"],"ticketUrl":null,"time":" 7:30pm"}],"vName":"Creatures of Habit Bar & Bandroom"},"type":"Feature"},{"geometry":{"coordinates":[144.9679835,-37.8201575],"type":"Point"},"properties":{"events":[{"categories":["Music"],"eDate":"2025-11-20","eName":"Ryman Healthcare Spring Gala: Joyce DiDonato","genre":"Classical","price":"$76.00","supports":[],"ticketUrl":null,"time":" 7:30pm"}],"vName":"Hamer Hall (Arts Centre Melbourne)"},"type":"Feature"},{"geometry":{"coordinates":[144.973013,-37.8640582],"type":"Point"},"properties":{"events":[{"categories":["Music"],"eDate":"2025-11-20","eName":"Ben Ottewell & Ian Ball Present: Gomez By Request","genre":"Rock","price":"$64.15","supports":[],"ticketUrl":null,"time":" 7:30pm"},{"categories":["Free","Music"],"eDate":"2025-11-20","eName":"Slander Tongue","genre":"Rock","price":"Free","supports":["Blowers"," Handgrenade Hearts"],"ticketUrl":null,"time":" 7:30pm"}],"vName":"Hotel Esplanade (aka The Espy)"},"type":"Feature"},{"geometry":{"coordinates":[145.0314658,-37.8067273],"type":"Point"},"properties":{"events":[{"categories":["Music"],"eDate":"2025-11-20","eName":"Bridges of Sound: From Smyrna to Silk Road","genre":null,"price":"$20.00","supports":[],"ticketUrl":null,"time":" 7:30pm"}],"vName":"Kew Court House"},"type":"Feature"},{"geometry":{"coordinates":[144.8984802,-37.8111559],"type":"Point"},"properties":{"events":[{"categories":["Music"],"eDate":"2025-11-20","eName":"Alison Ferrier Duo","genre":"Country/Folk","price":"Free","supports":[],"ticketUrl":null,"time":" 1pm"}],"vName":"Kindred Bandroom"},"type":"Feature"},{"geometry":{"coordinates":[144.9658499,-37.8147453],"type":"Point"},"properties":{"events":[{"categories":["Music"],"eDate":"2025-11-20","eName":"Noize MC","genre":"Hip Hop","price":"$155.00","supports":[],"ticketUrl":null,"time":" 7:30pm"}],"vName":"Max Watt's (Melbourne)"},"type":"Feature"},{"geometry":{"coordinates":[144.9675876,-37.8240849],"type":"Point"},"properties":{"events":[{"categories":["Music"],"eDate":"2025-11-20","eName":"Sonorous XII: Rohan Rebeiro & Prudence Rees-Lee","genre":"Electronic","price":"$37.00 - 50.00","supports":[],"ticketUrl":null,"time":" 7pm"},{"categories":["Music"],"eDate":"2025-11-20","eName":"Melbourne Chamber Orchestra: Nightingale","genre":"Classical","price":"$72.00","supports":[],"ticketUrl":null,"time":" 7:30pm"}],"vName":"Melbourne Recital Centre"},"type":"Feature"},{"geometry":{"coordinates":[144.9790251,-37.8675008],"type":"Point"},"properties":{"events":[{"categories":["Music"],"eDate":"2025-11-20","eName":"Eric Gales","genre":"Rock","price":"Free","supports":["The McNamarr Project"],"ticketUrl":null,"time":" 7pm"}],"vName":"Memo Music Hall"},"type":"Feature"},{"geometry":{"coordinates":[144.9895284,-37.7993224],"type":"Point"},"properties":{"events":[{"categories":["Music"],"eDate":"2025-11-20","eName":"Think About You: Residency","genre":null,"price":"$15.00","supports":["Craig Dermody"," Piggietails"],"ticketUrl":null,"time":" 8pm"}],"vName":"Nighthawks"},"type":"Feature"},{"geometry":{"coordinates":[144.9982706,-37.7737068],"type":"Point"},"properties":{"events":[{"categories":["Music"],"eDate":"2025-11-20","eName":"Derrick Gee","genre":"Acoustic","price":"$57.32","supports":[],"ticketUrl":null,"time":" 7:30pm"}],"vName":"Northcote Theatre"},"type":"Feature"},{"geometry":{"coordinates":[144.96084,-37.813514],"type":"Point"},"properties":{"events":[{"categories":["Music"],"eDate":"2025-11-20","eName":"The Darryn Farrugia Project","genre":"Jazz","price":"$40.00","supports":[],"ticketUrl":null,"time":" 6:30pm"},{"categories":["Music"],"eDate":"2025-11-20","eName":"Kult Khruangbin Performed By Stat","genre":"Soul/Funk","price":"$40.00","supports":[],"ticketUrl":null,"time":" 8pm"}],"vName":"Paris Cat Jazz Club"},"type":"Feature"},{"geometry":{"coordinates":[144.9657057,-37.8061581],"type":"Point"},"properties":{"events":[{"categories":["Music"],"eDate":"2025-11-20","eName":"Star-Jock*","genre":"Rock","price":"$17.75","supports":["The Opals"," Day Dreamers"],"ticketUrl":null,"time":" 7:30pm"}],"vName":"The Curtin"},"type":"Feature"},{"geometry":{"coordinates":[144.9794553,-37.7982653],"type":"Point"},"properties":{"events":[{"categories":["Music"],"eDate":"2025-11-20","eName":"Corto.alto","genre":"Jazz","price":"$39.90","supports":[],"ticketUrl":null,"time":" 7pm"}],"vName":"The Night Cat"},"type":"Feature"},{"geometry":{"coordinates":[144.9661635,-37.8176298],"type":"Point"},"properties":{"events":[{"categories":["Music"],"eDate":"2025-11-20","eName":"Ella Haber","genre":"Soul/Funk","price":"$28.50","supports":["College Of Knowledge DJs"," Nkechi Anele"],"ticketUrl":null,"time":" 8pm"}],"vName":"Wax Music Lounge"},"type":"Feature"},{"geometry":{"coordinates":[144.9984324,-37.7729134],"type":"Point"},"properties":{"events":[{"categories":["Music"],"eDate":"2025-11-20","eName":"Ania","genre":"Jazz","price":"Free","supports":[],"ticketUrl":null,"time":" 6pm"},{"categories":["Music"],"eDate":"2025-11-20","eName":"James Draper","genre":"Indie","price":"$36.25","supports":[],"ticketUrl":null,"time":" 7pm"}],"vName":"Wesley Anne"},"type":"Feature"}],"type":"FeatureCollection"}