{"features":[{"geometry":{"coordinates":[144.99828116650363,-37.7713296],"type":"Point"},"properties":{"events":[{"categories":["Music"],"eDate":"2024-08-03","eName":"Britpopalooza","genre":"Indie","price":"$15.00","supports":[],"ticketUrl":null,"time":" 8:30pm"}],"vName":"Bar 303"},"type":"Feature"},{"geometry":{"coordinates":[144.978425,-37.79773],"type":"Point"},"properties":{"events":[{"categories":["Music"],"eDate":"2024-08-03","eName":"Tina & The Hams","genre":"Indie","price":"$17.35 - 20.00","supports":["The Sharp Edges"," MONTANA SHARP"],"ticketUrl":null,"time":" 8:30pm"}],"vName":"Bar Open"},"type":"Feature"},{"geometry":{"coordinates":[144.978682,-37.7981225],"type":"Point"},"properties":{"events":[{"categories":["Free","Music"],"eDate":"2024-08-03","eName":"Nomar Jr","genre":null,"price":"Free","supports":[],"ticketUrl":null,"time":"10pm"}],"vName":"Baxter's Lot"},"type":"Feature"},{"geometry":{"coordinates":[144.9607158,-37.776327],"type":"Point"},"properties":{"events":[{"categories":["Music"],"eDate":"2024-08-03","eName":"The Real Songwriters of Melbourne Kids Live Mic","genre":"Indie","price":"$22.95 - 28.05","supports":[],"ticketUrl":null,"time":" 2pm"},{"categories":["Music"],"eDate":"2024-08-03","eName":"Tash","genre":"Soul/Funk","price":"$20.00","supports":["Squid the Kid"," Jay Kira"],"ticketUrl":null,"time":" 8pm"}],"vName":"Bergy Bandroom"},"type":"Feature"},{"geometry":{"coordinates":[145.12326813392298,-38.14614695],"type":"Point"},"properties":{"events":[{"categories":["Theatre"],"eDate":"2024-08-03","eName":"Agatha Christie's The Mousetrap","genre":null,"price":"$85.00 - 99.00","supports":[],"ticketUrl":null,"time":" 2pm"}],"vName":"Frankston Arts Centre"},"type":"Feature"},{"geometry":{"coordinates":[144.98535244416098,-37.79426315],"type":"Point"},"properties":{"events":[{"categories":["Music"],"eDate":"2024-08-03","eName":"IJALE","genre":"Hip Hop","price":"$17.85","supports":["Shreta"," DJ Noli"],"ticketUrl":null,"time":" 7:30pm"}],"vName":"Gasometer Hotel"},"type":"Feature"},{"geometry":{"coordinates":[144.9875917,-37.7963837],"type":"Point"},"properties":{"events":[{"categories":["Free","Music"],"eDate":"2024-08-03","eName":"Hot Sexx + Paddock Bomb","genre":"Rock","price":"Free","supports":[],"ticketUrl":null,"time":" 4pm"}],"vName":"Gem Bar"},"type":"Feature"},{"geometry":{"coordinates":[144.973013,-37.8640582],"type":"Point"},"properties":{"events":[{"categories":["Music"],"eDate":"2024-08-03","eName":"Luke Morris & The Heavy Hitters","genre":"Indie","price":"$25.00","supports":["Will Hearn"],"ticketUrl":null,"time":" 6:30pm"}],"vName":"Hotel Esplanade (aka The Espy)"},"type":"Feature"},{"geometry":{"coordinates":[144.9596527,-37.7720304],"type":"Point"},"properties":{"events":[{"categories":["Music"],"eDate":"2024-08-03","eName":"Eliza & The Delusionals","genre":"Indie","price":"$36.21","supports":[],"ticketUrl":null,"time":" 8pm"}],"vName":"Howler"},"type":"Feature"},{"geometry":{"coordinates":[144.8971518,-37.8054274],"type":"Point"},"properties":{"events":[{"categories":["Free","Music","Other \"Spoken Word\"","Other \"Poetry & Forums\""],"eDate":"2024-08-03","eName":"Mahikai Mini Sound Test: Open Mic Poetry","genre":null,"price":"Free","supports":[],"ticketUrl":null,"time":" 6pm"}],"vName":"Mamma Chen's"},"type":"Feature"},{"geometry":{"coordinates":[144.96741062735794,-37.82454855],"type":"Point"},"properties":{"events":[{"categories":["Music"],"eDate":"2024-08-03","eName":"Michelle Nicolle: Songs in the Key of W","genre":"Jazz","price":"$50.00","supports":[],"ticketUrl":null,"time":" 7pm"}],"vName":"Melbourne Recital Centre"},"type":"Feature"},{"geometry":{"coordinates":[144.9786817,-37.8671902],"type":"Point"},"properties":{"events":[{"categories":["Music"],"eDate":"2024-08-03","eName":"Into The Mystic: The Music Of Van Morrison","genre":"Rock","price":"$35.00 - 55.00","supports":[],"ticketUrl":null,"time":" 7pm"}],"vName":"Memo Music Hall"},"type":"Feature"},{"geometry":{"coordinates":[145.1496717,-37.7125259],"type":"Point"},"properties":{"events":[{"categories":["Music"],"eDate":"2024-08-03","eName":"Gold Chisel: Australia's #1 Cold Chisel Tribute","genre":"Rock","price":"$35.00","supports":[],"ticketUrl":null,"time":" 9pm"}],"vName":"Missing Gorilla"},"type":"Feature"},{"geometry":{"coordinates":[144.998414,-37.771471],"type":"Point"},"properties":{"events":[{"categories":["Music"],"eDate":"2024-08-03","eName":"Jess Ball","genre":"Pop","price":"$21.45","supports":["Riordan"," Nikki Wishart"," Dylan Jett"],"ticketUrl":null,"time":" 8pm"}],"vName":"Northcote Social Club"},"type":"Feature"},{"geometry":{"coordinates":[144.9605705,-37.8132486],"type":"Point"},"properties":{"events":[{"categories":["Music"],"eDate":"2024-08-03","eName":"Sangria Serenades with Sergio Ercole","genre":"Jazz","price":"$40.00","supports":[],"ticketUrl":null,"time":" 6pm"},{"categories":["Music"],"eDate":"2024-08-03","eName":"Great American Songbook Project with Emma Gilmartin & Nick Hayward","genre":"Jazz","price":"$40.00","supports":[],"ticketUrl":null,"time":" 6:30pm"},{"categories":["Music"],"eDate":"2024-08-03","eName":"Not So Big Band: Shaken Not Stirred - The Music of James Bond","genre":"Jazz","price":"$45.00","supports":[],"ticketUrl":null,"time":" 9pm"},{"categories":["Music"],"eDate":"2024-08-03","eName":"Jazz at the Movies with Richard Pavlidis","genre":"Jazz","price":"$45.00","supports":[],"ticketUrl":null,"time":" 9:30pm"}],"vName":"Paris Cat Jazz Club"},"type":"Feature"},{"geometry":{"coordinates":[144.9644769,-37.7534967],"type":"Point"},"properties":{"events":[{"categories":["Music"],"eDate":"2024-08-03","eName":"Peter Freebairn with Radio Vertigo","genre":"Acoustic","price":"Free","supports":[],"ticketUrl":null,"time":" 8pm"}],"vName":"Post Office Hotel"},"type":"Feature"},{"geometry":{"coordinates":[144.9615882,-37.7711432],"type":"Point"},"properties":{"events":[{"categories":["Music"],"eDate":"2024-08-03","eName":"Country Folk Saturday","genre":"Country/Folk","price":"$10.00","supports":[],"ticketUrl":null,"time":" 2:30pm"},{"categories":["Music"],"eDate":"2024-08-03","eName":"Special Feelings","genre":"Jazz","price":"$10.00 - 15.00","supports":["Tobi Oladele"," Alex Spicer"],"ticketUrl":null,"time":" 7:30pm"}],"vName":"Retreat Hotel"},"type":"Feature"},{"geometry":{"coordinates":[144.9631913,-37.7617818],"type":"Point"},"properties":{"events":[{"categories":["Free","Music"],"eDate":"2024-08-03","eName":"Kakarot! + SLAUX","genre":"Soul/Funk","price":"Free","supports":[],"ticketUrl":null,"time":" 8pm"}],"vName":"Ringo Barr"},"type":"Feature"},{"geometry":{"coordinates":[144.9657057,-37.8061581],"type":"Point"},"properties":{"events":[{"categories":["Music"],"eDate":"2024-08-03","eName":"Jerry Double","genre":"Jazz","price":"$19.80","supports":["Kuzco"," Birdsnake"],"ticketUrl":null,"time":" 8pm"}],"vName":"The Curtin"},"type":"Feature"},{"geometry":{"coordinates":[144.9708437,-37.7973184],"type":"Point"},"properties":{"events":[{"categories":["Free","Music"],"eDate":"2024-08-03","eName":"Jazz Arvos","genre":"Jazz","price":"Free","supports":[],"ticketUrl":null,"time":" 5pm"},{"categories":["Free","Music","Other \"Cabaret\""],"eDate":"2024-08-03","eName":"CLUBaret","genre":"Jazz","price":"Free","supports":[],"ticketUrl":null,"time":" 8pm"}],"vName":"The Motley Bauhaus"},"type":"Feature"},{"geometry":{"coordinates":[144.9618426,-37.8125531],"type":"Point"},"properties":{"events":[{"categories":["Free","Music"],"eDate":"2024-08-03","eName":"Sadiva","genre":null,"price":"Free","supports":[],"ticketUrl":null,"time":" 2pm"}],"vName":"Whitehart Bar"},"type":"Feature"}],"type":"FeatureCollection"}