{"features":[{"geometry":{"coordinates":[144.978682,-37.7981225],"type":"Point"},"properties":{"events":[{"categories":["Free","Music"],"eDate":"2025-08-22","eName":"Woody Samson","genre":null,"price":"Free","supports":[],"ticketUrl":null,"time":" 9pm"}],"vName":"Baxter's Lot"},"type":"Feature"},{"geometry":{"coordinates":[144.9891167,-37.7996488],"type":"Point"},"properties":{"events":[{"categories":["Music"],"eDate":"2025-08-22","eName":"War Bear: Fear The Goo","genre":"Metal","price":"$17.35","supports":["Arkángel"," Spacegoat"," Outer Worlds"],"ticketUrl":null,"time":" 8:45pm"}],"vName":"Bendigo Hotel"},"type":"Feature"},{"geometry":{"coordinates":[144.9617083,-37.7704205],"type":"Point"},"properties":{"events":[{"categories":["Music"],"eDate":"2025-08-22","eName":"Loose Tooth","genre":null,"price":"$38.86","supports":[],"ticketUrl":null,"time":" 8:30pm"}],"vName":"Brunswick Ballroom"},"type":"Feature"},{"geometry":{"coordinates":[145.0004166,-37.7612582],"type":"Point"},"properties":{"events":[{"categories":["Music"],"eDate":"2025-08-22","eName":"Ringlets","genre":null,"price":"$20.00","supports":["Dogworld"," Blue Diner"," Special Features"],"ticketUrl":null,"time":" 8pm"}],"vName":"Cactus Room"},"type":"Feature"},{"geometry":{"coordinates":[145.1232659,-38.1461351],"type":"Point"},"properties":{"events":[{"categories":["Music"],"eDate":"2025-08-22","eName":"Sugarman: The Rodriguez Story","genre":"Rock","price":"$85.00","supports":[],"ticketUrl":null,"time":" 7:30pm"}],"vName":"Frankston Arts Centre"},"type":"Feature"},{"geometry":{"coordinates":[144.9777885,-37.8597831],"type":"Point"},"properties":{"events":[{"categories":["Music"],"eDate":"2025-08-22","eName":"Bee & Delsinki","genre":"Country/Folk","price":"Free","supports":[],"ticketUrl":null,"time":" 6:30pm"}],"vName":"Freddie Wimpoles"},"type":"Feature"},{"geometry":{"coordinates":[144.8975289,-37.8022392],"type":"Point"},"properties":{"events":[{"categories":["Free","Music"],"eDate":"2025-08-22","eName":"Jacobfest 2025","genre":null,"price":"Free","supports":["Incident Response"," more"],"ticketUrl":null,"time":" 7:30pm"}],"vName":"Mamma Chen's"},"type":"Feature"},{"geometry":{"coordinates":[144.9658499,-37.8147453],"type":"Point"},"properties":{"events":[{"categories":["Music"],"eDate":"2025-08-22","eName":"Gypsy & The Cat","genre":"Indie","price":"$59.10","supports":[],"ticketUrl":null,"time":" 7pm"}],"vName":"Max Watt's (Melbourne)"},"type":"Feature"},{"geometry":{"coordinates":[144.9982706,-37.7737068],"type":"Point"},"properties":{"events":[{"categories":["Music"],"eDate":"2025-08-22","eName":"The Used: Self Titled","genre":"Punk","price":"Free","supports":[],"ticketUrl":null,"time":" 7pm"}],"vName":"Northcote Theatre"},"type":"Feature"},{"geometry":{"coordinates":[144.96084,-37.813514],"type":"Point"},"properties":{"events":[{"categories":["Music"],"eDate":"2025-08-22","eName":"Matt Arthur & The Lazybones: Six String Blues","genre":"Blues","price":"$45.00","supports":[],"ticketUrl":null,"time":" 9pm"}],"vName":"Paris Cat Jazz Club"},"type":"Feature"},{"geometry":{"coordinates":[144.9615882,-37.7711432],"type":"Point"},"properties":{"events":[{"categories":["Free","Music"],"eDate":"2025-08-22","eName":"Laura & The Hell Cutz","genre":"Rock","price":"Free","supports":["Chloe Booth"," The Takes"],"ticketUrl":null,"time":" 7pm"}],"vName":"Retreat Hotel"},"type":"Feature"},{"geometry":{"coordinates":[144.965405,-37.8117457],"type":"Point"},"properties":{"events":[{"categories":["Music"],"eDate":"2025-08-22","eName":"Tridou","genre":null,"price":"Free","supports":[],"ticketUrl":null,"time":" 6pm"}],"vName":"Section 8"},"type":"Feature"},{"geometry":{"coordinates":[144.9706211,-37.778276],"type":"Point"},"properties":{"events":[{"categories":["Free","Music"],"eDate":"2025-08-22","eName":"Sister Paul + The Wraylettes","genre":null,"price":"Free","supports":[],"ticketUrl":null,"time":" 9pm"}],"vName":"The Beast"},"type":"Feature"},{"geometry":{"coordinates":[144.9794553,-37.7982653],"type":"Point"},"properties":{"events":[{"categories":["Music"],"eDate":"2025-08-22","eName":"End of Fashion: 20th Anniversary Tour","genre":"Rock","price":"$49.96","supports":[],"ticketUrl":null,"time":" 7pm"}],"vName":"The Night Cat"},"type":"Feature"},{"geometry":{"coordinates":[144.9651425,-37.8119429],"type":"Point"},"properties":{"events":[{"categories":["Music"],"eDate":"2025-08-22","eName":"THEY DON’T C US","genre":null,"price":"$14.28","supports":["Monnie"," Eli"],"ticketUrl":null,"time":" 7pm"},{"categories":["Music"],"eDate":"2025-08-22","eName":"Paprika: THEY DON’T C US","genre":null,"price":"$14.28","supports":[],"ticketUrl":null,"time":" 7pm"},{"categories":["Music"],"eDate":"2025-08-22","eName":"The Art of the Side Room: Mike G Takeover","genre":"Electronic","price":"Free","supports":["DJ Friday"," No Era"],"ticketUrl":null,"time":" 9pm"}],"vName":"The Toff In Town"},"type":"Feature"},{"geometry":{"coordinates":[144.9769451,-37.8055776],"type":"Point"},"properties":{"events":[{"categories":["Music"],"eDate":"2025-08-22","eName":"Dërty Bërd: BërdFest","genre":"Soul/Funk","price":"$17.50","supports":["Gusto Gusto"," Please People"," 3 Base Hit"],"ticketUrl":null,"time":" 8pm"}],"vName":"The Workers Club"},"type":"Feature"},{"geometry":{"coordinates":[144.2195588,-37.0663699],"type":"Point"},"properties":{"events":[{"categories":["Music"],"eDate":"2025-08-22","eName":"Northlane","genre":"Metal","price":"$54.90","supports":["Ocean Grove"," Mirrors"," Lune"],"ticketUrl":null,"time":" 6:30pm"}],"vName":"Theatre Royal Castlemaine"},"type":"Feature"}],"type":"FeatureCollection"}