{"features":[{"geometry":{"coordinates":[144.9715791,-37.8140656],"type":"Point"},"properties":{"events":[{"categories":["Music"],"eDate":"2024-03-01","eName":"Diesel","genre":"Rock","price":"$97.62","supports":[],"ticketUrl":null,"time":" 8pm"}],"vName":"Athenaeum Theatre"},"type":"Feature"},{"geometry":{"coordinates":[144.9763781,-37.7983136],"type":"Point"},"properties":{"events":[{"categories":["Music"],"eDate":"2024-03-01","eName":"Ges√πnolike","genre":"Rock","price":"$16.53","supports":["The Doogsoogs"," The Clever References"],"ticketUrl":null,"time":" 8pm"}],"vName":"Bad Decisions Bar"},"type":"Feature"},{"geometry":{"coordinates":[144.978425,-37.79773],"type":"Point"},"properties":{"events":[{"categories":["Free","Music"],"eDate":"2024-03-01","eName":"The Four Scoops","genre":"Jazz","price":"Free","supports":[],"ticketUrl":null,"time":" 6pm"}],"vName":"Bar Open"},"type":"Feature"},{"geometry":{"coordinates":[144.9599103,-37.8160263],"type":"Point"},"properties":{"events":[{"categories":["Music"],"eDate":"2024-03-01","eName":"Rainbow Disco Club: 15 Years","genre":null,"price":"$50.00","supports":["Aldonna"," DJ Jnett"," KABUTO"," Kikiorix"," Moopie"," Sisi"," Sophie McAlister"," Tornado Wallace"],"ticketUrl":null,"time":" 8pm"}],"vName":"Bourke Street Courtyard"},"type":"Feature"},{"geometry":{"coordinates":[145.00025846036164,-37.7592368],"type":"Point"},"properties":{"events":[{"categories":["Music"],"eDate":"2024-03-01","eName":"Low Monroe & The Fugitives","genre":null,"price":"$10.00","supports":["Signal Chain"],"ticketUrl":null,"time":" 6pm"}],"vName":"Cafe Gummo"},"type":"Feature"},{"geometry":{"coordinates":[144.99266639479475,-37.82488935],"type":"Point"},"properties":{"events":[{"categories":["Music"],"eDate":"2024-03-01","eName":"Boo Seeka","genre":"Electronic","price":"$40.00","supports":[],"ticketUrl":null,"time":" 6pm"}],"vName":"Corner Hotel"},"type":"Feature"},{"geometry":{"coordinates":[144.9679835243618,-37.8201575],"type":"Point"},"properties":{"events":[{"categories":["Music"],"eDate":"2024-03-01","eName":"An Evening With Daniel O'Donnell","genre":"Country/Folk","price":"$99.90","supports":[],"ticketUrl":null,"time":" 7:30pm"}],"vName":"Hamer Hall (Arts Centre Melbourne)"},"type":"Feature"},{"geometry":{"coordinates":[144.9764962,-37.7983139],"type":"Point"},"properties":{"events":[{"categories":["Music"],"eDate":"2024-03-01","eName":"CLASSIX - Fridays","genre":null,"price":"$11.36","supports":[],"ticketUrl":null,"time":" 8pm"},{"categories":["Music"],"eDate":"2024-03-01","eName":"The Laundry Tapes 3","genre":"Hip Hop","price":"$16.53","supports":["Suso The Don"," Manic"," Creation"," MB1"," 64z"," D Kuir"," $KP"," Yung Gus"," B Goat"," Yvng Cjay"],"ticketUrl":null,"time":" 8pm"}],"vName":"Laundry Bar"},"type":"Feature"},{"geometry":{"coordinates":[144.9936498,-37.8000264],"type":"Point"},"properties":{"events":[{"categories":["Free","Music"],"eDate":"2024-03-01","eName":"Patrick Wilson","genre":"Country/Folk","price":"Free","supports":[],"ticketUrl":null,"time":" 7pm"}],"vName":"Lulie Tavern"},"type":"Feature"},{"geometry":{"coordinates":[144.8971518,-37.8054274],"type":"Point"},"properties":{"events":[{"categories":["Music"],"eDate":"2024-03-01","eName":"Morningbirds","genre":null,"price":"$10.00 - 15.00","supports":["Sorry"," Dave"," Double Happiness"," Superdiver"],"ticketUrl":null,"time":" 7pm"}],"vName":"Mamma Chen's"},"type":"Feature"},{"geometry":{"coordinates":[144.96741062735794,-37.82454855],"type":"Point"},"properties":{"events":[{"categories":["Music"],"eDate":"2024-03-01","eName":"Michael Rother & Friends Play the Music of Neu!","genre":"Electronic","price":"$55.00","supports":[],"ticketUrl":null,"time":" 7:30pm"}],"vName":"Melbourne Recital Centre"},"type":"Feature"},{"geometry":{"coordinates":[145.3553553,-37.9078552],"type":"Point"},"properties":{"events":[{"categories":["Free","Music"],"eDate":"2024-03-01","eName":"Playlist Acoustic Duo","genre":"Acoustic","price":"Free","supports":[],"ticketUrl":null,"time":" 7pm"}],"vName":"Micawber Tavern"},"type":"Feature"},{"geometry":{"coordinates":[144.998414,-37.771471],"type":"Point"},"properties":{"events":[{"categories":["Music"],"eDate":"2024-03-01","eName":"Bones & Jones","genre":"Rock","price":"$24.00","supports":["Mika"," Winsky"],"ticketUrl":null,"time":" 8:30pm"}],"vName":"Northcote Social Club"},"type":"Feature"},{"geometry":{"coordinates":[144.9977626,-37.7755001],"type":"Point"},"properties":{"events":[{"categories":["Music"],"eDate":"2024-03-01","eName":"COG","genre":"Metal","price":"$79.90","supports":["Yomi Ship"," Kodiak Empire"],"ticketUrl":null,"time":" 7:30pm"}],"vName":"Northcote Theatre"},"type":"Feature"},{"geometry":{"coordinates":[145.0142411,-37.7310367],"type":"Point"},"properties":{"events":[{"categories":["Free","Music"],"eDate":"2024-03-01","eName":"Boof!","genre":"Soul/Funk","price":"Free","supports":[],"ticketUrl":null,"time":" 8:30pm"}],"vName":"Ragtime Tavern"},"type":"Feature"},{"geometry":{"coordinates":[144.9615882,-37.7711432],"type":"Point"},"properties":{"events":[{"categories":["Comedy"],"eDate":"2024-03-01","eName":"Manorism","genre":"Rock","price":"$15.68","supports":["Real Good Company"," Blobfish Records DJs"," Caisha Sprout"],"ticketUrl":null,"time":" 7:30pm"}],"vName":"Retreat Hotel"},"type":"Feature"},{"geometry":{"coordinates":[144.9631913,-37.7617818],"type":"Point"},"properties":{"events":[{"categories":["Music"],"eDate":"2024-03-01","eName":"Proponent Records Presents: Blue Captive x Emmie Li","genre":"Electronic","price":"$10.00","supports":["BlaziVire"," Ryan McDougall"],"ticketUrl":null,"time":" 7pm"},{"categories":["Music"],"eDate":"2024-03-01","eName":"Blue Captive","genre":"Pop","price":"$10.00","supports":["Emmie Li"," Proponent Records DJs"],"ticketUrl":null,"time":" 7pm"}],"vName":"Ringo Barr"},"type":"Feature"},{"geometry":{"coordinates":[144.965405,-37.8117457],"type":"Point"},"properties":{"events":[{"categories":["Free","Music"],"eDate":"2024-03-01","eName":"Barely Legal: Day 2 of Section 8's 18th Birthday","genre":"Electronic","price":"Free","supports":[],"ticketUrl":null,"time":" 6pm"}],"vName":"Section 8"},"type":"Feature"},{"geometry":{"coordinates":[145.001392343033,-37.75592655],"type":"Point"},"properties":{"events":[{"categories":["Music"],"eDate":"2024-03-01","eName":"BreaknBread Productions presents Shynin Armour","genre":"Hip Hop","price":"$14.55","supports":["Hyina Mufasa"," Plire"," Where Is Leroy?"," Clara Vizzy"," DJ Mizhap"," DJ Ki"," Greeley"," Zero Sessions Dance Crew"],"ticketUrl":null,"time":" 7:30pm"}],"vName":"Shotkickers"},"type":"Feature"},{"geometry":{"coordinates":[144.97515565,-37.805788500000006],"type":"Point"},"properties":{"events":[{"categories":["Music"],"eDate":"2024-03-01","eName":"Left at the Avenue","genre":null,"price":"$18.37","supports":["Cooldad"," Meraki Minds"],"ticketUrl":null,"time":" 7:30pm"}],"vName":"The Catfish"},"type":"Feature"},{"geometry":{"coordinates":[144.9657057,-37.8061581],"type":"Point"},"properties":{"events":[{"categories":["Music"],"eDate":"2024-03-01","eName":"Mournful Congregation + Faceless Burial","genre":"Metal","price":"$43.80","supports":["Malignant Aura"," Vile Apparition"],"ticketUrl":null,"time":" 8pm"}],"vName":"The Curtin"},"type":"Feature"},{"geometry":{"coordinates":[144.9651425,-37.8119429],"type":"Point"},"properties":{"events":[{"categories":["Music"],"eDate":"2024-03-01","eName":"Hyper Toff","genre":"Pop","price":"$12.24 - 17.34","supports":[],"ticketUrl":null,"time":"10pm"}],"vName":"The Toff In Town"},"type":"Feature"},{"geometry":{"coordinates":[144.9846126,-37.7989941],"type":"Point"},"properties":{"events":[{"categories":["Music"],"eDate":"2024-03-01","eName":"Mach Pelican","genre":"Punk","price":"$42.35","supports":["Grindhouse"," Leatherman"," Hot Machine"],"ticketUrl":null,"time":" 7pm"}],"vName":"The Tote Hotel"},"type":"Feature"},{"geometry":{"coordinates":[144.9706095,-37.7783326],"type":"Point"},"properties":{"events":[{"categories":["Music"],"eDate":"2024-03-01","eName":"One Last Battle: Rattleback vs Susan vs Nephalem","genre":"Blues","price":"$10.00","supports":["Mundane Jane"," Paraquay"],"ticketUrl":null,"time":" 7:30pm"}],"vName":"Whole Lotta Love"},"type":"Feature"}],"type":"FeatureCollection"}