{"features":[{"geometry":{"coordinates":[144.609835,-38.1379811],"type":"Point"},"properties":{"events":[{"categories":["Music"],"eDate":"2026-03-08","eName":"James Reyne: Fall Of Crawl Tour","genre":"Rock","price":"$96.90","supports":["Boom Crash Opera"," Nick Barker"],"ticketUrl":null,"time":"12pm"}],"vName":"Bellarine Estate"},"type":"Feature"},{"geometry":{"coordinates":[144.9945274,-37.8001115],"type":"Point"},"properties":{"events":[{"categories":["Other \"Food \"","Festival","Free","Music"],"eDate":"2026-03-08","eName":"El Rito: A New Latin Ritual","genre":null,"price":"Free","supports":["Latin Jazz Club DJs"," DJ Alcalde"],"ticketUrl":null,"time":" 2pm"}],"vName":"Bodriggy Brewing Company"},"type":"Feature"},{"geometry":{"coordinates":[145.0004166,-37.7612582],"type":"Point"},"properties":{"events":[{"categories":["Music"],"eDate":"2026-03-08","eName":"Demise","genre":null,"price":"$18.90","supports":["Bright Sun"," Lay Low"," Pleasers AD"," Knifepoint"],"ticketUrl":null,"time":" 3pm"}],"vName":"Cactus Room"},"type":"Feature"},{"geometry":{"coordinates":[144.9945123,-37.8459118],"type":"Point"},"properties":{"events":[{"categories":["Music"],"eDate":"2026-03-08","eName":"Chicane","genre":"Electronic","price":"$59.57","supports":[],"ticketUrl":null,"time":" 9pm"}],"vName":"Chasers Nightclub"},"type":"Feature"},{"geometry":{"coordinates":[144.9501312,-37.8042459],"type":"Point"},"properties":{"events":[{"categories":["Comedy"],"eDate":"2026-03-08","eName":"Sunday Night Comedy","genre":null,"price":"$10.00","supports":[],"ticketUrl":null,"time":" 7:30pm"}],"vName":"Club Voltaire"},"type":"Feature"},{"geometry":{"coordinates":[144.973013,-37.8640582],"type":"Point"},"properties":{"events":[{"categories":["Music","Free"],"eDate":"2026-03-08","eName":"Jack’s Garage: Keli Holiday","genre":"Electronic","price":"Free","supports":[],"ticketUrl":null,"time":" 7:30pm"}],"vName":"Hotel Esplanade (aka The Espy)"},"type":"Feature"},{"geometry":{"coordinates":[144.9879283,-37.7505509],"type":"Point"},"properties":{"events":[{"categories":["Music"],"eDate":"2026-03-08","eName":"Mark Sinton","genre":"Acoustic","price":"Free","supports":[],"ticketUrl":null,"time":" 4pm"}],"vName":"The Merri Bar"},"type":"Feature"}],"type":"FeatureCollection"}