{"features":[{"geometry":{"coordinates":[144.978682,-37.7981225],"type":"Point"},"properties":{"events":[{"categories":["Music","Free"],"eDate":"2025-07-20","eName":"Griffin Morris","genre":null,"price":"Free","supports":[],"ticketUrl":null,"time":" 9pm"}],"vName":"Baxter's Lot"},"type":"Feature"},{"geometry":{"coordinates":[144.9891167,-37.7996488],"type":"Point"},"properties":{"events":[{"categories":["Markets","Free"],"eDate":"2025-07-20","eName":"Vinyl, Candles & Riffs – A Weekend Of Markets & Music At The Bendi","genre":null,"price":"Free","supports":[],"ticketUrl":null,"time":"12pm"}],"vName":"Bendigo Hotel"},"type":"Feature"},{"geometry":{"coordinates":[144.9945274,-37.8001115],"type":"Point"},"properties":{"events":[{"categories":["Other \"Food \"","Other \"Art \"","Music","Free"],"eDate":"2025-07-20","eName":"Orange Moon: Live In The Brewpub","genre":null,"price":"Free","supports":[],"ticketUrl":null,"time":" 4pm"}],"vName":"Bodriggy Brewing Company"},"type":"Feature"},{"geometry":{"coordinates":[144.9248037,-37.7656716],"type":"Point"},"properties":{"events":[{"categories":["Theatre","Music"],"eDate":"2025-07-20","eName":"Waltzing The Wilarra","genre":"Pop","price":"$44.00","supports":[],"ticketUrl":null,"time":" 7:30pm"}],"vName":"Clocktower Centre"},"type":"Feature"},{"geometry":{"coordinates":[145.0008148,-37.8107158],"type":"Point"},"properties":{"events":[{"categories":["Music"],"eDate":"2025-07-20","eName":"Ben Mastwyk & His Millions","genre":"Country/Folk","price":"$39.80","supports":["No Sleep Till Texas"," Millions Choir"],"ticketUrl":null,"time":" 4pm"}],"vName":"Leadbeater Hotel"},"type":"Feature"},{"geometry":{"coordinates":[144.9976902,-37.7745111],"type":"Point"},"properties":{"events":[{"categories":["Other \"Spoken Word, Poetry \""],"eDate":"2025-07-20","eName":"Garçon by Wani Toaishara","genre":null,"price":"$38.00","supports":[],"ticketUrl":null,"time":" 5pm"}],"vName":"Northcote Town Hall"},"type":"Feature"},{"geometry":{"coordinates":[145.0015248,-37.8258878],"type":"Point"},"properties":{"events":[{"categories":["Music"],"eDate":"2025-07-20","eName":"The Fog","genre":"Country/Folk","price":"Free","supports":[],"ticketUrl":null,"time":" 3pm"}],"vName":"Odeon Richmond"},"type":"Feature"},{"geometry":{"coordinates":[144.9615882,-37.7711432],"type":"Point"},"properties":{"events":[{"categories":["Music"],"eDate":"2025-07-20","eName":"Buttered Loaf","genre":null,"price":"Free","supports":[],"ticketUrl":null,"time":" 8pm"}],"vName":"Retreat Hotel"},"type":"Feature"},{"geometry":{"coordinates":[145.0013923,-37.7559265],"type":"Point"},"properties":{"events":[{"categories":["Music"],"eDate":"2025-07-20","eName":"R.em.edy","genre":"Hip Hop","price":"$23.45","supports":["Grace Chia"],"ticketUrl":null,"time":" 5pm"}],"vName":"Shotkickers"},"type":"Feature"},{"geometry":{"coordinates":[144.9879283,-37.7505509],"type":"Point"},"properties":{"events":[{"categories":["Music"],"eDate":"2025-07-20","eName":"Freya & Tom McGowan","genre":"Acoustic","price":"Free","supports":[],"ticketUrl":null,"time":" 4pm"}],"vName":"The Merri Bar"},"type":"Feature"},{"geometry":{"coordinates":[144.9789774,-37.7885137],"type":"Point"},"properties":{"events":[{"categories":["Music"],"eDate":"2025-07-20","eName":"Beacs + Za Noon","genre":"Indie","price":"$10.00","supports":[],"ticketUrl":null,"time":" 3:30pm"}],"vName":"Tramway Hotel"},"type":"Feature"}],"type":"FeatureCollection"}