{"features":[{"geometry":{"coordinates":[145.0048929,-37.8035316],"type":"Point"},"properties":{"events":[{"categories":["Music","Other \"Spoken Word, Poetry \""],"eDate":"2026-07-18","eName":"WinterLIVE: Wildflower","genre":null,"price":"$59.00","supports":["WILSN"," Nkechi Anele"],"ticketUrl":null,"time":" 7pm"}],"vName":"Abbotsford Convent"},"type":"Feature"},{"geometry":{"coordinates":[144.9500257,-37.8032773],"type":"Point"},"properties":{"events":[{"categories":["Free","Theatre","Other \"Art \""],"eDate":"2026-07-18","eName":"a bit thing","genre":null,"price":"Free","supports":[],"ticketUrl":null,"time":"11am"}],"vName":"Arts House"},"type":"Feature"},{"geometry":{"coordinates":[144.978682,-37.7981225],"type":"Point"},"properties":{"events":[{"categories":["Free","Music"],"eDate":"2026-07-18","eName":"Woody Samson","genre":null,"price":"Free","supports":[],"ticketUrl":null,"time":" 9pm"}],"vName":"Baxter's Lot"},"type":"Feature"},{"geometry":{"coordinates":[144.9945274,-37.8001115],"type":"Point"},"properties":{"events":[{"categories":["Free","Music","Festival","Other \"Food \""],"eDate":"2026-07-18","eName":"Riggy Fest","genre":null,"price":"Free","supports":[],"ticketUrl":null,"time":" 5pm"}],"vName":"Bodriggy Brewing Company"},"type":"Feature"},{"geometry":{"coordinates":[144.982709011885,-37.76580971811538],"type":"Point"},"properties":{"events":[{"categories":["Free","Music","Markets","Other \"Food \""],"eDate":"2026-07-18","eName":"CERES Winter Twilight Market","genre":"Acoustic","price":"Free","supports":[],"ticketUrl":null,"time":"12pm"}],"vName":"CERES Community Environment Park"},"type":"Feature"},{"geometry":{"coordinates":[144.9832619,-37.8059236],"type":"Point"},"properties":{"events":[{"categories":["Music"],"eDate":"2026-07-18","eName":"No Reason For This Party #5","genre":"Electronic","price":"Free","supports":[],"ticketUrl":null,"time":" 7pm"}],"vName":"Caz Reitop's Dirty Secrets"},"type":"Feature"},{"geometry":{"coordinates":[144.9655776,-37.8317594],"type":"Point"},"properties":{"events":[{"categories":["Music","Other \"Dance \""],"eDate":"2026-07-18","eName":"The New Order","genre":null,"price":"$23.00 - 30.00","supports":[],"ticketUrl":null,"time":" 9pm"}],"vName":"Club Pandora"},"type":"Feature"},{"geometry":{"coordinates":[144.9747815,-37.7689698],"type":"Point"},"properties":{"events":[{"categories":["Music"],"eDate":"2026-07-18","eName":"Get in the Groove!","genre":"Soul/Funk","price":"$15.00 - 30.00","supports":[],"ticketUrl":null,"time":" 6pm"}],"vName":"Cross Street Music Hall"},"type":"Feature"},{"geometry":{"coordinates":[145.0008148,-37.8107158],"type":"Point"},"properties":{"events":[{"categories":["Music","Festival"],"eDate":"2026-07-18","eName":"Kick On Fest 2026","genre":"Punk","price":"$28.85","supports":["The Salmon Sisters"," Dolls"," Billy Cart"," Mudbath"," Fur Blossom"," Cass Aware"],"ticketUrl":null,"time":" 5pm"}],"vName":"Leadbeater Hotel"},"type":"Feature"},{"geometry":{"coordinates":[144.9675876,-37.8240849],"type":"Point"},"properties":{"events":[{"categories":["Music"],"eDate":"2026-07-18","eName":"Rachmaninoff with Piers Lane & Kristian Chong","genre":"Classical","price":"$55.00","supports":[],"ticketUrl":null,"time":" 7pm"},{"categories":["Music"],"eDate":"2026-07-18","eName":"China National Opera: Opera Gala with Orchestra","genre":"Classical","price":"$69.00 - 139.00","supports":[],"ticketUrl":null,"time":" 7:30pm"}],"vName":"Melbourne Recital Centre"},"type":"Feature"},{"geometry":{"coordinates":[145.0896374,-37.8968576],"type":"Point"},"properties":{"events":[{"categories":["Music"],"eDate":"2026-07-18","eName":"Footsteps On The Dancefloor","genre":"Pop","price":"$50.00","supports":[],"ticketUrl":null,"time":" 7:30pm"}],"vName":"Oakleigh-Carnegie RSL"},"type":"Feature"},{"geometry":{"coordinates":[144.992982,-37.8685333],"type":"Point"},"properties":{"events":[{"categories":["Free","Music"],"eDate":"2026-07-18","eName":"Murph & The Magic Tones","genre":null,"price":"Free","supports":[],"ticketUrl":null,"time":" 7:30pm"}],"vName":"Pause Bar"},"type":"Feature"},{"geometry":{"coordinates":[144.9720579,-37.8121675],"type":"Point"},"properties":{"events":[{"categories":["Comedy","Theatre"],"eDate":"2026-07-18","eName":"The Remix: Live Improv Comedy From A Guest’s True Stories","genre":null,"price":"$24.00","supports":[],"ticketUrl":null,"time":" 8:15pm"}],"vName":"The Improv Conspiracy"},"type":"Feature"},{"geometry":{"coordinates":[144.9879283,-37.7505509],"type":"Point"},"properties":{"events":[{"categories":["Music"],"eDate":"2026-07-18","eName":"Manul Roux","genre":"Country/Folk","price":"Free","supports":[],"ticketUrl":null,"time":" 7pm"}],"vName":"The Merri Bar"},"type":"Feature"},{"geometry":{"coordinates":[144.8829759,-37.8442106],"type":"Point"},"properties":{"events":[{"categories":["Music"],"eDate":"2026-07-18","eName":"claire rousay + Lisa Lerkenfeldt","genre":null,"price":"$35.00 - 49.00","supports":[],"ticketUrl":null,"time":" 7pm"}],"vName":"The Substation"},"type":"Feature"},{"geometry":{"coordinates":[144.9870814,-37.799406],"type":"Point"},"properties":{"events":[{"categories":["Music","Festival"],"eDate":"2026-07-18","eName":"Capital Noise Presents: CARPFEST","genre":null,"price":"$20.00","supports":["BlackBird"," Nausicaa"," Cellophanes"],"ticketUrl":null,"time":" 4pm"}],"vName":"The Tote Hotel"},"type":"Feature"},{"geometry":{"coordinates":[144.9769451,-37.8055776],"type":"Point"},"properties":{"events":[{"categories":["Music"],"eDate":"2026-07-18","eName":"Galaxy Music Minifest","genre":null,"price":"$23.50","supports":[],"ticketUrl":null,"time":" 1pm"}],"vName":"The Workers Club"},"type":"Feature"}],"type":"FeatureCollection"}