{"features":[{"geometry":{"coordinates":[144.978283,-37.859552],"type":"Point"},"properties":{"events":[{"categories":["Comedy"],"eDate":"2024-07-05","eName":"Impromptunes - Edinburgh Fringe Fundraiser Double Bill","genre":null,"price":"$33.56","supports":[],"ticketUrl":null,"time":" 8pm"}],"vName":"Alex Theatre"},"type":"Feature"},{"geometry":{"coordinates":[144.99828116650363,-37.7713296],"type":"Point"},"properties":{"events":[{"categories":["Music"],"eDate":"2024-07-05","eName":"The Calabrians","genre":"Rock","price":"Free","supports":[],"ticketUrl":null,"time":" 5pm"}],"vName":"Bar 303"},"type":"Feature"},{"geometry":{"coordinates":[144.978425,-37.79773],"type":"Point"},"properties":{"events":[{"categories":["Free","Music"],"eDate":"2024-07-05","eName":"The Four Scoops","genre":"Jazz","price":"Free","supports":[],"ticketUrl":null,"time":" 6pm"},{"categories":["Music"],"eDate":"2024-07-05","eName":"Rusted Blood","genre":"Punk","price":"$17.35","supports":["Spial"," Achey Peace"],"ticketUrl":null,"time":" 8:30pm"}],"vName":"Bar Open"},"type":"Feature"},{"geometry":{"coordinates":[144.978682,-37.7981225],"type":"Point"},"properties":{"events":[{"categories":["Music"],"eDate":"2024-07-05","eName":"Woody Samson","genre":null,"price":"Free","supports":[],"ticketUrl":null,"time":" 9:30pm"}],"vName":"Baxter's Lot"},"type":"Feature"},{"geometry":{"coordinates":[145.00041662186553,-37.76125825],"type":"Point"},"properties":{"events":[{"categories":["Music","Dance","Art"],"eDate":"2024-07-05","eName":"Dark FOMO 5 - Choose Your Own Adventure","genre":"Rock","price":"$25.00","supports":["Hearts & Rockets"," The Moth Body"],"ticketUrl":null,"time":" 8pm"}],"vName":"Cactus Room"},"type":"Feature"},{"geometry":{"coordinates":[144.9713425,-37.8128595],"type":"Point"},"properties":{"events":[{"categories":["Free","Music"],"eDate":"2024-07-05","eName":"HEAD BANGERS","genre":"Rock","price":"Free","supports":[],"ticketUrl":null,"time":" 5pm"},{"categories":["Music"],"eDate":"2024-07-05","eName":"Zach Bryan Album Listening Party","genre":"Metal","price":"$22.59","supports":[],"ticketUrl":null,"time":" 8pm"}],"vName":"Cherry Bar"},"type":"Feature"},{"geometry":{"coordinates":[144.9248037207342,-37.7656716],"type":"Point"},"properties":{"events":[{"categories":["Comedy"],"eDate":"2024-07-05","eName":"Arj Barker: The Mind Field","genre":null,"price":"$54.90","supports":[],"ticketUrl":null,"time":" 7:30pm"}],"vName":"Clocktower Centre"},"type":"Feature"},{"geometry":{"coordinates":[144.9745581,-37.7694446],"type":"Point"},"properties":{"events":[{"categories":["Music"],"eDate":"2024-07-05","eName":"Phil Noy Trio + Peter Farrar Group","genre":null,"price":"$20.00","supports":[],"ticketUrl":null,"time":" 8pm"}],"vName":"Cross Street Music Hall"},"type":"Feature"},{"geometry":{"coordinates":[144.96947,-37.816565],"type":"Point"},"properties":{"events":[{"categories":["Music"],"eDate":"2024-07-05","eName":"Hot Dub Time Machine","genre":"Electronic","price":"$89.90","supports":[],"ticketUrl":null,"time":" 7pm"}],"vName":"Forum Melbourne"},"type":"Feature"},{"geometry":{"coordinates":[144.8971518,-37.8054274],"type":"Point"},"properties":{"events":[{"categories":["Free","Music"],"eDate":"2024-07-05","eName":"Catharsis 1969","genre":null,"price":"Free","supports":["The Trev"," Immortal Fish"],"ticketUrl":null,"time":" 8pm"}],"vName":"Mamma Chen's"},"type":"Feature"},{"geometry":{"coordinates":[144.9659879,-37.8147557],"type":"Point"},"properties":{"events":[{"categories":["Music"],"eDate":"2024-07-05","eName":"6 Sense","genre":"Electronic","price":"$49.90 - 59.90","supports":["Prizefight"," c000kie"," Renaessance"],"ticketUrl":null,"time":" 9pm"}],"vName":"Max Watt's (Melbourne)"},"type":"Feature"},{"geometry":{"coordinates":[144.998414,-37.771471],"type":"Point"},"properties":{"events":[{"categories":["Music"],"eDate":"2024-07-05","eName":"Sisters Doll","genre":"Rock","price":"$29.10","supports":["Ablaze"," Jett Rose"],"ticketUrl":null,"time":" 8pm"}],"vName":"Northcote Social Club"},"type":"Feature"},{"geometry":{"coordinates":[144.97711,-37.79833],"type":"Point"},"properties":{"events":[{"categories":["Music"],"eDate":"2024-07-05","eName":"Raised As Wolves","genre":"Punk","price":"$11.25","supports":["Raging Hormones"," Dental Plan"," Baby Shower"],"ticketUrl":null,"time":" 8pm"}],"vName":"Old Bar"},"type":"Feature"},{"geometry":{"coordinates":[144.9605705,-37.8132486],"type":"Point"},"properties":{"events":[{"categories":["Music"],"eDate":"2024-07-05","eName":"Langue de Chat","genre":"Jazz","price":"$40.00","supports":[],"ticketUrl":null,"time":" 6:30pm"},{"categories":["Music"],"eDate":"2024-07-05","eName":"The Syncopators","genre":"Jazz","price":"$45.00","supports":[],"ticketUrl":null,"time":" 9pm"},{"categories":["Music"],"eDate":"2024-07-05","eName":"The Romans with Chantal Mitvalsky","genre":"Jazz","price":"$40.00","supports":[],"ticketUrl":null,"time":" 9:30pm"}],"vName":"Paris Cat Jazz Club"},"type":"Feature"},{"geometry":{"coordinates":[144.9615882,-37.7711432],"type":"Point"},"properties":{"events":[{"categories":["Music"],"eDate":"2024-07-05","eName":"Perry Street Park","genre":"Rock","price":"$13.00 - 20.00","supports":["Willowbank Grove"," Strawbz"],"ticketUrl":null,"time":" 7:30pm"}],"vName":"Retreat Hotel"},"type":"Feature"}],"type":"FeatureCollection"}