{"features":[{"geometry":{"coordinates":[144.9679369,-37.8120109],"type":"Point"},"properties":{"events":[{"categories":["Music"],"eDate":"2024-05-30","eName":"Tom Grennan","genre":"Pop","price":"$74.90","supports":[],"ticketUrl":null,"time":" 7pm"}],"vName":"170 Russell"},"type":"Feature"},{"geometry":{"coordinates":[144.9763781,-37.7983136],"type":"Point"},"properties":{"events":[{"categories":["Music"],"eDate":"2024-05-30","eName":"Battle Of The Bands: Heat 5","genre":null,"price":"$11.36","supports":[],"ticketUrl":null,"time":" 8pm"}],"vName":"Bad Decisions Bar"},"type":"Feature"},{"geometry":{"coordinates":[144.99828116650363,-37.7713296],"type":"Point"},"properties":{"events":[{"categories":["Music"],"eDate":"2024-05-30","eName":"13th Anniversary 'Kickin' The B at 303' Hammond Sessions","genre":null,"price":"$30.00","supports":[],"ticketUrl":null,"time":" 8pm"}],"vName":"Bar 303"},"type":"Feature"},{"geometry":{"coordinates":[144.9945274,-37.8001115],"type":"Point"},"properties":{"events":[{"categories":["Free","Music","Other \"Food & Drink\""],"eDate":"2024-05-30","eName":"Uncomfortable Science","genre":null,"price":"Free","supports":["Dr Condiments"],"ticketUrl":null,"time":" 6pm"}],"vName":"Bodriggy Brewing Company"},"type":"Feature"},{"geometry":{"coordinates":[144.9617018,-37.7704566],"type":"Point"},"properties":{"events":[{"categories":["Music"],"eDate":"2024-05-30","eName":"Eugene Hamilton & The Money","genre":"Soul/Funk","price":"$38.86","supports":[],"ticketUrl":null,"time":" 8pm"}],"vName":"Brunswick Ballroom"},"type":"Feature"},{"geometry":{"coordinates":[144.959768,-37.831777],"type":"Point"},"properties":{"events":[{"categories":["Music"],"eDate":"2024-05-30","eName":"Fem Belling + John Montesante Quintet","genre":"Jazz","price":"$18.00","supports":[],"ticketUrl":null,"time":" 7pm"}],"vName":"Golden Gate Hotel"},"type":"Feature"},{"geometry":{"coordinates":[144.8971518,-37.8054274],"type":"Point"},"properties":{"events":[{"categories":["Free","Music","Other \"Spoken Word\"","Other \"Poetry & Forums\""],"eDate":"2024-05-30","eName":"Assorted Sporks - Poetry & Performance","genre":"Experimental","price":"Free","supports":[],"ticketUrl":null,"time":" 7pm"}],"vName":"Mamma Chen's"},"type":"Feature"},{"geometry":{"coordinates":[144.96741062735794,-37.82454855],"type":"Point"},"properties":{"events":[{"categories":["Music"],"eDate":"2024-05-30","eName":"Genevieve Lacey & Marshall McGuire (Early Session)","genre":"Classical","price":"$60.00","supports":[],"ticketUrl":null,"time":" 6pm"},{"categories":["Music"],"eDate":"2024-05-30","eName":"MCO: Blazing Trails","genre":"Classical","price":"$70.00","supports":[],"ticketUrl":null,"time":" 7:30pm"}],"vName":"Melbourne Recital Centre"},"type":"Feature"},{"geometry":{"coordinates":[144.9605705,-37.8132486],"type":"Point"},"properties":{"events":[{"categories":["Music"],"eDate":"2024-05-30","eName":"The Daryl McKenzie Jazz Orchestra with Georga Byrne","genre":"Jazz","price":"$45.00","supports":[],"ticketUrl":null,"time":" 7pm"},{"categories":["Music"],"eDate":"2024-05-30","eName":"Evan Carydakis: The Paradise Beach Tour 2024","genre":"Jazz","price":"$35.00","supports":[],"ticketUrl":null,"time":" 7pm"}],"vName":"Paris Cat Jazz Club"},"type":"Feature"},{"geometry":{"coordinates":[144.9631913,-37.7617818],"type":"Point"},"properties":{"events":[{"categories":["Free","Music"],"eDate":"2024-05-30","eName":"Open Mic Thursdays @ Ringo Barr","genre":"Acoustic","price":"Free","supports":[],"ticketUrl":null,"time":" 7pm"}],"vName":"Ringo Barr"},"type":"Feature"},{"geometry":{"coordinates":[144.9607404,-37.7743469],"type":"Point"},"properties":{"events":[{"categories":["Music"],"eDate":"2024-05-30","eName":"Banshees","genre":"Rock","price":"$15.00 - 20.00","supports":["Keaper"," GRXCE"," Eileen Grace"],"ticketUrl":null,"time":" 7pm"}],"vName":"Stay Gold"},"type":"Feature"},{"geometry":{"coordinates":[144.9657057,-37.8061581],"type":"Point"},"properties":{"events":[{"categories":["Music"],"eDate":"2024-05-30","eName":"JAM Big Band","genre":"Jazz","price":"$22.85","supports":[],"ticketUrl":null,"time":" 7:30pm"}],"vName":"The Curtin"},"type":"Feature"},{"geometry":{"coordinates":[144.9585654,-37.8059962],"type":"Point"},"properties":{"events":[{"categories":["Music"],"eDate":"2024-05-30","eName":"Munted Chunts","genre":"Punk","price":"$15.00","supports":["ScarnOn"," Hail Mary Jane"," Heterophobes"],"ticketUrl":null,"time":" 7:30pm"}],"vName":"The Last Chance Rock & Roll Bar"},"type":"Feature"},{"geometry":{"coordinates":[144.9651425,-37.8119429],"type":"Point"},"properties":{"events":[{"categories":["Music"],"eDate":"2024-05-30","eName":"Olympia","genre":"Indie","price":"$38.76","supports":[],"ticketUrl":null,"time":" 7:30pm"}],"vName":"The Toff In Town"},"type":"Feature"},{"geometry":{"coordinates":[144.9985126,-37.7588241],"type":"Point"},"properties":{"events":[{"categories":["Free","Music"],"eDate":"2024-05-30","eName":"Hume Blues Club","genre":"Blues","price":"Free","supports":["Shake Shack Jammers"],"ticketUrl":null,"time":" 6pm"}],"vName":"Thornbury Bowls Club"},"type":"Feature"}],"type":"FeatureCollection"}