{"features":[{"geometry":{"coordinates":[144.9679369,-37.8120109],"type":"Point"},"properties":{"events":[{"categories":["Music"],"eDate":"2025-04-11","eName":"Bad Manners: 50th Anniversary Tour","genre":"Punk","price":"$69.90","supports":[],"ticketUrl":null,"time":" 8pm"}],"vName":"170 Russell"},"type":"Feature"},{"geometry":{"coordinates":[145.13337431967784,-37.91372355],"type":"Point"},"properties":{"events":[{"categories":["Music","Theatre"],"eDate":"2025-04-11","eName":"Josephine Wants To Dance (Early Session)","genre":"Pop","price":"$35.70 - 42.00","supports":[],"ticketUrl":null,"time":"10am"},{"categories":["Music","Theatre"],"eDate":"2025-04-11","eName":"Josephine Wants To Dance","genre":"Pop","price":"$35.70 - 42.00","supports":[],"ticketUrl":null,"time":"12:30pm"}],"vName":"Alexander Theatre"},"type":"Feature"},{"geometry":{"coordinates":[144.978425,-37.79773],"type":"Point"},"properties":{"events":[{"categories":["Music"],"eDate":"2025-04-11","eName":"Such A Daze","genre":"Rock","price":"$17.35","supports":["Skiptons"," Honeymoon Phase"],"ticketUrl":null,"time":" 8:30pm"}],"vName":"Bar Open"},"type":"Feature"},{"geometry":{"coordinates":[144.978682,-37.7981225],"type":"Point"},"properties":{"events":[{"categories":["Free","Music"],"eDate":"2025-04-11","eName":"Lewis Toms","genre":null,"price":"Free","supports":[],"ticketUrl":null,"time":" 9pm"},{"categories":["Free","Music"],"eDate":"2025-04-11","eName":"DJ Peanut Butter Melly","genre":null,"price":"Free","supports":[],"ticketUrl":null,"time":"10pm"}],"vName":"Baxter's Lot"},"type":"Feature"},{"geometry":{"coordinates":[144.98911674151407,-37.79964875],"type":"Point"},"properties":{"events":[{"categories":["Music"],"eDate":"2025-04-11","eName":"Grim Reality","genre":"Rock","price":"$22.95","supports":["Cutters"," Heat"," Time Peace"," Implode"],"ticketUrl":null,"time":" 8pm"}],"vName":"Bendigo Hotel"},"type":"Feature"},{"geometry":{"coordinates":[144.9607158,-37.776327],"type":"Point"},"properties":{"events":[{"categories":["Music"],"eDate":"2025-04-11","eName":"Pet Therapy","genre":"Rock","price":"$16.85","supports":["Terra Rouge"," Laura & The Hellcutz"," Zero City"],"ticketUrl":null,"time":" 7:30pm"}],"vName":"Bergy Bandroom"},"type":"Feature"},{"geometry":{"coordinates":[144.9567859,-37.8111049],"type":"Point"},"properties":{"events":[{"categories":["Music"],"eDate":"2025-04-11","eName":"Jade MacRae","genre":"Soul/Funk","price":"$38.00","supports":[],"ticketUrl":null,"time":" 7:30pm"}],"vName":"Bird's Basement"},"type":"Feature"},{"geometry":{"coordinates":[144.9947908,-37.8491931],"type":"Point"},"properties":{"events":[{"categories":["Comedy","Theatre"],"eDate":"2025-04-11","eName":"Wage Against The Machine","genre":null,"price":"$22.00 - 25.00","supports":[],"ticketUrl":null,"time":" 7:30pm"},{"categories":["Comedy"],"eDate":"2025-04-11","eName":"Matt Harvey: Wage Against The Machine","genre":null,"price":"$22.00 - 25.00","supports":[],"ticketUrl":null,"time":" 7:30pm"}],"vName":"Chapel Off Chapel"},"type":"Feature"},{"geometry":{"coordinates":[144.9668096,-37.8133834],"type":"Point"},"properties":{"events":[{"categories":["Comedy"],"eDate":"2025-04-11","eName":"Main Stage Festival Showcase","genre":null,"price":"$23.50 - 25.50","supports":[],"ticketUrl":null,"time":"10:30pm"},{"categories":["Music","Comedy"],"eDate":"2025-04-11","eName":"Two Hearts: Heartcore Karaoke","genre":"Pop","price":"$28.50 - 31.50","supports":[],"ticketUrl":null,"time":"11:55pm"}],"vName":"Comedy Republic"},"type":"Feature"},{"geometry":{"coordinates":[144.99266639479475,-37.82488935],"type":"Point"},"properties":{"events":[{"categories":["Music"],"eDate":"2025-04-11","eName":"Psychedelic Porn Crumpets","genre":"Rock","price":"$51.10","supports":[],"ticketUrl":null,"time":" 8:30pm"}],"vName":"Corner Hotel"},"type":"Feature"},{"geometry":{"coordinates":[144.9787445,-37.7967357],"type":"Point"},"properties":{"events":[{"categories":["Music"],"eDate":"2025-04-11","eName":"Fairtrade Narcotics + Intermood","genre":null,"price":"$29.10","supports":["DJ Ponie"],"ticketUrl":null,"time":" 8pm"}],"vName":"Evelyn Hotel"},"type":"Feature"},{"geometry":{"coordinates":[144.973013,-37.8640582],"type":"Point"},"properties":{"events":[{"categories":["Music"],"eDate":"2025-04-11","eName":"Gavin James","genre":"Indie","price":"$63.95","supports":[],"ticketUrl":null,"time":" 7:30pm"}],"vName":"Hotel Esplanade (aka The Espy)"},"type":"Feature"},{"geometry":{"coordinates":[145.0355738,-37.8205529],"type":"Point"},"properties":{"events":[{"categories":["Music"],"eDate":"2025-04-11","eName":"The Michelle Nicolle Band","genre":"Jazz","price":"$25.00 - 30.00","supports":[],"ticketUrl":null,"time":" 8pm"}],"vName":"Lido Jazz Room"},"type":"Feature"},{"geometry":{"coordinates":[144.8971518,-37.8054274],"type":"Point"},"properties":{"events":[{"categories":["Music"],"eDate":"2025-04-11","eName":"Memory Palace","genre":null,"price":"$10.00 - 20.00","supports":["Noise Vows"," Palpitations"],"ticketUrl":null,"time":" 7pm"}],"vName":"Mamma Chen's"},"type":"Feature"},{"geometry":{"coordinates":[144.96741062735794,-37.82454855],"type":"Point"},"properties":{"events":[{"categories":["Music"],"eDate":"2025-04-11","eName":"Peter Combe: Greatest Hits Show","genre":"Pop","price":"$0.00 - 30.00","supports":[],"ticketUrl":null,"time":" 2pm"},{"categories":["Music"],"eDate":"2025-04-11","eName":"The Countertenor: Bach's Holy Spirit","genre":"Classical","price":"$75.00","supports":[],"ticketUrl":null,"time":" 7pm"}],"vName":"Melbourne Recital Centre"},"type":"Feature"},{"geometry":{"coordinates":[144.9786817,-37.8671902],"type":"Point"},"properties":{"events":[{"categories":["Music"],"eDate":"2025-04-11","eName":"We’re Riding with the Kings","genre":"Blues","price":"$29.00 - 49.00","supports":[],"ticketUrl":null,"time":" 7pm"}],"vName":"Memo Music Hall"},"type":"Feature"},{"geometry":{"coordinates":[144.98331211946754,-37.80624775],"type":"Point"},"properties":{"events":[{"categories":["Music"],"eDate":"2025-04-11","eName":"Ancient Methods - DOOM GEN presents: Exclusive Melbourne Industrial Techno Rave","genre":"Electronic","price":"$20.00 - 25.00","supports":["DJ Kiti"," Λ / Π"],"ticketUrl":null,"time":"10pm"}],"vName":"New Guernica"},"type":"Feature"},{"geometry":{"coordinates":[144.998414,-37.771471],"type":"Point"},"properties":{"events":[{"categories":["Music"],"eDate":"2025-04-11","eName":"Ablaze","genre":"Metal","price":"$24.00","supports":[],"ticketUrl":null,"time":" 8pm"}],"vName":"Northcote Social Club"},"type":"Feature"},{"geometry":{"coordinates":[144.9977626,-37.7755001],"type":"Point"},"properties":{"events":[{"categories":["Music"],"eDate":"2025-04-11","eName":"CRUSH3d presents ev3r","genre":"Electronic","price":"$51.20","supports":[],"ticketUrl":null,"time":" 8pm"}],"vName":"Northcote Theatre"},"type":"Feature"},{"geometry":{"coordinates":[144.97711,-37.79833],"type":"Point"},"properties":{"events":[{"categories":["Music"],"eDate":"2025-04-11","eName":"User","genre":"Electronic","price":"$15.00","supports":["Harry Howard Presents Slight Pavillions"," Long Hours"],"ticketUrl":null,"time":" 8pm"}],"vName":"Old Bar"},"type":"Feature"},{"geometry":{"coordinates":[144.9605705,-37.8132486],"type":"Point"},"properties":{"events":[{"categories":["Music"],"eDate":"2025-04-11","eName":"Sondheim: unbound with Elissa Rodger","genre":"Jazz","price":"$45.00","supports":[],"ticketUrl":null,"time":" 6pm"},{"categories":["Music"],"eDate":"2025-04-11","eName":"Nishla Smith sings Billie Holiday","genre":"Jazz","price":"$45.00","supports":[],"ticketUrl":null,"time":" 6:30pm"},{"categories":["Music"],"eDate":"2025-04-11","eName":"Jamie Oehlers/Carl Mackey","genre":"Jazz","price":"$45.00","supports":[],"ticketUrl":null,"time":" 9pm"},{"categories":["Music"],"eDate":"2025-04-11","eName":"The Royal Motown Review with Raleigh Williams & Paul Slattery","genre":"Jazz","price":"$45.00","supports":[],"ticketUrl":null,"time":" 9:30pm"}],"vName":"Paris Cat Jazz Club"},"type":"Feature"},{"geometry":{"coordinates":[144.9615882,-37.7711432],"type":"Point"},"properties":{"events":[{"categories":["Music"],"eDate":"2025-04-11","eName":"Baby Blue","genre":"Indie","price":"$15.00","supports":["Madeline Leman"," Doberwomann"],"ticketUrl":null,"time":" 7:30pm"}],"vName":"Retreat Hotel"},"type":"Feature"},{"geometry":{"coordinates":[144.993413,-37.8506652],"type":"Point"},"properties":{"events":[{"categories":["Music"],"eDate":"2025-04-11","eName":"Ugenius x Valiant x Revolver Fridays: Oppaacha + Dilby","genre":"Electronic","price":"$21.42 - 31.62","supports":["The Journey"," Rachel May"," more"],"ticketUrl":null,"time":"10pm"}],"vName":"Revolver Upstairs"},"type":"Feature"},{"geometry":{"coordinates":[145.001392343033,-37.75592655],"type":"Point"},"properties":{"events":[{"categories":["Music"],"eDate":"2025-04-11","eName":"Buried Feather","genre":"Rock","price":"$23.45","supports":["Neon Goblin"],"ticketUrl":null,"time":" 8pm"}],"vName":"Shotkickers"},"type":"Feature"},{"geometry":{"coordinates":[145.35345070507591,-37.9100746],"type":"Point"},"properties":{"events":[{"categories":["Music"],"eDate":"2025-04-11","eName":"Unlocking The Doors","genre":"Rock","price":"$31.65","supports":[],"ticketUrl":null,"time":" 7pm"}],"vName":"Sooki Lounge"},"type":"Feature"},{"geometry":{"coordinates":[144.9607404,-37.7743469],"type":"Point"},"properties":{"events":[{"categories":["Music"],"eDate":"2025-04-11","eName":"Origami Angel","genre":"Rock","price":"$54.90","supports":[],"ticketUrl":null,"time":" 7pm"},{"categories":["Music"],"eDate":"2025-04-11","eName":"sugarush: Pink Pony Club - Chappell Roan Night","genre":"Pop","price":"$18.00 - 25.00","supports":[],"ticketUrl":null,"time":"11pm"}],"vName":"Stay Gold"},"type":"Feature"},{"geometry":{"coordinates":[145.0988661,-37.7608913],"type":"Point"},"properties":{"events":[{"categories":["Comedy"],"eDate":"2025-04-11","eName":"Bob Downe: Choose Bob! 40 Ridiculous Years","genre":null,"price":"$69.00","supports":[],"ticketUrl":null,"time":" 6:30pm"}],"vName":"The Capitol (RMIT)"},"type":"Feature"},{"geometry":{"coordinates":[144.99959550357977,-37.762376950000004],"type":"Point"},"properties":{"events":[{"categories":["Music"],"eDate":"2025-04-11","eName":"Lime Cordiale","genre":"Indie","price":"$80.30","supports":["Le Shiv"," Stella Bridie"],"ticketUrl":null,"time":" 7pm"}],"vName":"The Croxton"},"type":"Feature"},{"geometry":{"coordinates":[144.9555612,-37.8066759],"type":"Point"},"properties":{"events":[{"categories":["Music"],"eDate":"2025-04-11","eName":"Traditional Irish Music Session","genre":"Country/Folk","price":"Free","supports":[],"ticketUrl":null,"time":" 6pm"},{"categories":["Free","Music"],"eDate":"2025-04-11","eName":"Van Walker & Nick O'Mara","genre":"Country/Folk","price":"Free","supports":[],"ticketUrl":null,"time":" 8:30pm"}],"vName":"The Drunken Poet"},"type":"Feature"},{"geometry":{"coordinates":[144.958676,-37.7669571],"type":"Point"},"properties":{"events":[{"categories":["Music"],"eDate":"2025-04-11","eName":"Toqui","genre":"Jazz","price":"$25.00 - 30.00","supports":["Cy Gorman"],"ticketUrl":null,"time":" 8pm"}],"vName":"The Jazzlab"},"type":"Feature"},{"geometry":{"coordinates":[144.9585654,-37.8059962],"type":"Point"},"properties":{"events":[{"categories":["Music"],"eDate":"2025-04-11","eName":"Barbarion","genre":"Metal","price":"$23.50","supports":["Porcus vs Equus"],"ticketUrl":null,"time":" 8pm"}],"vName":"The Last Chance Rock & Roll Bar"},"type":"Feature"},{"geometry":{"coordinates":[145.0010957,-37.7546577],"type":"Point"},"properties":{"events":[{"categories":["Comedy"],"eDate":"2025-04-11","eName":"Kirsty Webeck: Everything I Need To Say About Sea Creatures","genre":null,"price":"$35.00","supports":[],"ticketUrl":null,"time":" 6pm"}],"vName":"The Thornbury Theatre"},"type":"Feature"},{"geometry":{"coordinates":[144.9651425,-37.8119429],"type":"Point"},"properties":{"events":[{"categories":["Free","Music"],"eDate":"2025-04-11","eName":"CHARBINK$","genre":"Electronic","price":"Free","supports":["Iishii"," Zii"],"ticketUrl":null,"time":" 9pm"},{"categories":["Free","Music"],"eDate":"2025-04-11","eName":"Is That Garage?","genre":"Electronic","price":"Free","supports":[],"ticketUrl":null,"time":"11pm"}],"vName":"The Toff In Town"},"type":"Feature"},{"geometry":{"coordinates":[144.9769450659087,-37.8055776],"type":"Point"},"properties":{"events":[{"categories":["Music"],"eDate":"2025-04-11","eName":"+++! GO DOWN UNDA: Church & AP","genre":"Hip Hop","price":"$15.00","supports":["deadforest"," Dera Meelan"," RNZÕ"," Zion Garcia"," Srirachi"],"ticketUrl":null,"time":" 6:30pm"}],"vName":"The Workers Club"},"type":"Feature"},{"geometry":{"coordinates":[144.9618426,-37.8125531],"type":"Point"},"properties":{"events":[{"categories":["Free","Music"],"eDate":"2025-04-11","eName":"Fridays With Mike Gurrieri: Upside Your Head","genre":null,"price":"Free","supports":["Cazeau Oslo"],"ticketUrl":null,"time":" 4pm"}],"vName":"Whitehart Bar"},"type":"Feature"}],"type":"FeatureCollection"}