{"features":[{"geometry":{"coordinates":[144.9679369,-37.8120109],"type":"Point"},"properties":{"events":[{"categories":["Music","Other \"Dance \""],"eDate":"2025-06-26","eName":"FUNERAL","genre":null,"price":"$67.00","supports":[],"ticketUrl":null,"time":" 8pm"},{"categories":["Music"],"eDate":"2025-06-26","eName":"King IV: Funeral","genre":"Electronic","price":"$67.32 - 77.52","supports":[],"ticketUrl":null,"time":" 8pm"}],"vName":"170 Russell"},"type":"Feature"},{"geometry":{"coordinates":[144.9982812,-37.7713296],"type":"Point"},"properties":{"events":[{"categories":["Music"],"eDate":"2025-06-26","eName":"Kickin the B at 303","genre":"Jazz","price":"Free","supports":[],"ticketUrl":null,"time":" 8pm"}],"vName":"Bar 303"},"type":"Feature"},{"geometry":{"coordinates":[144.9891167,-37.7996488],"type":"Point"},"properties":{"events":[{"categories":["Music"],"eDate":"2025-06-26","eName":"Buck Wild Thursdays: Busted Lip + Special Guests","genre":"Rock","price":"$10.00","supports":[],"ticketUrl":null,"time":" 7:30pm"}],"vName":"Bendigo Hotel"},"type":"Feature"},{"geometry":{"coordinates":[144.9568039,-37.8111442],"type":"Point"},"properties":{"events":[{"categories":["Music"],"eDate":"2025-06-26","eName":"Brasilidade: A Musical Journey with Dany Maia","genre":"Jazz","price":"$38.00","supports":[],"ticketUrl":null,"time":" 7:30pm"}],"vName":"Bird's Basement"},"type":"Feature"},{"geometry":{"coordinates":[144.9945274,-37.8001115],"type":"Point"},"properties":{"events":[{"categories":["Free","Music","Other \"Food \""],"eDate":"2025-06-26","eName":"Dune Castle Present: Evening News","genre":null,"price":"Free","supports":["Dan Rock"],"ticketUrl":null,"time":" 6pm"}],"vName":"Bodriggy Brewing Company"},"type":"Feature"},{"geometry":{"coordinates":[144.9785611,-37.7965465],"type":"Point"},"properties":{"events":[{"categories":["Free","Music"],"eDate":"2025-06-26","eName":"Hy-Lo Creative & Heaps Normal Records Present: IJALE + Lucy Sugerman","genre":"Indie","price":"Free","supports":["DJ DAHI"],"ticketUrl":null,"time":" 8pm"}],"vName":"Evelyn Hotel"},"type":"Feature"},{"geometry":{"coordinates":[144.9693768,-37.8164414],"type":"Point"},"properties":{"events":[{"categories":["Music"],"eDate":"2025-06-26","eName":"Kutcha, Cash & The Last Drinks","genre":"Rock","price":"Free","supports":[],"ticketUrl":null,"time":" 8pm"}],"vName":"Forum Melbourne"},"type":"Feature"},{"geometry":{"coordinates":[144.9675876,-37.8240849],"type":"Point"},"properties":{"events":[{"categories":["Music"],"eDate":"2025-06-26","eName":"Baroque Unleashed","genre":"Classical","price":"$30.00 - 196.00","supports":[],"ticketUrl":null,"time":" 7pm"}],"vName":"Melbourne Recital Centre"},"type":"Feature"},{"geometry":{"coordinates":[144.96084,-37.813514],"type":"Point"},"properties":{"events":[{"categories":["Music"],"eDate":"2025-06-26","eName":"No Regrets: The Edith Piaf Story with Nikki Nouveau","genre":"Jazz","price":"$45.00","supports":[],"ticketUrl":null,"time":" 7:30pm"},{"categories":["Music"],"eDate":"2025-06-26","eName":"The Daimon Brunton Quintet: Exploring The Impossibly Great… Freddie Hubbard","genre":"Jazz","price":"$45.00","supports":[],"ticketUrl":null,"time":" 8pm"}],"vName":"Paris Cat Jazz Club"},"type":"Feature"},{"geometry":{"coordinates":[144.9615882,-37.7711432],"type":"Point"},"properties":{"events":[{"categories":["Free","Music"],"eDate":"2025-06-26","eName":"Melbourne Polytechnic Band Night","genre":"Indie","price":"Free","supports":[],"ticketUrl":null,"time":" 6:30pm"}],"vName":"Retreat Hotel"},"type":"Feature"},{"geometry":{"coordinates":[145.0013923,-37.7559265],"type":"Point"},"properties":{"events":[{"categories":["Music"],"eDate":"2025-06-26","eName":"No Miracles presents Sound Trouble","genre":null,"price":"$13.25","supports":[],"ticketUrl":null,"time":" 7pm"}],"vName":"Shotkickers"},"type":"Feature"},{"geometry":{"coordinates":[144.9607404,-37.7743469],"type":"Point"},"properties":{"events":[{"categories":["Music"],"eDate":"2025-06-26","eName":"Dysmetria + Sweet Nothing","genre":null,"price":"$11.65","supports":["Slaux"," motionblur."," Laura & The HELL CUTZ"],"ticketUrl":null,"time":" 7pm"}],"vName":"Stay Gold"},"type":"Feature"},{"geometry":{"coordinates":[144.9995955,-37.762377],"type":"Point"},"properties":{"events":[{"categories":["Music"],"eDate":"2025-06-26","eName":"Parents Battle of the Bands: Northside 2","genre":"Rock","price":"$36.75","supports":[],"ticketUrl":null,"time":" 7pm"}],"vName":"The Croxton"},"type":"Feature"},{"geometry":{"coordinates":[144.9463641,-37.8047757],"type":"Point"},"properties":{"events":[{"categories":["Music"],"eDate":"2025-06-26","eName":"Floravera Bookings & Events Presents: The Pearlies","genre":"Pop","price":"$16.35","supports":["Elo & The Shinkicks"," Mt Pleasant"],"ticketUrl":null,"time":" 7pm"}],"vName":"The Last Chance Rock & Roll Bar"},"type":"Feature"},{"geometry":{"coordinates":[144.9708437,-37.7973184],"type":"Point"},"properties":{"events":[{"categories":["Comedy"],"eDate":"2025-06-26","eName":"ZONE 2 KINGZ","genre":null,"price":"$29.38","supports":[],"ticketUrl":null,"time":" 7pm"},{"categories":["Free","Music","Comedy"],"eDate":"2025-06-26","eName":"The ‘WHAM, BAM, THANK YOU’ Jam","genre":"Jazz","price":"Free","supports":[],"ticketUrl":null,"time":" 7:30pm"},{"categories":["Music"],"eDate":"2025-06-26","eName":"Earl’s Kitchen: Served Fresh After Dark","genre":"Acoustic","price":"$20.26","supports":[],"ticketUrl":null,"time":" 8pm"}],"vName":"The Motley Bauhaus"},"type":"Feature"},{"geometry":{"coordinates":[144.9651425,-37.8119429],"type":"Point"},"properties":{"events":[{"categories":["Free","Music"],"eDate":"2025-06-26","eName":"Afterlife By King IV: The Official Funeral Afterparty","genre":"Electronic","price":"Free","supports":[],"ticketUrl":null,"time":"10pm"}],"vName":"The Toff In Town"},"type":"Feature"},{"geometry":{"coordinates":[144.9870814,-37.799406],"type":"Point"},"properties":{"events":[{"categories":["Music"],"eDate":"2025-06-26","eName":"Camomile","genre":"Indie","price":"$16.35","supports":["Champ Ruby"," Desire Path"],"ticketUrl":null,"time":" 7pm"},{"categories":["Music"],"eDate":"2025-06-26","eName":"Sisyphus","genre":"Rock","price":"$11.25","supports":["Muddy Lemons"," Poseidon's Kiss"],"ticketUrl":null,"time":" 7:30pm"}],"vName":"The Tote Hotel"},"type":"Feature"},{"geometry":{"coordinates":[144.9661635,-37.8176298],"type":"Point"},"properties":{"events":[{"categories":["Music"],"eDate":"2025-06-26","eName":"Brass & Beats: Live Hip-Hop","genre":null,"price":"$16.45","supports":["Bohjass"," bbsanii"],"ticketUrl":null,"time":" 8pm"}],"vName":"Wax Music Lounge"},"type":"Feature"}],"type":"FeatureCollection"}