{"features":[{"geometry":{"coordinates":[144.9715791,-37.8140656],"type":"Point"},"properties":{"events":[{"categories":["Theatre"],"eDate":"2025-02-01","eName":"Shirley Valentine","genre":null,"price":"$30.00 - 139.00","supports":[],"ticketUrl":null,"time":" 2pm"},{"categories":["Theatre"],"eDate":"2025-02-01","eName":"Shirley Valentine","genre":null,"price":"$30.00 - 139.00","supports":[],"ticketUrl":null,"time":" 7:30pm"}],"vName":"Athenaeum Theatre"},"type":"Feature"},{"geometry":{"coordinates":[144.99828116650363,-37.7713296],"type":"Point"},"properties":{"events":[{"categories":["Music"],"eDate":"2025-02-01","eName":"Munchy Dolphin + FRANKY & ALZZY","genre":"Rock","price":"$15.00 - 25.00","supports":[],"ticketUrl":null,"time":" 7pm"}],"vName":"Bar 303"},"type":"Feature"},{"geometry":{"coordinates":[144.978425,-37.79773],"type":"Point"},"properties":{"events":[{"categories":["Comedy"],"eDate":"2025-02-01","eName":"Ant Eye Comedy","genre":null,"price":"$2.00","supports":[],"ticketUrl":null,"time":" 6pm"},{"categories":["Music"],"eDate":"2025-02-01","eName":"Slow Grind 80's #14","genre":"Rock","price":"$15.00","supports":["Clean Coil"," Koi Fish"],"ticketUrl":null,"time":" 8:30pm"}],"vName":"Bar Open"},"type":"Feature"},{"geometry":{"coordinates":[144.978682,-37.7981225],"type":"Point"},"properties":{"events":[{"categories":["Free","Music"],"eDate":"2025-02-01","eName":"Harrisen Hughes","genre":null,"price":"Free","supports":[],"ticketUrl":null,"time":" 9pm"},{"categories":["Music"],"eDate":"2025-02-01","eName":"DJ Nomar Jr","genre":"Electronic","price":"Free","supports":[],"ticketUrl":null,"time":"10pm"}],"vName":"Baxter's Lot"},"type":"Feature"},{"geometry":{"coordinates":[144.9607158,-37.776327],"type":"Point"},"properties":{"events":[{"categories":["Music"],"eDate":"2025-02-01","eName":"Sunset Salore","genre":"Indie","price":"$20.95","supports":["Kaiyah Mercedes"," Lili-Violet"," GMan"],"ticketUrl":null,"time":" 8pm"}],"vName":"Bergy Bandroom"},"type":"Feature"},{"geometry":{"coordinates":[144.9567859,-37.8111049],"type":"Point"},"properties":{"events":[{"categories":["Music"],"eDate":"2025-02-01","eName":"The Beatles Legacy","genre":"Rock","price":"$40.00","supports":[],"ticketUrl":null,"time":" 6pm"}],"vName":"Bird's Basement"},"type":"Feature"},{"geometry":{"coordinates":[144.9617018,-37.7704566],"type":"Point"},"properties":{"events":[{"categories":["Music"],"eDate":"2025-02-01","eName":"The Finn Brothers Tribute","genre":"Rock","price":"$38.86","supports":[],"ticketUrl":null,"time":" 8:30pm"}],"vName":"Brunswick Ballroom"},"type":"Feature"},{"geometry":{"coordinates":[145.0006024,-37.8837941],"type":"Point"},"properties":{"events":[{"categories":["Music"],"eDate":"2025-02-01","eName":"Sarah Carso Quartet","genre":"Jazz","price":"$30.00","supports":[],"ticketUrl":null,"time":" 8pm"}],"vName":"Classic Southside"},"type":"Feature"},{"geometry":{"coordinates":[144.99266639479475,-37.82488935],"type":"Point"},"properties":{"events":[{"categories":["Music"],"eDate":"2025-02-01","eName":"Gypsy & The Cat: Gilgamesh 15th Anniversary Tour","genre":"Indie","price":"$77.10","supports":[],"ticketUrl":null,"time":" 8:30pm"}],"vName":"Corner Hotel"},"type":"Feature"},{"geometry":{"coordinates":[144.96904143685853,-37.81799793179876],"type":"Point"},"properties":{"events":[{"categories":["Music"],"eDate":"2025-02-01","eName":"BMW Opera for All","genre":"Classical","price":"Free","supports":[],"ticketUrl":null,"time":" 5pm"}],"vName":"Federation Square"},"type":"Feature"},{"geometry":{"coordinates":[144.9875917,-37.7963837],"type":"Point"},"properties":{"events":[{"categories":["Free","Music"],"eDate":"2025-02-01","eName":"Hana & Jessie-Lee's Bad Habits + Milly Strange","genre":"Country/Folk","price":"Free","supports":[],"ticketUrl":null,"time":" 8pm"}],"vName":"Gem Bar"},"type":"Feature"},{"geometry":{"coordinates":[144.983442,-37.804851],"type":"Point"},"properties":{"events":[{"categories":["Music"],"eDate":"2025-02-01","eName":"KXB Summer Party","genre":"Electronic","price":"$15.00","supports":["Vanessa Worm"," Nez DJs"],"ticketUrl":null,"time":" 8pm"}],"vName":"Grace Darling Hotel"},"type":"Feature"},{"geometry":{"coordinates":[144.973013,-37.8640582],"type":"Point"},"properties":{"events":[{"categories":["Music"],"eDate":"2025-02-01","eName":"Shane Andre","genre":"Indie","price":"$10.75","supports":["Ted Orient"," Caelo"],"ticketUrl":null,"time":" 6:30pm"}],"vName":"Hotel Esplanade (aka The Espy)"},"type":"Feature"},{"geometry":{"coordinates":[144.9596527,-37.7720304],"type":"Point"},"properties":{"events":[{"categories":["Comedy","Other \"Spoken Word\"","Other \"Poetry & Forums\""],"eDate":"2025-02-01","eName":"The Final Confessions: Goodnight Australia","genre":null,"price":"$33.66","supports":[],"ticketUrl":null,"time":" 1pm"}],"vName":"Howler"},"type":"Feature"},{"geometry":{"coordinates":[145.0008148,-37.8107158],"type":"Point"},"properties":{"events":[{"categories":["Music"],"eDate":"2025-02-01","eName":"Fallweather","genre":"Rock","price":"$26.95","supports":["Sunbleached"," Druid"," Detestor"],"ticketUrl":null,"time":" 7pm"}],"vName":"Leadbeater Hotel"},"type":"Feature"},{"geometry":{"coordinates":[144.8971518,-37.8054274],"type":"Point"},"properties":{"events":[{"categories":["Free","Music"],"eDate":"2025-02-01","eName":"Beat Panic","genre":null,"price":"Free","supports":["Sweatshop"," Canary Bones"," Resolver"," Blood In The Champagne"],"ticketUrl":null,"time":" 7pm"}],"vName":"Mamma Chen's"},"type":"Feature"},{"geometry":{"coordinates":[144.9659879,-37.8147557],"type":"Point"},"properties":{"events":[{"categories":["Music"],"eDate":"2025-02-01","eName":"Taylor Swift Silent Disco","genre":"Pop","price":"$17.85 - 43.90","supports":[],"ticketUrl":null,"time":" 8pm"}],"vName":"Max Watt's (Melbourne)"},"type":"Feature"},{"geometry":{"coordinates":[144.96741062735794,-37.82454855],"type":"Point"},"properties":{"events":[{"categories":["Music","Other \"Spoken Word\"","Other \"Poetry & Forums\""],"eDate":"2025-02-01","eName":"Tamala Shelton & Tenzin Choegyal: Cradle of Life","genre":"Acoustic","price":"$50.00","supports":[],"ticketUrl":null,"time":" 7pm"}],"vName":"Melbourne Recital Centre"},"type":"Feature"},{"geometry":{"coordinates":[144.9846126,-37.7989941],"type":"Point"},"properties":{"events":[{"categories":["Music"],"eDate":"2025-02-01","eName":"Black Dime Cabaret","genre":"Rock","price":"$10.00 - 15.00","supports":["Fabulous Contraption"," Chaos Theory Orchestra"],"ticketUrl":null,"time":" 6pm"}],"vName":"Nighthawks"},"type":"Feature"},{"geometry":{"coordinates":[144.998414,-37.771471],"type":"Point"},"properties":{"events":[{"categories":["Music"],"eDate":"2025-02-01","eName":"Dreadnaught + The Eternal","genre":"Metal","price":"$29.10","supports":["Frankenbok"," Fall & Resist"," ANA"],"ticketUrl":null,"time":" 7pm"}],"vName":"Northcote Social Club"},"type":"Feature"},{"geometry":{"coordinates":[145.08963741959553,-37.896857600000004],"type":"Point"},"properties":{"events":[{"categories":["Music"],"eDate":"2025-02-01","eName":"Nardia Brancatisano & Jimmy Hocking: Etta James & BB King","genre":"Jazz","price":"$45.00","supports":[],"ticketUrl":null,"time":" 8pm"}],"vName":"Oakleigh Lounge"},"type":"Feature"},{"geometry":{"coordinates":[144.9605705,-37.8132486],"type":"Point"},"properties":{"events":[{"categories":["Music"],"eDate":"2025-02-01","eName":"Not So Big Band: A New Take on Disney","genre":"Jazz","price":"$45.00","supports":[],"ticketUrl":null,"time":" 6pm"},{"categories":["Music"],"eDate":"2025-02-01","eName":"The Musical Evolution of Miles Davis","genre":"Jazz","price":"$45.00","supports":[],"ticketUrl":null,"time":" 6:30pm"},{"categories":["Music"],"eDate":"2025-02-01","eName":"Alyson Murray presents: Aussiegirl in New York","genre":"Jazz","price":"$45.00","supports":[],"ticketUrl":null,"time":" 9pm"},{"categories":["Music"],"eDate":"2025-02-01","eName":"Clapton Reimagined","genre":"Jazz","price":"$45.00","supports":[],"ticketUrl":null,"time":" 9:30pm"}],"vName":"Paris Cat Jazz Club"},"type":"Feature"},{"geometry":{"coordinates":[144.9615882,-37.7711432],"type":"Point"},"properties":{"events":[{"categories":["Free","Music"],"eDate":"2025-02-01","eName":"Munroe","genre":"Rock","price":"Free","supports":[],"ticketUrl":null,"time":" 2:30pm"},{"categories":["Music"],"eDate":"2025-02-01","eName":"Bloody Ripper","genre":"Rock","price":"$20.00","supports":["My Safe Word Is Murder"," Dental Plan"],"ticketUrl":null,"time":" 7:30pm"}],"vName":"Retreat Hotel"},"type":"Feature"},{"geometry":{"coordinates":[144.9607404,-37.7743469],"type":"Point"},"properties":{"events":[{"categories":["Music"],"eDate":"2025-02-01","eName":"Koo Koo","genre":"Punk","price":"$49.90","supports":[],"ticketUrl":null,"time":" 1pm"},{"categories":["Music"],"eDate":"2025-02-01","eName":"Emo Never Sleeps: Divorced Dad Rock Night","genre":"Rock","price":"$22.49","supports":["ioakim"],"ticketUrl":null,"time":"11pm"}],"vName":"Stay Gold"},"type":"Feature"},{"geometry":{"coordinates":[144.9706095,-37.7783326],"type":"Point"},"properties":{"events":[{"categories":["Free","Music"],"eDate":"2025-02-01","eName":"Ingrid & The Ministers","genre":"Rock","price":"Free","supports":[],"ticketUrl":null,"time":" 9pm"}],"vName":"The Beast"},"type":"Feature"},{"geometry":{"coordinates":[144.9657057,-37.8061581],"type":"Point"},"properties":{"events":[{"categories":["Free","Music"],"eDate":"2025-02-01","eName":"Sin City","genre":"Soul/Funk","price":"Free","supports":[],"ticketUrl":null,"time":" 8pm"}],"vName":"The Curtin"},"type":"Feature"},{"geometry":{"coordinates":[144.9968036,-37.7794807],"type":"Point"},"properties":{"events":[{"categories":["Music"],"eDate":"2025-02-01","eName":"Sunshine Tip + Katankin","genre":"Acoustic","price":"$20.00","supports":[],"ticketUrl":null,"time":" 8:30pm"}],"vName":"The Merri Creek Tavern"},"type":"Feature"},{"geometry":{"coordinates":[144.9708437,-37.7973184],"type":"Point"},"properties":{"events":[{"categories":["Free","Music"],"eDate":"2025-02-01","eName":"Jazz Arvos","genre":"Jazz","price":"Free","supports":[],"ticketUrl":null,"time":" 5pm"}],"vName":"The Motley Bauhaus"},"type":"Feature"},{"geometry":{"coordinates":[144.9846126,-37.7989941],"type":"Point"},"properties":{"events":[{"categories":["Music"],"eDate":"2025-02-01","eName":"Grug","genre":"Punk","price":"$12.00","supports":["ScarnOn"," The Plot Twist"],"ticketUrl":null,"time":" 8pm"},{"categories":["Music"],"eDate":"2025-02-01","eName":"NembutoliK","genre":"Metal","price":"$28.60","supports":["Pizza Death"," ShreddeR"," Crime Spree"," Shock Victim"],"ticketUrl":null,"time":" 8pm"}],"vName":"The Tote Hotel"},"type":"Feature"},{"geometry":{"coordinates":[144.9769450659087,-37.8055776],"type":"Point"},"properties":{"events":[{"categories":["Music"],"eDate":"2025-02-01","eName":"Lukey2Legs","genre":"Hip Hop","price":"$25.00","supports":["Suzie So Blue"," Jake Dalby"],"ticketUrl":null,"time":" 1pm"}],"vName":"The Workers Club"},"type":"Feature"}],"type":"FeatureCollection"}