{"features":[{"geometry":{"coordinates":[145.0048929,-37.8035316],"type":"Point"},"properties":{"events":[{"categories":["Music"],"eDate":"2026-07-17","eName":"WinterLIVE: Kasinda presents Agaracha Orchestra","genre":"Jazz","price":"$49.00","supports":[],"ticketUrl":null,"time":" 7:30pm"}],"vName":"Abbotsford Convent"},"type":"Feature"},{"geometry":{"coordinates":[144.978682,-37.7981225],"type":"Point"},"properties":{"events":[{"categories":["Music","Free"],"eDate":"2026-07-17","eName":"Lewis Toms","genre":null,"price":"Free","supports":[],"ticketUrl":null,"time":" 9pm"}],"vName":"Baxter's Lot"},"type":"Feature"},{"geometry":{"coordinates":[144.9945274,-37.8001115],"type":"Point"},"properties":{"events":[{"categories":["Free","Music","Other \"Food \"","Festival"],"eDate":"2026-07-17","eName":"Riggy Fest","genre":null,"price":"Free","supports":[],"ticketUrl":null,"time":" 6pm"}],"vName":"Bodriggy Brewing Company"},"type":"Feature"},{"geometry":{"coordinates":[144.9720579,-37.8121675],"type":"Point"},"properties":{"events":[{"categories":["Theatre","Comedy"],"eDate":"2026-07-17","eName":"F#*k This, I Quit: Comedy Based on YOUR Work Stories","genre":null,"price":"$24.00","supports":[],"ticketUrl":null,"time":" 7pm"}],"vName":"The Improv Conspiracy"},"type":"Feature"},{"geometry":{"coordinates":[144.9521683,-37.7319597],"type":"Point"},"properties":{"events":[{"categories":["Music"],"eDate":"2026-07-17","eName":"Platform Presents: SYS_ERROR – An Audio Visual Experience","genre":"Electronic","price":"$28.00 - 33.00","supports":["Flow"," Gazhua"," mishLXY"],"ticketUrl":null,"time":" 9pm"}],"vName":"The Industrique"},"type":"Feature"},{"geometry":{"coordinates":[144.9769451,-37.8055776],"type":"Point"},"properties":{"events":[{"categories":["Music"],"eDate":"2026-07-17","eName":"Deep South Music: Party To End All Parties 3","genre":null,"price":"$17.85","supports":["Banjzig"," more"],"ticketUrl":null,"time":" 8pm"}],"vName":"The Workers Club"},"type":"Feature"}],"type":"FeatureCollection"}