{"features":[{"geometry":{"coordinates":[144.978682,-37.7981225],"type":"Point"},"properties":{"events":[{"categories":["Free","Music"],"eDate":"2025-11-13","eName":"Mya Rogers","genre":null,"price":"Free","supports":[],"ticketUrl":null,"time":" 9pm"}],"vName":"Baxter's Lot"},"type":"Feature"},{"geometry":{"coordinates":[144.9607158,-37.776327],"type":"Point"},"properties":{"events":[{"categories":["Music"],"eDate":"2025-11-13","eName":"Hannah Donnelly","genre":"Indie","price":"$16.85","supports":["Connor Callahan"," Melody Kin"],"ticketUrl":null,"time":" 7:15pm"}],"vName":"Bergy Bandroom"},"type":"Feature"},{"geometry":{"coordinates":[144.9945274,-37.8001115],"type":"Point"},"properties":{"events":[{"categories":["Free","Music","Other \"Food \""],"eDate":"2025-11-13","eName":"Algbra","genre":null,"price":"Free","supports":[],"ticketUrl":null,"time":" 7:30pm"},{"categories":["Comedy","Other \"Food \""],"eDate":"2025-11-13","eName":"On The Gags Comedy","genre":null,"price":"$22.00","supports":[],"ticketUrl":null,"time":" 7:30pm"}],"vName":"Bodriggy Brewing Company"},"type":"Feature"},{"geometry":{"coordinates":[144.9617083,-37.7704205],"type":"Point"},"properties":{"events":[{"categories":["Music"],"eDate":"2025-11-13","eName":"Florist","genre":"Indie","price":"$63.85","supports":["Ruby Gill"," Hana Stretton"],"ticketUrl":null,"time":" 8pm"}],"vName":"Brunswick Ballroom"},"type":"Feature"},{"geometry":{"coordinates":[145.0004166,-37.7612582],"type":"Point"},"properties":{"events":[{"categories":["Free","Music"],"eDate":"2025-11-13","eName":"Succulent Thursday","genre":"Rock","price":"Free","supports":["Maggie Alley"," Polly Fonik"],"ticketUrl":null,"time":" 7pm"}],"vName":"Cactus Room"},"type":"Feature"},{"geometry":{"coordinates":[144.9713425,-37.8128595],"type":"Point"},"properties":{"events":[{"categories":["Music"],"eDate":"2025-11-13","eName":"AC/DSHE","genre":"Rock","price":"$22.59","supports":[],"ticketUrl":null,"time":" 8pm"}],"vName":"Cherry Bar"},"type":"Feature"},{"geometry":{"coordinates":[144.1430697,-37.3414953],"type":"Point"},"properties":{"events":[{"categories":["Comedy"],"eDate":"2025-11-13","eName":"Comedy Night","genre":null,"price":"Free","supports":[],"ticketUrl":null,"time":" 7pm"}],"vName":"Daylesford Hotel"},"type":"Feature"},{"geometry":{"coordinates":[144.959768,-37.831777],"type":"Point"},"properties":{"events":[{"categories":["Music"],"eDate":"2025-11-13","eName":"John Montesante Quintet: Thursday Jazz","genre":"Jazz","price":"$20.00","supports":[],"ticketUrl":null,"time":" 6:30pm"}],"vName":"Golden Gate Hotel"},"type":"Feature"},{"geometry":{"coordinates":[144.983442,-37.804851],"type":"Point"},"properties":{"events":[{"categories":["Music"],"eDate":"2025-11-13","eName":"The Sirpa Show Episode 2: In The Mood For Love","genre":"Indie","price":"$15.00 - 20.00","supports":["Fauna"," Isagani"],"ticketUrl":null,"time":" 7pm"}],"vName":"Grace Darling Hotel"},"type":"Feature"},{"geometry":{"coordinates":[144.973013,-37.8640582],"type":"Point"},"properties":{"events":[{"categories":["Free","Music"],"eDate":"2025-11-13","eName":"NIHL + Velvet Parade","genre":"Rock","price":"Free","supports":[],"ticketUrl":null,"time":" 7pm"}],"vName":"Hotel Esplanade (aka The Espy)"},"type":"Feature"},{"geometry":{"coordinates":[144.9596527,-37.7720304],"type":"Point"},"properties":{"events":[{"categories":["Music"],"eDate":"2025-11-13","eName":"The Maes","genre":"Country/Folk","price":"$33.66","supports":["Liv Greene"],"ticketUrl":null,"time":" 7:30pm"}],"vName":"Howler"},"type":"Feature"},{"geometry":{"coordinates":[145.0314658,-37.8067273],"type":"Point"},"properties":{"events":[{"categories":["Music"],"eDate":"2025-11-13","eName":"Kew Court House Live: Amelia Evans – The Radiohead Project","genre":null,"price":"$20.00","supports":[],"ticketUrl":null,"time":" 7:30pm"}],"vName":"Kew Court House"},"type":"Feature"},{"geometry":{"coordinates":[144.8984802,-37.8111559],"type":"Point"},"properties":{"events":[{"categories":["Music"],"eDate":"2025-11-13","eName":"Gwyn Ashton","genre":"Blues","price":"Free","supports":[],"ticketUrl":null,"time":" 1pm"}],"vName":"Kindred Bandroom"},"type":"Feature"},{"geometry":{"coordinates":[145.0008148,-37.8107158],"type":"Point"},"properties":{"events":[{"categories":["Music"],"eDate":"2025-11-13","eName":"Kick Ons","genre":null,"price":"$14.80","supports":["Zero City"," Dopplerhaus"," The Foxy Junes"],"ticketUrl":null,"time":" 7:30pm"}],"vName":"Leadbeater Hotel"},"type":"Feature"},{"geometry":{"coordinates":[144.9658499,-37.8147453],"type":"Point"},"properties":{"events":[{"categories":["Music"],"eDate":"2025-11-13","eName":"Holly Humberstone","genre":"Indie","price":"$89.90","supports":[],"ticketUrl":null,"time":" 7:30pm"}],"vName":"Max Watt's (Melbourne)"},"type":"Feature"},{"geometry":{"coordinates":[144.9675876,-37.8240849],"type":"Point"},"properties":{"events":[{"categories":["Music","Comedy"],"eDate":"2025-11-13","eName":"Reggie Watts: Live","genre":"Experimental","price":"$79.90 - 89.90","supports":[],"ticketUrl":null,"time":" 7pm"}],"vName":"Melbourne Recital Centre"},"type":"Feature"},{"geometry":{"coordinates":[144.9895284,-37.7993224],"type":"Point"},"properties":{"events":[{"categories":["Music"],"eDate":"2025-11-13","eName":"Think About You: Residency","genre":null,"price":"$15.00","supports":["Talk Show"," Japes"],"ticketUrl":null,"time":" 8pm"}],"vName":"Nighthawks"},"type":"Feature"},{"geometry":{"coordinates":[144.998414,-37.771471],"type":"Point"},"properties":{"events":[{"categories":["Music"],"eDate":"2025-11-13","eName":"Bruce Russell","genre":"Experimental","price":"$35.30","supports":["Mimmie"],"ticketUrl":null,"time":" 7:30pm"}],"vName":"Northcote Social Club"},"type":"Feature"},{"geometry":{"coordinates":[144.9982706,-37.7737068],"type":"Point"},"properties":{"events":[{"categories":["Music"],"eDate":"2025-11-13","eName":"Night Lovell","genre":"Hip Hop","price":"$89.90","supports":["Haarper"],"ticketUrl":null,"time":" 7pm"}],"vName":"Northcote Theatre"},"type":"Feature"},{"geometry":{"coordinates":[144.96084,-37.813514],"type":"Point"},"properties":{"events":[{"categories":["Music"],"eDate":"2025-11-13","eName":"The Little Bourke Big Band Presents: The Best Of Amy Winehouse","genre":"Jazz","price":"$45.00","supports":[],"ticketUrl":null,"time":" 7:30pm"},{"categories":["Music"],"eDate":"2025-11-13","eName":"Monk’s Music: Johnston/Delecca/Morrison/Fischer","genre":"Soul/Funk","price":"$45.00","supports":[],"ticketUrl":null,"time":" 8pm"}],"vName":"Paris Cat Jazz Club"},"type":"Feature"},{"geometry":{"coordinates":[144.9615882,-37.7711432],"type":"Point"},"properties":{"events":[{"categories":["Music"],"eDate":"2025-11-13","eName":"Joel Leggett","genre":"Indie","price":"$17.95","supports":[],"ticketUrl":null,"time":" 7pm"}],"vName":"Retreat Hotel"},"type":"Feature"},{"geometry":{"coordinates":[145.0013923,-37.7559265],"type":"Point"},"properties":{"events":[{"categories":["Music"],"eDate":"2025-11-13","eName":"Bailey Judd","genre":"Soul/Funk","price":"$20.00","supports":["Azzly"],"ticketUrl":null,"time":" 7pm"}],"vName":"Shotkickers"},"type":"Feature"},{"geometry":{"coordinates":[144.9495319,-37.8044987],"type":"Point"},"properties":{"events":[{"categories":["Comedy"],"eDate":"2025-11-13","eName":"Preacher Lawson","genre":null,"price":"$59.90","supports":[],"ticketUrl":null,"time":" 7pm"}],"vName":"The Comic's Lounge"},"type":"Feature"},{"geometry":{"coordinates":[144.9463641,-37.8047757],"type":"Point"},"properties":{"events":[{"categories":["Music"],"eDate":"2025-11-13","eName":"Johnny Casino & The Secrets","genre":"Country/Folk","price":"$16.35","supports":[],"ticketUrl":null,"time":" 7pm"}],"vName":"The Last Chance Rock & Roll Bar"},"type":"Feature"},{"geometry":{"coordinates":[144.9651425,-37.8119429],"type":"Point"},"properties":{"events":[{"categories":["Music"],"eDate":"2025-11-13","eName":"Shani Weiss","genre":null,"price":"$25.00 - 33.00","supports":["Shira"," 4yrab"],"ticketUrl":null,"time":" 7:30pm"}],"vName":"The Toff In Town"},"type":"Feature"},{"geometry":{"coordinates":[144.9984324,-37.7729134],"type":"Point"},"properties":{"events":[{"categories":["Music"],"eDate":"2025-11-13","eName":"Troncho","genre":"Electronic","price":"Free","supports":[],"ticketUrl":null,"time":" 6pm"}],"vName":"Wesley Anne"},"type":"Feature"}],"type":"FeatureCollection"}