{"features":[{"geometry":{"coordinates":[144.9500257,-37.8032773],"type":"Point"},"properties":{"events":[{"categories":["Theatre"],"eDate":"2024-12-01","eName":"APHIDS presents: EDGING","genre":null,"price":"$35.00","supports":[],"ticketUrl":null,"time":" 5pm"}],"vName":"Arts House"},"type":"Feature"},{"geometry":{"coordinates":[144.978682,-37.7981225],"type":"Point"},"properties":{"events":[{"categories":["Free","Music"],"eDate":"2024-12-01","eName":"HH & Sax Gawn","genre":null,"price":"Free","supports":[],"ticketUrl":null,"time":" 9pm"}],"vName":"Baxter's Lot"},"type":"Feature"},{"geometry":{"coordinates":[144.9945274,-37.8001115],"type":"Point"},"properties":{"events":[{"categories":["Free","Music","Dance","Other \"Food & Drink\""],"eDate":"2024-12-01","eName":"Gospel Sundays","genre":null,"price":"Free","supports":[],"ticketUrl":null,"time":" 2pm"}],"vName":"Bodriggy Brewing Company"},"type":"Feature"},{"geometry":{"coordinates":[144.9745581,-37.7694446],"type":"Point"},"properties":{"events":[{"categories":["Music"],"eDate":"2024-12-01","eName":"The CB3","genre":null,"price":"$20.00 - 35.00","supports":["Xani"," PSI PHI"],"ticketUrl":null,"time":" 3:30pm"}],"vName":"Cross Street Music Hall"},"type":"Feature"},{"geometry":{"coordinates":[144.8971518,-37.8054274],"type":"Point"},"properties":{"events":[{"categories":["Music"],"eDate":"2024-12-01","eName":"Charlie Lane","genre":null,"price":"$15.00 - 20.00","supports":["Molly Mckew"],"ticketUrl":null,"time":" 2:30pm"},{"categories":["Free","Music"],"eDate":"2024-12-01","eName":"Pale Tides","genre":null,"price":"Free","supports":["Liam Morton"," Nic Bosnic"," Hann."],"ticketUrl":null,"time":" 7pm"}],"vName":"Mamma Chen's"},"type":"Feature"},{"geometry":{"coordinates":[145.0142411,-37.7310367],"type":"Point"},"properties":{"events":[{"categories":["Free","Music"],"eDate":"2024-12-01","eName":"Sunday Sunset Sessions","genre":"Jazz","price":"Free","supports":[],"ticketUrl":null,"time":" 6pm"}],"vName":"Ragtime Tavern"},"type":"Feature"},{"geometry":{"coordinates":[144.9631913,-37.7617818],"type":"Point"},"properties":{"events":[{"categories":["Free","Music"],"eDate":"2024-12-01","eName":"Cari Scharl","genre":"Acoustic","price":"Free","supports":[],"ticketUrl":null,"time":" 8pm"}],"vName":"Ringo Barr"},"type":"Feature"},{"geometry":{"coordinates":[144.99987967655426,-37.76165125],"type":"Point"},"properties":{"events":[{"categories":["Free","Music"],"eDate":"2024-12-01","eName":"Peter Vadiveloo","genre":"Acoustic","price":"Free","supports":[],"ticketUrl":null,"time":" 5pm"}],"vName":"The Thornbury Local"},"type":"Feature"}],"type":"FeatureCollection"}