{"features":[{"geometry":{"coordinates":[144.978682,-37.7981225],"type":"Point"},"properties":{"events":[{"categories":["Free","Music"],"eDate":"2026-04-18","eName":"Woody Samson & Lewis Toms","genre":null,"price":"Free","supports":[],"ticketUrl":null,"time":" 9pm"}],"vName":"Baxter's Lot"},"type":"Feature"},{"geometry":{"coordinates":[144.9568039,-37.8111442],"type":"Point"},"properties":{"events":[{"categories":["Music"],"eDate":"2026-04-18","eName":"Jemma Cher","genre":null,"price":"$35.00","supports":[],"ticketUrl":null,"time":" 7pm"}],"vName":"Bird's Basement"},"type":"Feature"},{"geometry":{"coordinates":[144.9617083,-37.7704205],"type":"Point"},"properties":{"events":[{"categories":["Music"],"eDate":"2026-04-18","eName":"Moon Elevator","genre":null,"price":"Free","supports":["Signal Chain"," Pretty In Pink"],"ticketUrl":null,"time":" 8pm"}],"vName":"Brunswick Artists' Bar"},"type":"Feature"},{"geometry":{"coordinates":[145.0004166,-37.7612582],"type":"Point"},"properties":{"events":[{"categories":["Music"],"eDate":"2026-04-18","eName":"Vonnyguts","genre":null,"price":"$13.80","supports":["Blown Cones"," Gareth Skinner"],"ticketUrl":null,"time":" 2pm"}],"vName":"Cactus Room"},"type":"Feature"},{"geometry":{"coordinates":[144.9713425,-37.8128595],"type":"Point"},"properties":{"events":[{"categories":["Free","Music"],"eDate":"2026-04-18","eName":"Trash Indie Sleaze Saturday","genre":"Indie","price":"Free","supports":[],"ticketUrl":null,"time":"11pm"}],"vName":"Cherry Bar"},"type":"Feature"},{"geometry":{"coordinates":[144.9655776,-37.8317594],"type":"Point"},"properties":{"events":[{"categories":["Music","Other \"Dance \""],"eDate":"2026-04-18","eName":"The New Order","genre":null,"price":"$25.00 - 30.00","supports":[],"ticketUrl":null,"time":" 8pm"}],"vName":"Club Pandora"},"type":"Feature"},{"geometry":{"coordinates":[144.9627513,-37.760963],"type":"Point"},"properties":{"events":[{"categories":["Free","Music"],"eDate":"2026-04-18","eName":"Rachel Clark","genre":"Acoustic","price":"Free","supports":[],"ticketUrl":null,"time":" 8pm"}],"vName":"Edinburgh Castle Hotel"},"type":"Feature"},{"geometry":{"coordinates":[144.9489214,-37.8106039],"type":"Point"},"properties":{"events":[{"categories":["Music"],"eDate":"2026-04-18","eName":"Kerser","genre":"Hip Hop","price":"Free","supports":[],"ticketUrl":null,"time":" 7pm"}],"vName":"Festival Hall"},"type":"Feature"},{"geometry":{"coordinates":[144.9679835,-37.8201575],"type":"Point"},"properties":{"events":[{"categories":["Music"],"eDate":"2026-04-18","eName":"Mahler & Tchaikovsky with Sergei Nakariakov","genre":"Classical","price":"$20.00 - 139.00","supports":[],"ticketUrl":null,"time":" 2pm"}],"vName":"Hamer Hall (Arts Centre Melbourne)"},"type":"Feature"},{"geometry":{"coordinates":[144.8984802,-37.8111559],"type":"Point"},"properties":{"events":[{"categories":["Music"],"eDate":"2026-04-18","eName":"Ben Lee","genre":"Rock","price":"$57.10","supports":["Bec Sandridge"],"ticketUrl":null,"time":" 7pm"}],"vName":"Kindred Bandroom"},"type":"Feature"},{"geometry":{"coordinates":[144.9675876,-37.8240849],"type":"Point"},"properties":{"events":[{"categories":["Comedy"],"eDate":"2026-04-18","eName":"Ebenezer Brittlebank: Dante’s Wombat","genre":null,"price":"$40.00","supports":[],"ticketUrl":null,"time":" 8pm"}],"vName":"Melbourne Recital Centre"},"type":"Feature"},{"geometry":{"coordinates":[144.9587682,-37.6958845],"type":"Point"},"properties":{"events":[{"categories":["Music","Comedy"],"eDate":"2026-04-18","eName":"The Creature from Outer Bass battles Mr Mainstream","genre":null,"price":"$30.00","supports":[],"ticketUrl":null,"time":" 8pm"}],"vName":"MusicLand Fawkner Music Complex"},"type":"Feature"},{"geometry":{"coordinates":[144.96084,-37.813514],"type":"Point"},"properties":{"events":[{"categories":["Music"],"eDate":"2026-04-18","eName":"Not So Big Band: The Music of Sting","genre":"Jazz","price":"$45.00","supports":[],"ticketUrl":null,"time":" 6pm"},{"categories":["Music"],"eDate":"2026-04-18","eName":"The Jezebel of Jazz: The Anita O’Day Songbook with Chelsea Wilson","genre":"Jazz","price":"$45.00","supports":[],"ticketUrl":null,"time":" 6:30pm"},{"categories":["Music"],"eDate":"2026-04-18","eName":"The Syncopators","genre":"Jazz","price":"$45.00","supports":[],"ticketUrl":null,"time":" 9pm"},{"categories":["Music"],"eDate":"2026-04-18","eName":"Nadira and Eamon McNelis Present The Magic of Jazz Duets","genre":"Jazz","price":"$45.00","supports":[],"ticketUrl":null,"time":" 9:30pm"}],"vName":"Paris Cat Jazz Club"},"type":"Feature"},{"geometry":{"coordinates":[145.0013923,-37.7559265],"type":"Point"},"properties":{"events":[{"categories":["Music"],"eDate":"2026-04-18","eName":"Psi Phi","genre":null,"price":"$15.85 - 23.80","supports":[],"ticketUrl":null,"time":" 8pm"}],"vName":"Shotkickers"},"type":"Feature"},{"geometry":{"coordinates":[144.9607404,-37.7743469],"type":"Point"},"properties":{"events":[{"categories":["Music"],"eDate":"2026-04-18","eName":"am//pm emo night","genre":"Punk","price":"$20.00 - 25.00","supports":[],"ticketUrl":null,"time":" 8pm"}],"vName":"Stay Gold"},"type":"Feature"},{"geometry":{"coordinates":[144.9657057,-37.8061581],"type":"Point"},"properties":{"events":[{"categories":["Music"],"eDate":"2026-04-18","eName":"Galway Rovers","genre":null,"price":"$25.00","supports":["Maggie Carty"],"ticketUrl":null,"time":" 1pm"}],"vName":"The Curtin"},"type":"Feature"},{"geometry":{"coordinates":[144.9879283,-37.7505509],"type":"Point"},"properties":{"events":[{"categories":["Music"],"eDate":"2026-04-18","eName":"MUSIC ROOF Presents: Hann., JAM & Miss Gabrielle","genre":"Electronic","price":"Free","supports":[],"ticketUrl":null,"time":" 7pm"}],"vName":"The Merri Bar"},"type":"Feature"},{"geometry":{"coordinates":[144.9794553,-37.7982653],"type":"Point"},"properties":{"events":[{"categories":["Music"],"eDate":"2026-04-18","eName":"Mokomokai: The Lowlands Tour","genre":null,"price":"$34.59","supports":[],"ticketUrl":null,"time":" 7:30pm"}],"vName":"The Night Cat"},"type":"Feature"},{"geometry":{"coordinates":[144.9661635,-37.8176298],"type":"Point"},"properties":{"events":[{"categories":["Music"],"eDate":"2026-04-18","eName":"The Bamboos “Step It Up” 20th Anniversary Show","genre":"Soul/Funk","price":"$99.00","supports":[],"ticketUrl":null,"time":" 9pm"}],"vName":"Wax Music Lounge"},"type":"Feature"},{"geometry":{"coordinates":[144.9984324,-37.7729134],"type":"Point"},"properties":{"events":[{"categories":["Music"],"eDate":"2026-04-18","eName":"Dan Musil","genre":"Blues","price":"$23.20","supports":[],"ticketUrl":null,"time":" 3pm"},{"categories":["Music"],"eDate":"2026-04-18","eName":"Andie","genre":"Indie","price":"Free","supports":[],"ticketUrl":null,"time":" 6pm"}],"vName":"Wesley Anne"},"type":"Feature"}],"type":"FeatureCollection"}