{"features":[{"geometry":{"coordinates":[144.9679835,-37.8201575],"type":"Point"},"properties":{"events":[{"categories":["Music"],"eDate":"2025-07-05","eName":"Loving the Alien (Matinee)","genre":"Rock","price":"$56.25","supports":[],"ticketUrl":null,"time":" 3pm"}],"vName":"Arts Centre Melbourne"},"type":"Feature"},{"geometry":{"coordinates":[144.9982812,-37.7713296],"type":"Point"},"properties":{"events":[{"categories":["Music"],"eDate":"2025-07-05","eName":"Soulutations","genre":"Soul/Funk","price":"Free","supports":[],"ticketUrl":null,"time":" 8pm"}],"vName":"Bar 303"},"type":"Feature"},{"geometry":{"coordinates":[144.978682,-37.7981225],"type":"Point"},"properties":{"events":[{"categories":["Free","Music"],"eDate":"2025-07-05","eName":"Tejo D’Cruz","genre":null,"price":"Free","supports":[],"ticketUrl":null,"time":" 9pm"},{"categories":["Free","Music"],"eDate":"2025-07-05","eName":"DJ Nomar Jr","genre":null,"price":"Free","supports":[],"ticketUrl":null,"time":"10pm"}],"vName":"Baxter's Lot"},"type":"Feature"},{"geometry":{"coordinates":[144.9568039,-37.8111442],"type":"Point"},"properties":{"events":[{"categories":["Music"],"eDate":"2025-07-05","eName":"Eugene Hamilton & The Money","genre":"Soul/Funk","price":"$40.00","supports":[],"ticketUrl":null,"time":" 7:30pm"}],"vName":"Bird's Basement"},"type":"Feature"},{"geometry":{"coordinates":[144.9617083,-37.7704205],"type":"Point"},"properties":{"events":[{"categories":["Music"],"eDate":"2025-07-05","eName":"Cairo Club Orchestra","genre":"Jazz","price":"$23.05","supports":[],"ticketUrl":null,"time":" 2pm"}],"vName":"Brunswick Ballroom"},"type":"Feature"},{"geometry":{"coordinates":[144.9248037,-37.7656716],"type":"Point"},"properties":{"events":[{"categories":["Music","Theatre"],"eDate":"2025-07-05","eName":"Proudfoot & Friends","genre":"Acoustic","price":"$30.00","supports":[],"ticketUrl":null,"time":" 2pm"}],"vName":"Clocktower Centre"},"type":"Feature"},{"geometry":{"coordinates":[144.9926664,-37.8248893],"type":"Point"},"properties":{"events":[{"categories":["Music"],"eDate":"2025-07-05","eName":"The Angels","genre":"Rock","price":"$55.00","supports":[],"ticketUrl":null,"time":" 8pm"}],"vName":"Corner Hotel"},"type":"Feature"},{"geometry":{"coordinates":[144.9489214,-37.8106039],"type":"Point"},"properties":{"events":[{"categories":["Music"],"eDate":"2025-07-05","eName":"STAYC","genre":"Pop","price":"$152.76","supports":[],"ticketUrl":null,"time":" 7:30pm"}],"vName":"Festival Hall"},"type":"Feature"},{"geometry":{"coordinates":[144.9693768,-37.8164414],"type":"Point"},"properties":{"events":[{"categories":["Music"],"eDate":"2025-07-05","eName":"Void of Vision","genre":"Metal","price":"Free","supports":[],"ticketUrl":null,"time":" 6:30pm"},{"categories":["Music"],"eDate":"2025-07-05","eName":"Void Of Vision","genre":"Metal","price":"$74.90","supports":[],"ticketUrl":null,"time":" 7pm"}],"vName":"Forum Melbourne"},"type":"Feature"},{"geometry":{"coordinates":[144.983442,-37.804851],"type":"Point"},"properties":{"events":[{"categories":["Music"],"eDate":"2025-07-05","eName":"Kitsch Kitchen + Francesca Gonzales","genre":"Jazz","price":"$20.00","supports":[],"ticketUrl":null,"time":" 7:30pm"}],"vName":"Grace Darling Hotel"},"type":"Feature"},{"geometry":{"coordinates":[144.973013,-37.8640582],"type":"Point"},"properties":{"events":[{"categories":["Music"],"eDate":"2025-07-05","eName":"HIGH NOON: Country Day Party","genre":"Country/Folk","price":"$15.85 - 29.10","supports":[],"ticketUrl":null,"time":" 2pm"},{"categories":["Music"],"eDate":"2025-07-05","eName":"Shiver Me Emo","genre":"Punk","price":"$15.85","supports":["This Space Is Ours"," Wasted Years"],"ticketUrl":null,"time":" 7pm"}],"vName":"Hotel Esplanade (aka The Espy)"},"type":"Feature"},{"geometry":{"coordinates":[144.9596527,-37.7720304],"type":"Point"},"properties":{"events":[{"categories":["Free","Music"],"eDate":"2025-07-05","eName":"Soda Bar","genre":"Electronic","price":"Free","supports":[],"ticketUrl":null,"time":" 7pm"}],"vName":"Howler"},"type":"Feature"},{"geometry":{"coordinates":[145.0358258,-37.9334203],"type":"Point"},"properties":{"events":[{"categories":["Music"],"eDate":"2025-07-05","eName":"Live at City Hall: Emma Donovan","genre":"Soul/Funk","price":"$45.00","supports":["Alice Skye"],"ticketUrl":null,"time":" 7pm"},{"categories":["Music"],"eDate":"2025-07-05","eName":"Live at City Hall: Emma Donovan","genre":"Soul/Funk","price":"$10.00 - 45.00","supports":["Alice Skye"],"ticketUrl":null,"time":" 7pm"}],"vName":"Kingston City Hall"},"type":"Feature"},{"geometry":{"coordinates":[144.9658499,-37.8147453],"type":"Point"},"properties":{"events":[{"categories":["Music"],"eDate":"2025-07-05","eName":"Dirty Dike with Sammy B-Side: The Golden Lobster Tour","genre":"Hip Hop","price":"$45.90 - 72.95","supports":[],"ticketUrl":null,"time":" 7pm"}],"vName":"Max Watt's (Melbourne)"},"type":"Feature"},{"geometry":{"coordinates":[144.9790251,-37.8675008],"type":"Point"},"properties":{"events":[{"categories":["Music"],"eDate":"2025-07-05","eName":"Phil Manning Band with Warren Morgan","genre":"Country/Folk","price":"$30.00 - 50.00","supports":[],"ticketUrl":null,"time":" 7pm"}],"vName":"Memo Music Hall"},"type":"Feature"},{"geometry":{"coordinates":[144.998414,-37.771471],"type":"Point"},"properties":{"events":[{"categories":["Music"],"eDate":"2025-07-05","eName":"Velvet Bloom","genre":"Soul/Funk","price":"$18.40 - 24.00","supports":["Paulina"," Jessie Hill"],"ticketUrl":null,"time":" 8:30pm"}],"vName":"Northcote Social Club"},"type":"Feature"},{"geometry":{"coordinates":[144.97711,-37.79833],"type":"Point"},"properties":{"events":[{"categories":["Free","Music"],"eDate":"2025-07-05","eName":"The Mean Times","genre":"Rock","price":"Free","supports":["Born Secret"],"ticketUrl":null,"time":" 3pm"},{"categories":["Music"],"eDate":"2025-07-05","eName":"Space Junk","genre":"Rock","price":"$17.35","supports":["Swedish Magazines"," The Nowa Nowas"," Assteroid"],"ticketUrl":null,"time":" 8pm"}],"vName":"Old Bar"},"type":"Feature"},{"geometry":{"coordinates":[144.96084,-37.813514],"type":"Point"},"properties":{"events":[{"categories":["Music"],"eDate":"2025-07-05","eName":"Not So Big Band: An Evening In La La Land with Ava McDermott","genre":"Jazz","price":"Free","supports":[],"ticketUrl":null,"time":" 6pm"},{"categories":["Music"],"eDate":"2025-07-05","eName":"The Music of Fleetwood Mac with Amethyst Jane","genre":"Jazz","price":"Free","supports":[],"ticketUrl":null,"time":" 6:30pm"}],"vName":"Paris Cat Jazz Club"},"type":"Feature"},{"geometry":{"coordinates":[144.9615882,-37.7711432],"type":"Point"},"properties":{"events":[{"categories":["Free","Music"],"eDate":"2025-07-05","eName":"Private Mountain","genre":"Indie","price":"Free","supports":["Ben Trillado"],"ticketUrl":null,"time":" 2:30pm"},{"categories":["Music"],"eDate":"2025-07-05","eName":"Franjapan","genre":"Pop","price":"$25.79","supports":["Gloomie"," Alice Ruby"],"ticketUrl":null,"time":" 7:30pm"}],"vName":"Retreat Hotel"},"type":"Feature"},{"geometry":{"coordinates":[144.993413,-37.8506652],"type":"Point"},"properties":{"events":[{"categories":["Music"],"eDate":"2025-07-05","eName":"The Late Show","genre":"Electronic","price":"$26.52","supports":[],"ticketUrl":null,"time":"10pm"}],"vName":"Revolver Upstairs"},"type":"Feature"},{"geometry":{"coordinates":[144.965405,-37.8117457],"type":"Point"},"properties":{"events":[{"categories":["Music"],"eDate":"2025-07-05","eName":"Bouki & Friends","genre":"Electronic","price":"Free","supports":[],"ticketUrl":null,"time":" 6pm"}],"vName":"Section 8"},"type":"Feature"},{"geometry":{"coordinates":[145.0013923,-37.7559265],"type":"Point"},"properties":{"events":[{"categories":["Music"],"eDate":"2025-07-05","eName":"Cheeky B","genre":"Rock","price":"Free","supports":["Pollyman"," Shot By Jane"],"ticketUrl":null,"time":" 8pm"}],"vName":"Shotkickers"},"type":"Feature"},{"geometry":{"coordinates":[145.3534507,-37.9100746],"type":"Point"},"properties":{"events":[{"categories":["Music","Festival"],"eDate":"2025-07-05","eName":"While You’re Young","genre":null,"price":"$17.00","supports":[],"ticketUrl":null,"time":" 5pm"}],"vName":"Sooki Lounge"},"type":"Feature"},{"geometry":{"coordinates":[144.9607404,-37.7743469],"type":"Point"},"properties":{"events":[{"categories":["Music"],"eDate":"2025-07-05","eName":"am//pm emo night","genre":"Punk","price":"$23.75","supports":["more"],"ticketUrl":null,"time":" 8pm"}],"vName":"Stay Gold"},"type":"Feature"},{"geometry":{"coordinates":[144.32141,-37.38866],"type":"Point"},"properties":{"events":[{"categories":["Free","Music"],"eDate":"2025-07-05","eName":"Jess Parker","genre":"Country/Folk","price":"Free","supports":[],"ticketUrl":null,"time":" 3pm"}],"vName":"The Cosmopolitan Hotel"},"type":"Feature"},{"geometry":{"coordinates":[144.9657057,-37.8061581],"type":"Point"},"properties":{"events":[{"categories":["Music"],"eDate":"2025-07-05","eName":"Mess Esque","genre":"Indie","price":"$27.95","supports":["Sweet Whirl"," Mug"],"ticketUrl":null,"time":" 8pm"}],"vName":"The Curtin"},"type":"Feature"},{"geometry":{"coordinates":[144.9879283,-37.7505509],"type":"Point"},"properties":{"events":[{"categories":["Music"],"eDate":"2025-07-05","eName":"Daisy Kilbourne","genre":"Acoustic","price":"Free","supports":[],"ticketUrl":null,"time":" 7pm"}],"vName":"The Merri Bar"},"type":"Feature"},{"geometry":{"coordinates":[144.9708437,-37.7973184],"type":"Point"},"properties":{"events":[{"categories":["Music"],"eDate":"2025-07-05","eName":"Motley Jazz Jam","genre":"Jazz","price":"Free","supports":[],"ticketUrl":null,"time":" 7:30pm"},{"categories":["Comedy","Theatre"],"eDate":"2025-07-05","eName":"The Big HOO-HAA!","genre":null,"price":"$32.00","supports":[],"ticketUrl":null,"time":" 8:30pm"},{"categories":["Comedy","Theatre"],"eDate":"2025-07-05","eName":"The Ceremony: Fundraiser","genre":null,"price":"$10.13","supports":[],"ticketUrl":null,"time":" 8:30pm"}],"vName":"The Motley Bauhaus"},"type":"Feature"},{"geometry":{"coordinates":[144.9621651,-37.7679775],"type":"Point"},"properties":{"events":[{"categories":["Music"],"eDate":"2025-07-05","eName":"Homowo Festival","genre":"Global","price":"Free","supports":["Kwame Tosuma"," KT Dance Africa"],"ticketUrl":null,"time":" 8pm"}],"vName":"The Penny Black"},"type":"Feature"},{"geometry":{"coordinates":[144.9651425,-37.8119429],"type":"Point"},"properties":{"events":[{"categories":["Music"],"eDate":"2025-07-05","eName":"Femmoir Presents: Planet Her","genre":"Electronic","price":"$17.34 - 28.56","supports":[],"ticketUrl":null,"time":"10pm"}],"vName":"The Toff In Town"},"type":"Feature"},{"geometry":{"coordinates":[144.9870814,-37.799406],"type":"Point"},"properties":{"events":[{"categories":["Music"],"eDate":"2025-07-05","eName":"The Electric Guitars","genre":"Rock","price":"Free","supports":["The Misanthropes"],"ticketUrl":null,"time":" 3pm"},{"categories":["Music"],"eDate":"2025-07-05","eName":"Leatherman","genre":"Rock","price":"$19.90","supports":["Our Carlson"," Cutters"," The Brakes"],"ticketUrl":null,"time":" 8pm"},{"categories":["Music"],"eDate":"2025-07-05","eName":"Sex Mask","genre":"Rock","price":"Free","supports":[],"ticketUrl":null,"time":" 8pm"}],"vName":"The Tote Hotel"},"type":"Feature"},{"geometry":{"coordinates":[144.9769451,-37.8055776],"type":"Point"},"properties":{"events":[{"categories":["Music"],"eDate":"2025-07-05","eName":"Mondo Cane","genre":"Punk","price":"$17.85","supports":["Shirkher"," Olympia"],"ticketUrl":null,"time":" 1pm"},{"categories":["Music"],"eDate":"2025-07-05","eName":"Day We Ran","genre":"Rock","price":"Free","supports":["The Stamps"],"ticketUrl":null,"time":" 8pm"}],"vName":"The Workers Club"},"type":"Feature"},{"geometry":{"coordinates":[144.9984324,-37.7729134],"type":"Point"},"properties":{"events":[{"categories":["Music"],"eDate":"2025-07-05","eName":"Youthless","genre":"Jazz","price":"Free","supports":[],"ticketUrl":null,"time":" 6pm"},{"categories":["Music"],"eDate":"2025-07-05","eName":"Mick Harvey + Amanda Acevedo","genre":"Rock","price":"$38.80","supports":[],"ticketUrl":null,"time":" 8pm"}],"vName":"Wesley Anne"},"type":"Feature"}],"type":"FeatureCollection"}