{"features":[{"geometry":{"coordinates":[144.9500257,-37.8032773],"type":"Point"},"properties":{"events":[{"categories":["Theatre","Art"],"eDate":"2024-08-27","eName":"The Splendid Anomaly: Ahmarnya Price","genre":null,"price":"$35.00","supports":[],"ticketUrl":null,"time":" 7:30pm"}],"vName":"Arts House"},"type":"Feature"},{"geometry":{"coordinates":[144.978682,-37.7981225],"type":"Point"},"properties":{"events":[{"categories":["Free","Music"],"eDate":"2024-08-27","eName":"BOADZ","genre":null,"price":"Free","supports":[],"ticketUrl":null,"time":" 9:30pm"}],"vName":"Baxter's Lot"},"type":"Feature"},{"geometry":{"coordinates":[144.96741062735794,-37.82454855],"type":"Point"},"properties":{"events":[{"categories":["Music"],"eDate":"2024-08-27","eName":"VCASS: Choral Fantasy","genre":"Acoustic","price":"$57.75","supports":[],"ticketUrl":null,"time":" 7:30pm"}],"vName":"Melbourne Recital Centre"},"type":"Feature"},{"geometry":{"coordinates":[144.9977626,-37.7755001],"type":"Point"},"properties":{"events":[{"categories":["Music"],"eDate":"2024-08-27","eName":"Lovejoy","genre":"Indie","price":"$69.90","supports":[],"ticketUrl":null,"time":" 7:30pm"}],"vName":"Northcote Theatre"},"type":"Feature"},{"geometry":{"coordinates":[144.9607404,-37.7743469],"type":"Point"},"properties":{"events":[{"categories":["Music"],"eDate":"2024-08-27","eName":"High Vis","genre":"Metal","price":"$35.00","supports":[],"ticketUrl":null,"time":" 6:30pm"}],"vName":"Stay Gold"},"type":"Feature"},{"geometry":{"coordinates":[144.9708437,-37.7973184],"type":"Point"},"properties":{"events":[{"categories":["Free","Comedy"],"eDate":"2024-08-27","eName":"Corner Shop Comedy: Indie Improv Night","genre":null,"price":"Free","supports":[],"ticketUrl":null,"time":" 6pm"},{"categories":["Art"],"eDate":"2024-08-27","eName":"Paper Play: A Collage Art Workshop","genre":null,"price":"$27.19","supports":[],"ticketUrl":null,"time":" 6pm"}],"vName":"The Motley Bauhaus"},"type":"Feature"},{"geometry":{"coordinates":[144.9618426,-37.8125531],"type":"Point"},"properties":{"events":[{"categories":["Free","Music"],"eDate":"2024-08-27","eName":"DJ Naru","genre":null,"price":"Free","supports":[],"ticketUrl":null,"time":" 4pm"}],"vName":"Whitehart Bar"},"type":"Feature"}],"type":"FeatureCollection"}