{"features":[{"geometry":{"coordinates":[144.978682,-37.7981225],"type":"Point"},"properties":{"events":[{"categories":["Free","Music"],"eDate":"2026-07-23","eName":"Marcus Miller","genre":null,"price":"Free","supports":[],"ticketUrl":null,"time":" 9pm"}],"vName":"Baxter's Lot"},"type":"Feature"},{"geometry":{"coordinates":[144.9945274,-37.8001115],"type":"Point"},"properties":{"events":[{"categories":["Music","Other \"Food \"","Free"],"eDate":"2026-07-23","eName":"Rubita","genre":null,"price":"Free","supports":["Ingrid Saker"," Ruby Fraser"],"ticketUrl":null,"time":" 7pm"}],"vName":"Bodriggy Brewing Company"},"type":"Feature"},{"geometry":{"coordinates":[144.9693768,-37.8164414],"type":"Point"},"properties":{"events":[{"categories":["Music"],"eDate":"2026-07-23","eName":"Spiderbait","genre":"Rock","price":"$89.90","supports":["Magic Dirt"," The Gnomes"," My Guardian Angel"],"ticketUrl":null,"time":" 6pm"}],"vName":"Forum Melbourne"},"type":"Feature"},{"geometry":{"coordinates":[144.959768,-37.831777],"type":"Point"},"properties":{"events":[{"categories":["Music","Other \"Food \""],"eDate":"2026-07-23","eName":"JMQ Thursday Jazz: Monique diMattina + Jim Glasson","genre":"Jazz","price":"$20.00","supports":[],"ticketUrl":null,"time":" 7pm"}],"vName":"Golden Gate Hotel"},"type":"Feature"},{"geometry":{"coordinates":[144.9675876,-37.8240849],"type":"Point"},"properties":{"events":[{"categories":["Music"],"eDate":"2026-07-23","eName":"Con Kalamaras + Stani Goma: A Crossroads of Rebetiko & West African Blues","genre":null,"price":"$45.00","supports":[],"ticketUrl":null,"time":" 7pm"}],"vName":"Melbourne Recital Centre"},"type":"Feature"},{"geometry":{"coordinates":[144.96084,-37.813514],"type":"Point"},"properties":{"events":[{"categories":["Music"],"eDate":"2026-07-23","eName":"Emily Williams presents Love Songs With A Twist with Blush’ko","genre":"Jazz","price":"$48.00","supports":[],"ticketUrl":null,"time":" 7:30pm"},{"categories":["Music"],"eDate":"2026-07-23","eName":"Jonathan Bufalino","genre":"Soul/Funk","price":"$40.00","supports":[],"ticketUrl":null,"time":" 8pm"}],"vName":"Paris Cat Jazz Club"},"type":"Feature"},{"geometry":{"coordinates":[145.1818891,-37.8163371],"type":"Point"},"properties":{"events":[{"categories":["Theatre","Music"],"eDate":"2026-07-23","eName":"Don Giovanni","genre":"Classical","price":"$88.00","supports":[],"ticketUrl":null,"time":" 7:30pm"}],"vName":"The Round"},"type":"Feature"}],"type":"FeatureCollection"}