{"features":[{"geometry":{"coordinates":[144.9763781,-37.7983136],"type":"Point"},"properties":{"events":[{"categories":["Music","Art"],"eDate":"2024-02-24","eName":"Loose Teeth","genre":"Indie","price":"$15.00","supports":[],"ticketUrl":null,"time":" 7pm"}],"vName":"Bad Decisions Bar"},"type":"Feature"},{"geometry":{"coordinates":[144.9607158,-37.776327],"type":"Point"},"properties":{"events":[{"categories":["Music"],"eDate":"2024-02-24","eName":"Captives","genre":"Rock","price":"$16.85","supports":[],"ticketUrl":null,"time":" 8pm"}],"vName":"Bergy Bandroom"},"type":"Feature"},{"geometry":{"coordinates":[144.9567859,-37.8111049],"type":"Point"},"properties":{"events":[{"categories":["Music"],"eDate":"2024-02-24","eName":"Michael Charles","genre":"Blues","price":"$30.00","supports":[],"ticketUrl":null,"time":" 6pm"}],"vName":"Bird's Basement"},"type":"Feature"},{"geometry":{"coordinates":[144.99266639479475,-37.82488935],"type":"Point"},"properties":{"events":[{"categories":["Music"],"eDate":"2024-02-24","eName":"Even Flow: The Australian Pearl Jam Tribute Show","genre":"Rock","price":"$29.10","supports":[],"ticketUrl":null,"time":" 8:30pm"}],"vName":"Corner Hotel"},"type":"Feature"},{"geometry":{"coordinates":[144.9787445,-37.7967357],"type":"Point"},"properties":{"events":[{"categories":["Other \"Gig Guide\""],"eDate":"2024-02-24","eName":"Rare Phenomenon","genre":"Rock","price":"$11.25","supports":["Valenta"," Parasite"],"ticketUrl":null,"time":" 7:30pm"}],"vName":"Evelyn Hotel"},"type":"Feature"},{"geometry":{"coordinates":[144.9679835243618,-37.8201575],"type":"Point"},"properties":{"events":[{"categories":["Comedy"],"eDate":"2024-02-24","eName":"Nurse Blake","genre":null,"price":"$79.90","supports":[],"ticketUrl":null,"time":" 7pm"}],"vName":"Hamer Hall (Arts Centre Melbourne)"},"type":"Feature"},{"geometry":{"coordinates":[144.9596527,-37.7720304],"type":"Point"},"properties":{"events":[{"categories":["Music"],"eDate":"2024-02-24","eName":"Harrison Storm","genre":"Country/Folk","price":"$37.50","supports":[],"ticketUrl":null,"time":" 8pm"}],"vName":"Howler"},"type":"Feature"},{"geometry":{"coordinates":[145.0008148,-37.8107158],"type":"Point"},"properties":{"events":[{"categories":["Music"],"eDate":"2024-02-24","eName":"Ignite","genre":"Punk","price":"$53.05","supports":[],"ticketUrl":null,"time":" 8pm"}],"vName":"Leadbeater Hotel"},"type":"Feature"},{"geometry":{"coordinates":[144.8971518,-37.8054274],"type":"Point"},"properties":{"events":[{"categories":["Music"],"eDate":"2024-02-24","eName":"Hydra Fashion Week","genre":null,"price":"$20.00","supports":["Licklash"," Culaccino"],"ticketUrl":null,"time":" 2pm"},{"categories":["Free","Music"],"eDate":"2024-02-24","eName":"Sada Abe + Oceans","genre":null,"price":"Free","supports":["Cat Crawl"," Cari Scharl"],"ticketUrl":null,"time":" 7pm"}],"vName":"Mamma Chen's"},"type":"Feature"},{"geometry":{"coordinates":[144.96741062735794,-37.82454855],"type":"Point"},"properties":{"events":[{"categories":["Music"],"eDate":"2024-02-24","eName":"2023 Marathon Transfigured","genre":"Classical","price":"$45.00 - 400.00","supports":[],"ticketUrl":null,"time":"11am"},{"categories":["Music"],"eDate":"2024-02-24","eName":"3MBS Marathon: Discover","genre":"Classical","price":"$50.00","supports":[],"ticketUrl":null,"time":"11am"},{"categories":["Music"],"eDate":"2024-02-24","eName":"Australian Brandenburg Orchestra 2024: Notre-Dame","genre":"Classical","price":"$30.00","supports":[],"ticketUrl":null,"time":" 7pm"}],"vName":"Melbourne Recital Centre"},"type":"Feature"},{"geometry":{"coordinates":[144.998414,-37.771471],"type":"Point"},"properties":{"events":[{"categories":["Music"],"eDate":"2024-02-24","eName":"The Wreckery + Halfway","genre":"Blues","price":"$40.40","supports":[],"ticketUrl":null,"time":" 8:30pm"}],"vName":"Northcote Social Club"},"type":"Feature"},{"geometry":{"coordinates":[145.0142411,-37.7310367],"type":"Point"},"properties":{"events":[{"categories":["Free","Music"],"eDate":"2024-02-24","eName":"Beltin' Elton","genre":"Pop","price":"Free","supports":[],"ticketUrl":null,"time":" 8pm"}],"vName":"Ragtime Tavern"},"type":"Feature"},{"geometry":{"coordinates":[144.9615882,-37.7711432],"type":"Point"},"properties":{"events":[{"categories":["Music"],"eDate":"2024-02-24","eName":"Mia Pisano","genre":null,"price":"$20.00","supports":["Possum"," Rhiana Jay"],"ticketUrl":null,"time":" 7:30pm"}],"vName":"Retreat Hotel"},"type":"Feature"},{"geometry":{"coordinates":[144.9631913,-37.7617818],"type":"Point"},"properties":{"events":[{"categories":["Music"],"eDate":"2024-02-24","eName":"Jude Quintet + Indu Mulligan Duo","genre":"Jazz","price":"$10.00","supports":[],"ticketUrl":null,"time":" 8pm"}],"vName":"Ringo Barr"},"type":"Feature"},{"geometry":{"coordinates":[144.9746525926778,-37.823819181966286],"type":"Point"},"properties":{"events":[{"categories":["Free","Music"],"eDate":"2024-02-24","eName":"Melbourne Symphony Orchestra presents: When We Were Young","genre":"Classical","price":"Free","supports":[],"ticketUrl":null,"time":" 5:30pm"}],"vName":"Sidney Myer Music Bowl"},"type":"Feature"},{"geometry":{"coordinates":[144.9657057,-37.8061581],"type":"Point"},"properties":{"events":[{"categories":["Music"],"eDate":"2024-02-24","eName":"Romanie","genre":null,"price":"$20.00","supports":[],"ticketUrl":null,"time":" 7pm"}],"vName":"The Curtin"},"type":"Feature"},{"geometry":{"coordinates":[145.13337431967784,-37.91372355],"type":"Point"},"properties":{"events":[{"categories":["Music"],"eDate":"2024-02-24","eName":"Live at The Counts: Kaiit","genre":"R&B","price":"$19.00 - 59.00","supports":[],"ticketUrl":null,"time":" 7:30pm"}],"vName":"The Ian Potter Centre for Performing Arts"},"type":"Feature"},{"geometry":{"coordinates":[144.9865719,-37.8678067],"type":"Point"},"properties":{"events":[{"categories":["Music"],"eDate":"2024-02-24","eName":"Ralph McTell","genre":"Country/Folk","price":"$77.50","supports":[],"ticketUrl":null,"time":" 7:30pm"}],"vName":"The National Theatre"},"type":"Feature"},{"geometry":{"coordinates":[144.9846126,-37.7989941],"type":"Point"},"properties":{"events":[{"categories":["Music"],"eDate":"2024-02-24","eName":"Poltergeist 9000","genre":"Punk","price":"$11.25","supports":["Kai Cult"," Elektronik Girl Epic"," Hello Krissy"],"ticketUrl":null,"time":" 8pm"}],"vName":"The Tote Hotel"},"type":"Feature"},{"geometry":{"coordinates":[144.9983987,-37.7729204],"type":"Point"},"properties":{"events":[{"categories":["Music"],"eDate":"2024-02-24","eName":"Evan Carydakis: The Cherry Pops Tour 2024","genre":"Jazz","price":"$30.00","supports":[],"ticketUrl":null,"time":" 8pm"}],"vName":"Wesley Anne"},"type":"Feature"},{"geometry":{"coordinates":[144.9827552,-37.8041303],"type":"Point"},"properties":{"events":[{"categories":["Music"],"eDate":"2024-02-24","eName":"TILE","genre":"Indie","price":"$15.00","supports":[],"ticketUrl":null,"time":" 9pm"}],"vName":"Yah Yah's"},"type":"Feature"}],"type":"FeatureCollection"}