{"features":[{"geometry":{"coordinates":[144.9982812,-37.7713296],"type":"Point"},"properties":{"events":[{"categories":["Music"],"eDate":"2025-08-13","eName":"Will Larsen Quartet + Way Out East","genre":"Jazz","price":"$15.00","supports":[],"ticketUrl":null,"time":" 7:30pm"}],"vName":"Bar 303"},"type":"Feature"},{"geometry":{"coordinates":[144.9568039,-37.8111442],"type":"Point"},"properties":{"events":[{"categories":["Music"],"eDate":"2025-08-13","eName":"The Harmonix Experience","genre":"Jazz","price":"$38.00","supports":[],"ticketUrl":null,"time":" 7:30pm"}],"vName":"Bird's Basement"},"type":"Feature"},{"geometry":{"coordinates":[144.9945274,-37.8001115],"type":"Point"},"properties":{"events":[{"categories":["Free","Music","Other \"Food \""],"eDate":"2025-08-13","eName":"Deep Cuts Jam: Miss Lauryn Hill Special","genre":null,"price":"Free","supports":[],"ticketUrl":null,"time":" 7pm"}],"vName":"Bodriggy Brewing Company"},"type":"Feature"},{"geometry":{"coordinates":[144.9596527,-37.7720304],"type":"Point"},"properties":{"events":[{"categories":["Other \"Spoken Word, Poetry \""],"eDate":"2025-08-13","eName":"Nerd Nite #64","genre":null,"price":"$17.65","supports":[],"ticketUrl":null,"time":" 7pm"}],"vName":"Howler"},"type":"Feature"},{"geometry":{"coordinates":[145.0015248,-37.8258878],"type":"Point"},"properties":{"events":[{"categories":["Music"],"eDate":"2025-08-13","eName":"Ashley Naylor","genre":"Rock","price":"Free","supports":[],"ticketUrl":null,"time":" 7pm"}],"vName":"Odeon Richmond"},"type":"Feature"},{"geometry":{"coordinates":[144.9706211,-37.778276],"type":"Point"},"properties":{"events":[{"categories":["Music"],"eDate":"2025-08-13","eName":"DJ Faux Rabbit","genre":"Soul/Funk","price":"Free","supports":[],"ticketUrl":null,"time":" 7pm"}],"vName":"The Beast"},"type":"Feature"},{"geometry":{"coordinates":[145.1334272,-37.9135736],"type":"Point"},"properties":{"events":[{"categories":["Music"],"eDate":"2025-08-13","eName":"Nadira and Friends – The Music of Nat King Cole: Live at The Count’s","genre":"Jazz","price":"$15.00 - 29.00","supports":[],"ticketUrl":null,"time":" 7:30pm"}],"vName":"The Ian Potter Centre for Performing Arts"},"type":"Feature"},{"geometry":{"coordinates":[144.9879283,-37.7505509],"type":"Point"},"properties":{"events":[{"categories":["Other \"Food \""],"eDate":"2025-08-13","eName":"Whisky Wednesdays @ The Merri Bar","genre":null,"price":"Free","supports":[],"ticketUrl":null,"time":" 6pm"},{"categories":["Music"],"eDate":"2025-08-13","eName":"The Fireside Sessions: Mr. Alford + Ricki Wood","genre":"Acoustic","price":"Free","supports":[],"ticketUrl":null,"time":" 6:30pm"}],"vName":"The Merri Bar"},"type":"Feature"},{"geometry":{"coordinates":[144.9661635,-37.8176298],"type":"Point"},"properties":{"events":[{"categories":["Free","Music"],"eDate":"2025-08-13","eName":"Mellowdias Thump","genre":null,"price":"Free","supports":[],"ticketUrl":null,"time":" 8pm"}],"vName":"Wax Music Lounge"},"type":"Feature"}],"type":"FeatureCollection"}