{"features":[{"geometry":{"coordinates":[145.0048929,-37.8035316],"type":"Point"},"properties":{"events":[{"categories":["Music"],"eDate":"2026-03-22","eName":"warm mids afternoon","genre":"Classical","price":"$28.00","supports":[],"ticketUrl":null,"time":" 2pm"}],"vName":"Abbotsford Convent"},"type":"Feature"},{"geometry":{"coordinates":[144.978425,-37.79773],"type":"Point"},"properties":{"events":[{"categories":["Free","Music"],"eDate":"2026-03-22","eName":"Harry Coulson’s Blue Dogs","genre":null,"price":"Free","supports":[],"ticketUrl":null,"time":" 6:30pm"}],"vName":"Bar Open"},"type":"Feature"},{"geometry":{"coordinates":[144.9945274,-37.8001115],"type":"Point"},"properties":{"events":[{"categories":["Free","Music","Festival","Other \"Food \""],"eDate":"2026-03-22","eName":"Little Big Bods Sunday","genre":null,"price":"Free","supports":[],"ticketUrl":null,"time":"11:30am"},{"categories":["Free","Music","Festival","Other \"Food \""],"eDate":"2026-03-22","eName":"Club Tropicana: MFW Event","genre":null,"price":"Free","supports":["Randy Castilla"," DJ Alcalde"],"ticketUrl":null,"time":" 1pm"}],"vName":"Bodriggy Brewing Company"},"type":"Feature"},{"geometry":{"coordinates":[144.9501312,-37.8042459],"type":"Point"},"properties":{"events":[{"categories":["Comedy"],"eDate":"2026-03-22","eName":"Sunday Night Comedy","genre":null,"price":"$10.00","supports":[],"ticketUrl":null,"time":" 7:30pm"}],"vName":"Club Voltaire"},"type":"Feature"},{"geometry":{"coordinates":[144.9976902,-37.7745111],"type":"Point"},"properties":{"events":[{"categories":["Theatre"],"eDate":"2026-03-22","eName":"Mature Skin by Gabrielle Fallen","genre":null,"price":"$10.00 - 38.00","supports":[],"ticketUrl":null,"time":" 5pm"}],"vName":"Northcote Town Hall"},"type":"Feature"},{"geometry":{"coordinates":[144.9758231,-37.7929991],"type":"Point"},"properties":{"events":[{"categories":["Music"],"eDate":"2026-03-22","eName":"Don Hillman’s Secret Beach","genre":null,"price":"Free","supports":[],"ticketUrl":null,"time":" 4pm"}],"vName":"Railway Hotel"},"type":"Feature"},{"geometry":{"coordinates":[144.9879283,-37.7505509],"type":"Point"},"properties":{"events":[{"categories":["Music"],"eDate":"2026-03-22","eName":"Troy Wilson","genre":"Acoustic","price":"Free","supports":[],"ticketUrl":null,"time":" 4pm"}],"vName":"The Merri Bar"},"type":"Feature"},{"geometry":{"coordinates":[144.9985126,-37.7588241],"type":"Point"},"properties":{"events":[{"categories":["Music"],"eDate":"2026-03-22","eName":"Institute","genre":"Punk","price":"$35.00 - 45.00","supports":["Constant Mongrel"," Possible Humans"," Zipper"],"ticketUrl":null,"time":" 2pm"}],"vName":"Thornbury Bowls Club"},"type":"Feature"}],"type":"FeatureCollection"}