{"features":[{"geometry":{"coordinates":[144.9617438862518,-37.7713516],"type":"Point"},"properties":{"events":[{"categories":["Free","Art"],"eDate":"2024-06-04","eName":"Sonic Travellers: Opening Performance","genre":null,"price":"Free","supports":["San"],"ticketUrl":null,"time":" 7:30pm"}],"vName":"Brunswick Mechanics Institute"},"type":"Feature"},{"geometry":{"coordinates":[144.99266639479475,-37.82488935],"type":"Point"},"properties":{"events":[{"categories":["Music"],"eDate":"2024-06-04","eName":"underscores","genre":"Pop","price":"$56.80","supports":[],"ticketUrl":null,"time":" 7:30pm"}],"vName":"Corner Hotel"},"type":"Feature"},{"geometry":{"coordinates":[144.9628440552175,-37.76100605],"type":"Point"},"properties":{"events":[{"categories":["Music"],"eDate":"2024-06-04","eName":"Open Mic Night","genre":"Acoustic","price":"Free","supports":[],"ticketUrl":null,"time":" 7:30pm"}],"vName":"Edinburgh Castle Hotel"},"type":"Feature"},{"geometry":{"coordinates":[144.97609011199125,-37.867583041643705],"type":"Point"},"properties":{"events":[{"categories":["Other \"Spoken Word\"","Other \"Poetry & Forums\""],"eDate":"2024-06-04","eName":"Dr Jane Goodall's Reasons For Hope Tour","genre":null,"price":"$59.90","supports":[],"ticketUrl":null,"time":" 7:30pm"}],"vName":"Palais Theatre"},"type":"Feature"},{"geometry":{"coordinates":[144.9706095,-37.7783326],"type":"Point"},"properties":{"events":[{"categories":["Free","Trivia"],"eDate":"2024-06-04","eName":"Trivia Tuesdays","genre":null,"price":"Free","supports":[],"ticketUrl":null,"time":" 7:30pm"}],"vName":"The Beast"},"type":"Feature"},{"geometry":{"coordinates":[144.97609390481176,-37.86415685],"type":"Point"},"properties":{"events":[{"categories":["Theatre"],"eDate":"2024-06-04","eName":"Ghosts","genre":null,"price":"$50.00","supports":[],"ticketUrl":null,"time":" 7:30pm"}],"vName":"Theatre Works"},"type":"Feature"},{"geometry":{"coordinates":[144.9618426,-37.8125531],"type":"Point"},"properties":{"events":[{"categories":["Free","Music"],"eDate":"2024-06-04","eName":"Genki","genre":null,"price":"Free","supports":[],"ticketUrl":null,"time":" 5pm"}],"vName":"Whitehart Bar"},"type":"Feature"}],"type":"FeatureCollection"}