{"features":[{"geometry":{"coordinates":[144.9763781,-37.7983136],"type":"Point"},"properties":{"events":[{"categories":["Music"],"eDate":"2024-03-10","eName":"Pink Rock Salt - Long Weekend Party","genre":null,"price":"$16.39","supports":["Mailey"," Emma Yue"," Cycad"],"ticketUrl":null,"time":" 7pm"}],"vName":"Bad Decisions Bar"},"type":"Feature"},{"geometry":{"coordinates":[144.9945274,-37.8001115],"type":"Point"},"properties":{"events":[{"categories":["Free","Music"],"eDate":"2024-03-10","eName":"Georgia Ray Band","genre":null,"price":"Free","supports":[],"ticketUrl":null,"time":" 4pm"},{"categories":["Free","Music","Other \"Food & Drink\""],"eDate":"2024-03-10","eName":"Georgia Ray: Live In The Brewpub","genre":null,"price":"Free","supports":[],"ticketUrl":null,"time":" 6pm"}],"vName":"Bodriggy Brewing Company"},"type":"Feature"},{"geometry":{"coordinates":[144.9617018,-37.7704566],"type":"Point"},"properties":{"events":[{"categories":["Music"],"eDate":"2024-03-10","eName":"The Boite presents So Fresh, So Cool! - An Afternoon of Multi-Genre Music","genre":"Global","price":"$25.00","supports":[],"ticketUrl":null,"time":"12:30pm"}],"vName":"Brunswick Ballroom"},"type":"Feature"},{"geometry":{"coordinates":[144.9713425,-37.8128595],"type":"Point"},"properties":{"events":[{"categories":["Music"],"eDate":"2024-03-10","eName":"Cherry Blues: 6v6s","genre":"Blues","price":"Free","supports":[],"ticketUrl":null,"time":" 3pm"},{"categories":["Music"],"eDate":"2024-03-10","eName":"Blood Sugar Sex Magik","genre":null,"price":"$14.41","supports":[],"ticketUrl":null,"time":" 8pm"}],"vName":"Cherry Bar"},"type":"Feature"},{"geometry":{"coordinates":[144.9764962,-37.7983139],"type":"Point"},"properties":{"events":[{"categories":["Music"],"eDate":"2024-03-10","eName":"ShockOne","genre":null,"price":"$37.17","supports":["Don Darkoe"],"ticketUrl":null,"time":"10pm"}],"vName":"Laundry Bar"},"type":"Feature"},{"geometry":{"coordinates":[144.8971518,-37.8054274],"type":"Point"},"properties":{"events":[{"categories":["Free","Music"],"eDate":"2024-03-10","eName":"FREE KARAOKE: Hosted by Prue Brown","genre":"Acoustic","price":"Free","supports":[],"ticketUrl":null,"time":" 6pm"}],"vName":"Mamma Chen's"},"type":"Feature"},{"geometry":{"coordinates":[145.3553553,-37.9078552],"type":"Point"},"properties":{"events":[{"categories":["Free","Music"],"eDate":"2024-03-10","eName":"John Crosbie","genre":null,"price":"Free","supports":[],"ticketUrl":null,"time":" 2pm"}],"vName":"Micawber Tavern"},"type":"Feature"},{"geometry":{"coordinates":[144.98331211946754,-37.80624775],"type":"Point"},"properties":{"events":[{"categories":["Music"],"eDate":"2024-03-10","eName":"All Night Long Feat. OSUNLADE (6 Hour Set) - Labour Day Eve","genre":"Electronic","price":"$22.49","supports":[],"ticketUrl":null,"time":"10pm"}],"vName":"New Guernica"},"type":"Feature"},{"geometry":{"coordinates":[145.0142411,-37.7310367],"type":"Point"},"properties":{"events":[{"categories":["Free","Music"],"eDate":"2024-03-10","eName":"Sunday Sunset Sessions","genre":"Jazz","price":"Free","supports":[],"ticketUrl":null,"time":" 6pm"}],"vName":"Ragtime Tavern"},"type":"Feature"},{"geometry":{"coordinates":[144.9631913,-37.7617818],"type":"Point"},"properties":{"events":[{"categories":["Music"],"eDate":"2024-03-10","eName":"James Lockwood Quartet","genre":"Jazz","price":"$15.00","supports":[],"ticketUrl":null,"time":" 2:30pm"},{"categories":["Music"],"eDate":"2024-03-10","eName":"The James Lockwood Quartet","genre":"Jazz","price":"$15.00","supports":[],"ticketUrl":null,"time":" 2:30pm"},{"categories":["Free","Music"],"eDate":"2024-03-10","eName":"Brunswick Music Festival presents Propane Trio + Araminta","genre":null,"price":"Free","supports":[],"ticketUrl":null,"time":" 8pm"}],"vName":"Ringo Barr"},"type":"Feature"},{"geometry":{"coordinates":[144.9575115,-37.819203],"type":"Point"},"properties":{"events":[{"categories":["Music"],"eDate":"2024-03-10","eName":"Sky Disco Labour Day Eve Special Event","genre":"Electronic","price":"$22.49","supports":[],"ticketUrl":null,"time":" 3pm"}],"vName":"Top Yard Rooftop"},"type":"Feature"}],"type":"FeatureCollection"}