{"features":[{"geometry":{"coordinates":[144.99828116650363,-37.7713296],"type":"Point"},"properties":{"events":[{"categories":["Free","Music"],"eDate":"2024-08-02","eName":"The Tommys","genre":"Rock","price":"Free","supports":["T Bones"],"ticketUrl":null,"time":" 5pm"},{"categories":["Music"],"eDate":"2024-08-02","eName":"The Tonalists","genre":"Soul/Funk","price":"$15.00","supports":[],"ticketUrl":null,"time":" 8:30pm"}],"vName":"Bar 303"},"type":"Feature"},{"geometry":{"coordinates":[144.978682,-37.7981225],"type":"Point"},"properties":{"events":[{"categories":["Free","Music"],"eDate":"2024-08-02","eName":"Lewis Toms","genre":null,"price":"Free","supports":[],"ticketUrl":null,"time":" 9:30pm"},{"categories":["Free","Music"],"eDate":"2024-08-02","eName":"Saatana Lee Rose","genre":null,"price":"Free","supports":[],"ticketUrl":null,"time":"10pm"}],"vName":"Baxter's Lot"},"type":"Feature"},{"geometry":{"coordinates":[144.9617018,-37.7704566],"type":"Point"},"properties":{"events":[{"categories":["Music","Other \"Spoken Word\"","Other \"Poetry & Forums\""],"eDate":"2024-08-02","eName":"Pevan & Sarah: Educator Meet-Up","genre":"Pop","price":"$28.15","supports":[],"ticketUrl":null,"time":" 7pm"},{"categories":["Free","Music"],"eDate":"2024-08-02","eName":"Dream Journal","genre":"Acoustic","price":"Free","supports":["Passat Act"," The Mundaynes"],"ticketUrl":null,"time":" 8pm"}],"vName":"Brunswick Ballroom"},"type":"Feature"},{"geometry":{"coordinates":[145.12326813392298,-38.14614695],"type":"Point"},"properties":{"events":[{"categories":["Theatre"],"eDate":"2024-08-02","eName":"Agatha Christie's The Mousetrap","genre":null,"price":"$85.00 - 99.00","supports":[],"ticketUrl":null,"time":" 7:30pm"}],"vName":"Frankston Arts Centre"},"type":"Feature"},{"geometry":{"coordinates":[144.9875917,-37.7963837],"type":"Point"},"properties":{"events":[{"categories":["Free","Music"],"eDate":"2024-08-02","eName":"The Brakes + Leatherman","genre":"Country/Folk","price":"Free","supports":[],"ticketUrl":null,"time":" 8pm"}],"vName":"Gem Bar"},"type":"Feature"},{"geometry":{"coordinates":[144.9679835243618,-37.8201575],"type":"Point"},"properties":{"events":[{"categories":["Music"],"eDate":"2024-08-02","eName":"You've Got a Friend","genre":"Country/Folk","price":"$85.00","supports":[],"ticketUrl":null,"time":" 7:30pm"}],"vName":"Hamer Hall (Arts Centre Melbourne)"},"type":"Feature"},{"geometry":{"coordinates":[144.973013,-37.8640582],"type":"Point"},"properties":{"events":[{"categories":["Music"],"eDate":"2024-08-02","eName":"LOUDER THAN LOVE: The Voices of a Generation","genre":"Rock","price":"$59.90","supports":["Nirvana Tribute"," The Pearl Jam Experience"],"ticketUrl":null,"time":" 7pm"}],"vName":"Hotel Esplanade (aka The Espy)"},"type":"Feature"},{"geometry":{"coordinates":[144.9596527,-37.7720304],"type":"Point"},"properties":{"events":[{"categories":["Music"],"eDate":"2024-08-02","eName":"Caitlin Harnett & The Pony Boys","genre":"Country/Folk","price":"$33.66","supports":[],"ticketUrl":null,"time":" 8pm"}],"vName":"Howler"},"type":"Feature"},{"geometry":{"coordinates":[144.96741062735794,-37.82454855],"type":"Point"},"properties":{"events":[{"categories":["Music","Comedy"],"eDate":"2024-08-02","eName":"The Friday Revue","genre":"Pop","price":"$32.00","supports":[],"ticketUrl":null,"time":"12:30pm"},{"categories":["Music"],"eDate":"2024-08-02","eName":"Mama Alto: Transcendent","genre":"Jazz","price":"$50.00","supports":[],"ticketUrl":null,"time":" 7pm"}],"vName":"Melbourne Recital Centre"},"type":"Feature"},{"geometry":{"coordinates":[145.3553553,-37.9078552],"type":"Point"},"properties":{"events":[{"categories":["Free","Music"],"eDate":"2024-08-02","eName":"Chris Hoffmann","genre":"Acoustic","price":"Free","supports":[],"ticketUrl":null,"time":" 7pm"}],"vName":"Micawber Tavern"},"type":"Feature"},{"geometry":{"coordinates":[144.96892412239615,-37.82266345],"type":"Point"},"properties":{"events":[{"categories":["Music"],"eDate":"2024-08-02","eName":"NGV Friday Nights: Melbourne African Traditional Ensemble (MATE)","genre":"Global","price":"$45.00","supports":[],"ticketUrl":null,"time":" 6pm"}],"vName":"NGV - National Gallery of Victoria"},"type":"Feature"},{"geometry":{"coordinates":[144.998414,-37.771471],"type":"Point"},"properties":{"events":[{"categories":["Music"],"eDate":"2024-08-02","eName":"Freedom for Falasteen with Kee'ahn","genre":"Soul/Funk","price":"$24.00","supports":["Marroushti"," Daisypicker"," Cold Hands Warm Heart"],"ticketUrl":null,"time":" 7:30pm"}],"vName":"Northcote Social Club"},"type":"Feature"},{"geometry":{"coordinates":[144.9605705,-37.8132486],"type":"Point"},"properties":{"events":[{"categories":["Music"],"eDate":"2024-08-02","eName":"Caleb Wilson Quartet Plays John Coltrane's A Love Supreme","genre":"Jazz","price":"$45.00","supports":[],"ticketUrl":null,"time":" 6pm"},{"categories":["Music"],"eDate":"2024-08-02","eName":"Sarah Maclaine Quintet","genre":"Jazz","price":"$45.00","supports":[],"ticketUrl":null,"time":" 6:30pm"},{"categories":["Music"],"eDate":"2024-08-02","eName":"Nardia: Etta James meets Eva Cassidy","genre":"Jazz","price":"$45.00","supports":["Jon Hunt"],"ticketUrl":null,"time":" 8pm"},{"categories":["Music"],"eDate":"2024-08-02","eName":"Joel Sena plays SAX FUNK Instrumental Groove Classics","genre":"Jazz","price":"$40.00","supports":[],"ticketUrl":null,"time":" 9:30pm"}],"vName":"Paris Cat Jazz Club"},"type":"Feature"},{"geometry":{"coordinates":[144.9615882,-37.7711432],"type":"Point"},"properties":{"events":[{"categories":["Music"],"eDate":"2024-08-02","eName":"Marley del Prete","genre":"Jazz","price":"$10.00 - 15.00","supports":["Damnjody"," The Dean Kalait Trio: Genesis"],"ticketUrl":null,"time":" 7:30pm"}],"vName":"Retreat Hotel"},"type":"Feature"},{"geometry":{"coordinates":[144.9631913,-37.7617818],"type":"Point"},"properties":{"events":[{"categories":["Music"],"eDate":"2024-08-02","eName":"Thicken + Ebi Nori","genre":"Electronic","price":"$15.00","supports":[],"ticketUrl":null,"time":" 8pm"}],"vName":"Ringo Barr"},"type":"Feature"},{"geometry":{"coordinates":[144.9607404,-37.7743469],"type":"Point"},"properties":{"events":[{"categories":["Music"],"eDate":"2024-08-02","eName":"Health Official Afterparty","genre":"Electronic","price":"$13.30","supports":[],"ticketUrl":null,"time":"11pm"}],"vName":"Stay Gold"},"type":"Feature"},{"geometry":{"coordinates":[144.9708437,-37.7973184],"type":"Point"},"properties":{"events":[{"categories":["Free","Music"],"eDate":"2024-08-02","eName":"James Lockwood","genre":"Jazz","price":"Free","supports":[],"ticketUrl":null,"time":" 7pm"}],"vName":"The Motley Bauhaus"},"type":"Feature"},{"geometry":{"coordinates":[144.9651425,-37.8119429],"type":"Point"},"properties":{"events":[{"categories":["Music"],"eDate":"2024-08-02","eName":"Taylor Henderson","genre":"Acoustic","price":"$43.86","supports":[],"ticketUrl":null,"time":" 7:30pm"}],"vName":"The Toff In Town"},"type":"Feature"},{"geometry":{"coordinates":[144.9618426,-37.8125531],"type":"Point"},"properties":{"events":[{"categories":["Free","Music"],"eDate":"2024-08-02","eName":"Nightfall","genre":"R&B","price":"Free","supports":[],"ticketUrl":null,"time":" 4pm"}],"vName":"Whitehart Bar"},"type":"Feature"}],"type":"FeatureCollection"}