{"features":[{"geometry":{"coordinates":[144.9679835,-37.8201575],"type":"Point"},"properties":{"events":[{"categories":["Music","Other \"Dance \""],"eDate":"2025-06-07","eName":"Botis Seva: BLKDOG","genre":"Hip Hop","price":"$44.00 - 69.00","supports":[],"ticketUrl":null,"time":" 5pm"}],"vName":"Arts Centre Melbourne"},"type":"Feature"},{"geometry":{"coordinates":[144.9982812,-37.7713296],"type":"Point"},"properties":{"events":[{"categories":["Music"],"eDate":"2025-06-07","eName":"Tsunami & The Spirit Sounds","genre":"Jazz","price":"Free","supports":[],"ticketUrl":null,"time":" 9pm"}],"vName":"Bar 303"},"type":"Feature"},{"geometry":{"coordinates":[144.978682,-37.7981225],"type":"Point"},"properties":{"events":[{"categories":["Free","Music"],"eDate":"2025-06-07","eName":"Woody Samson","genre":null,"price":"Free","supports":[],"ticketUrl":null,"time":" 9pm"},{"categories":["Free","Music"],"eDate":"2025-06-07","eName":"DJ Nomar Jr","genre":null,"price":"Free","supports":[],"ticketUrl":null,"time":"10pm"}],"vName":"Baxter's Lot"},"type":"Feature"},{"geometry":{"coordinates":[144.609835,-38.1379811],"type":"Point"},"properties":{"events":[{"categories":["Free","Music"],"eDate":"2025-06-07","eName":"Handsome Gargoyles","genre":"Pop","price":"Free","supports":[],"ticketUrl":null,"time":" 7pm"}],"vName":"Bellarine Estate"},"type":"Feature"},{"geometry":{"coordinates":[145.3339412,-37.9158104],"type":"Point"},"properties":{"events":[{"categories":["Music"],"eDate":"2025-06-07","eName":"Mick Harvey & Amanda Acevedo","genre":"Indie","price":"$59.90","supports":[],"ticketUrl":null,"time":" 8pm"}],"vName":"Burrinja Cultural Centre"},"type":"Feature"},{"geometry":{"coordinates":[144.9713425,-37.8128595],"type":"Point"},"properties":{"events":[{"categories":["Free","Music"],"eDate":"2025-06-07","eName":"Death Disco","genre":"Electronic","price":"Free","supports":[],"ticketUrl":null,"time":"11pm"}],"vName":"Cherry Bar"},"type":"Feature"},{"geometry":{"coordinates":[144.9679835,-37.8201575],"type":"Point"},"properties":{"events":[{"categories":["Music"],"eDate":"2025-06-07","eName":"Harry Potter and the Philosopher’s Stone in Concert","genre":"Classical","price":"$75.00","supports":[],"ticketUrl":null,"time":" 1pm"}],"vName":"Hamer Hall (Arts Centre Melbourne)"},"type":"Feature"},{"geometry":{"coordinates":[145.0314658,-37.8067273],"type":"Point"},"properties":{"events":[{"categories":["Music"],"eDate":"2025-06-07","eName":"Jailhouse Concert Series: Come Heavy Sleep","genre":null,"price":"$25.00 - 35.00","supports":[],"ticketUrl":null,"time":" 7:30pm"}],"vName":"Kew Court House"},"type":"Feature"},{"geometry":{"coordinates":[145.0358258,-37.9334203],"type":"Point"},"properties":{"events":[{"categories":["Music"],"eDate":"2025-06-07","eName":"Live at City Hall: Josh Pyke","genre":null,"price":"$45.00 - 55.00","supports":[],"ticketUrl":null,"time":" 7:30pm"}],"vName":"Kingston City Hall"},"type":"Feature"},{"geometry":{"coordinates":[144.8975289,-37.8022392],"type":"Point"},"properties":{"events":[{"categories":["Free","Music"],"eDate":"2025-06-07","eName":"Spy Fox Six","genre":null,"price":"Free","supports":["chEEsEs"," Nina Rose"],"ticketUrl":null,"time":" 7:30pm"}],"vName":"Mamma Chen's"},"type":"Feature"},{"geometry":{"coordinates":[144.9658499,-37.8147453],"type":"Point"},"properties":{"events":[{"categories":["Music"],"eDate":"2025-06-07","eName":"Day Tripper – Chapter Music: End of an Era","genre":"Electronic","price":"$129.00","supports":[],"ticketUrl":null,"time":"12pm"}],"vName":"Max Watt's (Melbourne)"},"type":"Feature"},{"geometry":{"coordinates":[144.9664313,-37.8146299],"type":"Point"},"properties":{"events":[{"categories":["Music"],"eDate":"2025-06-07","eName":"Day Tripper (Melbourne Town Hall)","genre":"Indie","price":"$129.00","supports":[],"ticketUrl":null,"time":"12pm"},{"categories":["Music","Other \"Dance \""],"eDate":"2025-06-07","eName":"First Frequency: A Blackfulla Dance Music Experience","genre":"Electronic","price":"$49.00","supports":[],"ticketUrl":null,"time":" 9pm"}],"vName":"Melbourne Town Hall"},"type":"Feature"},{"geometry":{"coordinates":[144.9790251,-37.8675008],"type":"Point"},"properties":{"events":[{"categories":["Music"],"eDate":"2025-06-07","eName":"LandDownUnder: When Australian Music Took On The World","genre":"Rock","price":"$40.00 - 55.00","supports":[],"ticketUrl":null,"time":" 7pm"}],"vName":"Memo Music Hall"},"type":"Feature"},{"geometry":{"coordinates":[144.9256335,-37.8296919],"type":"Point"},"properties":{"events":[{"categories":["Music"],"eDate":"2025-06-07","eName":"Suki Waterhouse","genre":"Pop","price":"$116.00 - 129.00","supports":[],"ticketUrl":null,"time":" 6:30pm"}],"vName":"PICA (Port Melbourne Industrial Centre for the Arts)"},"type":"Feature"},{"geometry":{"coordinates":[144.96084,-37.813514],"type":"Point"},"properties":{"events":[{"categories":["Music"],"eDate":"2025-06-07","eName":"Not So Big Band: The Best of Frank & Ella (with Ben McGill & Ava McDermott)","genre":"Jazz","price":"$45.00","supports":[],"ticketUrl":null,"time":" 6pm"},{"categories":["Music"],"eDate":"2025-06-07","eName":"Nadira & Friends Present: Songs of Nat King Cole","genre":"Jazz","price":"$45.00","supports":[],"ticketUrl":null,"time":" 6:30pm"},{"categories":["Music"],"eDate":"2025-06-07","eName":"Not So Big Band: The Best of Frank & Ella (with Ben McGill & Ava McDermott) (Later Session)","genre":"Jazz","price":"$45.00","supports":[],"ticketUrl":null,"time":" 9pm"},{"categories":["Music"],"eDate":"2025-06-07","eName":"The Musical Evolution of Miles Davis","genre":"Jazz","price":"$45.00","supports":[],"ticketUrl":null,"time":" 9:30pm"}],"vName":"Paris Cat Jazz Club"},"type":"Feature"},{"geometry":{"coordinates":[144.9657057,-37.8061581],"type":"Point"},"properties":{"events":[{"categories":["Music"],"eDate":"2025-06-07","eName":"The Noise","genre":"Rock","price":"$15.00","supports":["Deporsal"," Dog Door"],"ticketUrl":null,"time":" 7:30pm"}],"vName":"The Curtin"},"type":"Feature"},{"geometry":{"coordinates":[144.9586498,-37.766903],"type":"Point"},"properties":{"events":[{"categories":["Music"],"eDate":"2025-06-07","eName":"Checkerboard Lounge with Bob Sedergreen","genre":"Jazz","price":"$35.00 - 40.00","supports":[],"ticketUrl":null,"time":" 8pm"}],"vName":"The Jazzlab"},"type":"Feature"},{"geometry":{"coordinates":[144.9708437,-37.7973184],"type":"Point"},"properties":{"events":[{"categories":["Comedy","Theatre"],"eDate":"2025-06-07","eName":"The Big HOO-HAA!","genre":null,"price":"$32.00","supports":[],"ticketUrl":null,"time":" 8:30pm"}],"vName":"The Motley Bauhaus"},"type":"Feature"},{"geometry":{"coordinates":[145.1818891,-37.8163371],"type":"Point"},"properties":{"events":[{"categories":["Other \"Spoken Word, Poetry \""],"eDate":"2025-06-07","eName":"Friday Barnes, In Plain Sight (The Book Launch Show)","genre":null,"price":"$27.50","supports":[],"ticketUrl":null,"time":" 2pm"}],"vName":"The Round"},"type":"Feature"},{"geometry":{"coordinates":[144.9870814,-37.799406],"type":"Point"},"properties":{"events":[{"categories":["Free","Music"],"eDate":"2025-06-07","eName":"Front Bar Harsh Noise","genre":"Experimental","price":"Free","supports":[],"ticketUrl":null,"time":" 3pm"},{"categories":["Music"],"eDate":"2025-06-07","eName":"Star-Jock*","genre":"Metal","price":"$11.25","supports":[],"ticketUrl":null,"time":" 8pm"},{"categories":["Music"],"eDate":"2025-06-07","eName":"Totally Unicorn","genre":"Rock","price":"$23.50","supports":["The World At A Glance"," Terrificus"," Gun Laws"],"ticketUrl":null,"time":" 8pm"}],"vName":"The Tote Hotel"},"type":"Feature"},{"geometry":{"coordinates":[144.9769451,-37.8055776],"type":"Point"},"properties":{"events":[{"categories":["Music"],"eDate":"2025-06-07","eName":"Disgruntled Civil Servant","genre":"Punk","price":"$12.75","supports":["The Rartel"," Porcus vs Equus"," Flowers in The Attic"],"ticketUrl":null,"time":" 1pm"}],"vName":"The Workers Club"},"type":"Feature"},{"geometry":{"coordinates":[144.9984324,-37.7729134],"type":"Point"},"properties":{"events":[{"categories":["Music"],"eDate":"2025-06-07","eName":"Max Bruten Trio","genre":"Jazz","price":"Free","supports":[],"ticketUrl":null,"time":" 6pm"},{"categories":["Music"],"eDate":"2025-06-07","eName":"Kinematic","genre":"Jazz","price":"$17.35","supports":["David Hosking"," Sarah Liversidge"],"ticketUrl":null,"time":" 8pm"}],"vName":"Wesley Anne"},"type":"Feature"}],"type":"FeatureCollection"}