{"features":[{"geometry":{"coordinates":[144.9715791,-37.8140656],"type":"Point"},"properties":{"events":[{"categories":["Theatre"],"eDate":"2025-02-08","eName":"Shirley Valentine","genre":null,"price":"$30.00 - 139.00","supports":[],"ticketUrl":null,"time":" 2pm"},{"categories":["Theatre"],"eDate":"2025-02-08","eName":"Shirley Valentine","genre":null,"price":"$30.00 - 139.00","supports":[],"ticketUrl":null,"time":" 7:30pm"}],"vName":"Athenaeum Theatre"},"type":"Feature"},{"geometry":{"coordinates":[144.978682,-37.7981225],"type":"Point"},"properties":{"events":[{"categories":["Free","Music"],"eDate":"2025-02-08","eName":"Woody Samson","genre":null,"price":"Free","supports":[],"ticketUrl":null,"time":" 9pm"}],"vName":"Baxter's Lot"},"type":"Feature"},{"geometry":{"coordinates":[144.98911674151407,-37.79964875],"type":"Point"},"properties":{"events":[{"categories":["Music"],"eDate":"2025-02-08","eName":"System Of A Don't","genre":"Metal","price":"$20.40","supports":["Stronger Than All"," C()ntact"],"ticketUrl":null,"time":" 9pm"}],"vName":"Bendigo Hotel"},"type":"Feature"},{"geometry":{"coordinates":[144.9607158,-37.776327],"type":"Point"},"properties":{"events":[{"categories":["Music"],"eDate":"2025-02-08","eName":"Takee Alif","genre":"Pop","price":"$16.85","supports":["Friggy"," Adam Mendum"," Tahlea"],"ticketUrl":null,"time":" 1pm"},{"categories":["Music"],"eDate":"2025-02-08","eName":"Soda Boyz","genre":"Indie","price":"$16.85","supports":["Linen"," more"],"ticketUrl":null,"time":" 8pm"}],"vName":"Bergy Bandroom"},"type":"Feature"},{"geometry":{"coordinates":[144.9567859,-37.8111049],"type":"Point"},"properties":{"events":[{"categories":["Music"],"eDate":"2025-02-08","eName":"Steve Clisby Band","genre":"Soul/Funk","price":"$38.00","supports":[],"ticketUrl":null,"time":" 7:30pm"}],"vName":"Bird's Basement"},"type":"Feature"},{"geometry":{"coordinates":[144.9617018,-37.7704566],"type":"Point"},"properties":{"events":[{"categories":["Music"],"eDate":"2025-02-08","eName":"James Ellis with The Jealous Guys","genre":"Country/Folk","price":"$33.76","supports":["Rhiz & The Sugarplums"],"ticketUrl":null,"time":" 8:30pm"}],"vName":"Brunswick Ballroom"},"type":"Feature"},{"geometry":{"coordinates":[145.0006024,-37.8837941],"type":"Point"},"properties":{"events":[{"categories":["Music"],"eDate":"2025-02-08","eName":"The New Impromptu Quartet with Karina Lehman","genre":"Jazz","price":"$30.00","supports":[],"ticketUrl":null,"time":" 8pm"},{"categories":["Music"],"eDate":"2025-02-08","eName":"Peter Baylor's Ultrafox Quartet","genre":"Jazz","price":"$30.00","supports":[],"ticketUrl":null,"time":" 8pm"}],"vName":"Classic Southside"},"type":"Feature"},{"geometry":{"coordinates":[144.99266639479475,-37.82488935],"type":"Point"},"properties":{"events":[{"categories":["Music"],"eDate":"2025-02-08","eName":"Bob Marley Birthday Bash","genre":"Global","price":"$29.10","supports":[],"ticketUrl":null,"time":" 8pm"}],"vName":"Corner Hotel"},"type":"Feature"},{"geometry":{"coordinates":[144.98535244416098,-37.79426315],"type":"Point"},"properties":{"events":[{"categories":["Music"],"eDate":"2025-02-08","eName":"Gold Haus Day Party at The Gaso #2","genre":"Electronic","price":"$23.50 - 28.60","supports":[],"ticketUrl":null,"time":" 2pm"}],"vName":"Gasometer Hotel"},"type":"Feature"},{"geometry":{"coordinates":[144.9875917,-37.7963837],"type":"Point"},"properties":{"events":[{"categories":["Free","Music"],"eDate":"2025-02-08","eName":"Great Australian Bank + The Mundaynes","genre":"Punk","price":"Free","supports":[],"ticketUrl":null,"time":" 4pm"}],"vName":"Gem Bar"},"type":"Feature"},{"geometry":{"coordinates":[144.9679835243618,-37.8201575],"type":"Point"},"properties":{"events":[{"categories":["Music"],"eDate":"2025-02-08","eName":"Chinese New Year","genre":"Classical","price":"$63.75 - 127.00","supports":[],"ticketUrl":null,"time":" 7:30pm"}],"vName":"Hamer Hall (Arts Centre Melbourne)"},"type":"Feature"},{"geometry":{"coordinates":[144.973013,-37.8640582],"type":"Point"},"properties":{"events":[{"categories":["Music"],"eDate":"2025-02-08","eName":"Lachy Doley","genre":"Rock","price":"$38.25","supports":[],"ticketUrl":null,"time":" 5:30pm"}],"vName":"Hotel Esplanade (aka The Espy)"},"type":"Feature"},{"geometry":{"coordinates":[144.9631732,-37.8142454],"type":"Point"},"properties":{"events":[{"categories":["Free","Music"],"eDate":"2025-02-08","eName":"Dusk Til Dark at MPavilion: Xani x Kelly","genre":null,"price":"Free","supports":[],"ticketUrl":null,"time":" 7:30pm"}],"vName":"MPavilion"},"type":"Feature"},{"geometry":{"coordinates":[144.8971518,-37.8054274],"type":"Point"},"properties":{"events":[{"categories":["Free","Music"],"eDate":"2025-02-08","eName":"Riflebirds","genre":null,"price":"Free","supports":["Plastic Cheeses"," Fawkner Walking Society"],"ticketUrl":null,"time":" 7:30pm"}],"vName":"Mamma Chen's"},"type":"Feature"},{"geometry":{"coordinates":[144.9659879,-37.8147557],"type":"Point"},"properties":{"events":[{"categories":["Music"],"eDate":"2025-02-08","eName":"God Is An Astronaut","genre":"Rock","price":"$96.40","supports":["Solkyri"," Treebeard"],"ticketUrl":null,"time":" 7:30pm"}],"vName":"Max Watt's (Melbourne)"},"type":"Feature"},{"geometry":{"coordinates":[144.96741062735794,-37.82454855],"type":"Point"},"properties":{"events":[{"categories":["Music"],"eDate":"2025-02-08","eName":"Brahms & Beethoven","genre":"Classical","price":"$59.00","supports":[],"ticketUrl":null,"time":" 7:30pm"}],"vName":"Melbourne Recital Centre"},"type":"Feature"},{"geometry":{"coordinates":[144.9786817,-37.8671902],"type":"Point"},"properties":{"events":[{"categories":["Music","Theatre"],"eDate":"2025-02-08","eName":"Cricket: The Musical","genre":"Pop","price":"$40.00 - 50.00","supports":[],"ticketUrl":null,"time":" 7pm"}],"vName":"Memo Music Hall"},"type":"Feature"},{"geometry":{"coordinates":[144.998414,-37.771471],"type":"Point"},"properties":{"events":[{"categories":["Music"],"eDate":"2025-02-08","eName":"Tyler Hilton","genre":"Acoustic","price":"$56.80","supports":[],"ticketUrl":null,"time":" 8:30pm"}],"vName":"Northcote Social Club"},"type":"Feature"},{"geometry":{"coordinates":[144.9977626,-37.7755001],"type":"Point"},"properties":{"events":[{"categories":["Music"],"eDate":"2025-02-08","eName":"Bradley Simpson: The Panic Years","genre":"Rock","price":"$83.90","supports":[],"ticketUrl":null,"time":" 7:30pm"}],"vName":"Northcote Theatre"},"type":"Feature"},{"geometry":{"coordinates":[144.9605705,-37.8132486],"type":"Point"},"properties":{"events":[{"categories":["Music"],"eDate":"2025-02-08","eName":"Not So Big Band: Best of Bublé with Ben McGill (Early Session)","genre":"Jazz","price":"$45.00","supports":[],"ticketUrl":null,"time":" 6pm"},{"categories":["Music"],"eDate":"2025-02-08","eName":"Joys Njambi Presents: Queens of Soul (Early Session)","genre":"Jazz","price":"$45.00","supports":[],"ticketUrl":null,"time":" 6:30pm"},{"categories":["Music"],"eDate":"2025-02-08","eName":"Not So Big Band: Best of Bublé with Ben McGill","genre":"Jazz","price":"$45.00","supports":[],"ticketUrl":null,"time":" 9pm"},{"categories":["Music"],"eDate":"2025-02-08","eName":"Joys Njambi Presents: Queens of Soul","genre":"Jazz","price":"$45.00","supports":[],"ticketUrl":null,"time":" 9:30pm"}],"vName":"Paris Cat Jazz Club"},"type":"Feature"},{"geometry":{"coordinates":[144.9615882,-37.7711432],"type":"Point"},"properties":{"events":[{"categories":["Free","Music"],"eDate":"2025-02-08","eName":"Anatreptix","genre":"Global","price":"Free","supports":[],"ticketUrl":null,"time":" 2pm"},{"categories":["Music"],"eDate":"2025-02-08","eName":"Bin Night Bandits","genre":"Indie","price":"$15.00","supports":[],"ticketUrl":null,"time":" 7:30pm"}],"vName":"Retreat Hotel"},"type":"Feature"},{"geometry":{"coordinates":[144.9607404,-37.7743469],"type":"Point"},"properties":{"events":[{"categories":["Other \"Spoken Word\"","Other \"Poetry & Forums\""],"eDate":"2025-02-08","eName":"Melanated In Melbourne","genre":null,"price":"$15.00 - 25.00","supports":[],"ticketUrl":null,"time":" 7pm"},{"categories":["Music"],"eDate":"2025-02-08","eName":"Gracie Abrams Night","genre":"Pop","price":"$13.80 - 22.00","supports":[],"ticketUrl":null,"time":"11pm"}],"vName":"Stay Gold"},"type":"Feature"},{"geometry":{"coordinates":[144.9657057,-37.8061581],"type":"Point"},"properties":{"events":[{"categories":["Music"],"eDate":"2025-02-08","eName":"Dr. Colossus + Bahboon","genre":"Metal","price":"$33.45","supports":["A Gazillion Angry Mexicans"," Lucifungus"," Casino Stepdad"],"ticketUrl":null,"time":" 8pm"}],"vName":"The Curtin"},"type":"Feature"},{"geometry":{"coordinates":[144.9585654,-37.8059962],"type":"Point"},"properties":{"events":[{"categories":["Music"],"eDate":"2025-02-08","eName":"TENCH","genre":"Punk","price":"$11.25","supports":["Waxman"," Le Bongé"],"ticketUrl":null,"time":" 3pm"},{"categories":["Music"],"eDate":"2025-02-08","eName":"TOTAL EXTREME AURAL OBLITERATION","genre":"Metal","price":"$11.25","supports":[],"ticketUrl":null,"time":" 8pm"}],"vName":"The Last Chance Rock & Roll Bar"},"type":"Feature"},{"geometry":{"coordinates":[144.9708437,-37.7973184],"type":"Point"},"properties":{"events":[{"categories":["Free","Music"],"eDate":"2025-02-08","eName":"Jazz Arvos","genre":"Jazz","price":"Free","supports":[],"ticketUrl":null,"time":" 5pm"},{"categories":["Music","Other \"Spoken Word\"","Other \"Poetry & Forums\""],"eDate":"2025-02-08","eName":"Clearings in the Sky (Clairières dans le ciel)","genre":"Indie","price":"$25.33","supports":[],"ticketUrl":null,"time":" 7pm"},{"categories":["Music","Festival","Other \"Cabaret\""],"eDate":"2025-02-08","eName":"New Beginnings at Midsumma","genre":null,"price":"$24.00 - 28.00","supports":["Cloutie Will"],"ticketUrl":null,"time":" 8:40pm"}],"vName":"The Motley Bauhaus"},"type":"Feature"},{"geometry":{"coordinates":[144.9830837,-37.7988316],"type":"Point"},"properties":{"events":[{"categories":["Music"],"eDate":"2025-02-08","eName":"Ella Thompson","genre":"Soul/Funk","price":"$32.62 - 39.76","supports":[],"ticketUrl":null,"time":" 7:30pm"},{"categories":["Music"],"eDate":"2025-02-08","eName":"Good Times: Owelu Dreamhouse","genre":"Soul/Funk","price":"$15.00","supports":[],"ticketUrl":null,"time":"11pm"}],"vName":"The Night Cat"},"type":"Feature"},{"geometry":{"coordinates":[144.9622,-37.7679857],"type":"Point"},"properties":{"events":[{"categories":["Music"],"eDate":"2025-02-08","eName":"Matsumura Presents: The Summer Fling","genre":"Blues","price":"$22.49","supports":[],"ticketUrl":null,"time":" 6pm"},{"categories":["Music","Festival"],"eDate":"2025-02-08","eName":"Matsumura Presents: The Summerfling","genre":"Soul/Funk","price":"$20.00","supports":[],"ticketUrl":null,"time":" 6pm"}],"vName":"The Penny Black"},"type":"Feature"},{"geometry":{"coordinates":[144.9651425,-37.8119429],"type":"Point"},"properties":{"events":[{"categories":["Music"],"eDate":"2025-02-08","eName":"Innamind Recordings Label Tour","genre":"Electronic","price":"$38.76","supports":[],"ticketUrl":null,"time":"10pm"}],"vName":"The Toff In Town"},"type":"Feature"},{"geometry":{"coordinates":[144.9846126,-37.7989941],"type":"Point"},"properties":{"events":[{"categories":["Music"],"eDate":"2025-02-08","eName":"Punish","genre":"Metal","price":"$16.35","supports":["Krul"," Encierro"," Proboscis"],"ticketUrl":null,"time":" 8pm"}],"vName":"The Tote Hotel"},"type":"Feature"}],"type":"FeatureCollection"}