{"features":[{"geometry":{"coordinates":[144.978682,-37.7981225],"type":"Point"},"properties":{"events":[{"categories":["Free","Music"],"eDate":"2026-04-11","eName":"Harrisen Hughes","genre":null,"price":"Free","supports":[],"ticketUrl":null,"time":" 9pm"}],"vName":"Baxter's Lot"},"type":"Feature"},{"geometry":{"coordinates":[145.0004166,-37.7612582],"type":"Point"},"properties":{"events":[{"categories":["Music"],"eDate":"2026-04-11","eName":"Budd","genre":null,"price":"$20.95","supports":["Winternationale"," IV"," Shoeb Ahmad"],"ticketUrl":null,"time":" 7pm"},{"categories":["Music"],"eDate":"2026-04-11","eName":"BUDD","genre":null,"price":"$20.00","supports":["Winternationale"," IV"," Shoeb Ahmad"],"ticketUrl":null,"time":" 7pm"}],"vName":"Cactus Room"},"type":"Feature"},{"geometry":{"coordinates":[144.9779203,-37.8663225],"type":"Point"},"properties":{"events":[{"categories":["Music"],"eDate":"2026-04-11","eName":"The Sharp","genre":"Rock","price":"Free","supports":["Finn Coltrane Duo"],"ticketUrl":null,"time":" 8pm"}],"vName":"Dogs Bar"},"type":"Feature"},{"geometry":{"coordinates":[144.9627513,-37.760963],"type":"Point"},"properties":{"events":[{"categories":["Free","Music"],"eDate":"2026-04-11","eName":"Rachel Clark","genre":"Acoustic","price":"Free","supports":[],"ticketUrl":null,"time":" 8pm"}],"vName":"Edinburgh Castle Hotel"},"type":"Feature"},{"geometry":{"coordinates":[144.9780305,-37.8599731],"type":"Point"},"properties":{"events":[{"categories":["Music"],"eDate":"2026-04-11","eName":"Little Murders","genre":"Rock","price":"$15.00","supports":["The Vibrajets"],"ticketUrl":null,"time":" 2:30pm"}],"vName":"George Lane"},"type":"Feature"},{"geometry":{"coordinates":[144.9679835,-37.8201575],"type":"Point"},"properties":{"events":[{"categories":["Music","Other \"Film\""],"eDate":"2026-04-11","eName":"Disney’s Beauty & the Beast in Concert (Matinee Session)","genre":"Classical","price":"$88.00 - 136.00","supports":[],"ticketUrl":null,"time":" 1pm"},{"categories":["Music","Other \"Film\""],"eDate":"2026-04-11","eName":"Disney’s Beauty & the Beast in Concert","genre":"Classical","price":"$88.00 - 136.00","supports":[],"ticketUrl":null,"time":" 8pm"}],"vName":"Hamer Hall (Arts Centre Melbourne)"},"type":"Feature"},{"geometry":{"coordinates":[144.9571785,-37.8188809],"type":"Point"},"properties":{"events":[{"categories":["Music"],"eDate":"2026-04-11","eName":"Daydream80s #7: new wave. pop. alternative. daytime.","genre":"Pop","price":"$23.00","supports":[],"ticketUrl":null,"time":" 3pm"}],"vName":"Inflation Entertainment Complex"},"type":"Feature"},{"geometry":{"coordinates":[144.8975289,-37.8022392],"type":"Point"},"properties":{"events":[{"categories":["Music"],"eDate":"2026-04-11","eName":"Thom Johnston","genre":null,"price":"$15.00 - 20.00","supports":["the name Will"," Amber Richmond"],"ticketUrl":null,"time":" 7:30pm"}],"vName":"Mamma Chen's"},"type":"Feature"},{"geometry":{"coordinates":[144.9895284,-37.7993224],"type":"Point"},"properties":{"events":[{"categories":["Music"],"eDate":"2026-04-11","eName":"StoneWilde","genre":null,"price":"$20.00","supports":["Exiles"," Kev Walsh"],"ticketUrl":null,"time":" 8pm"}],"vName":"Nighthawks"},"type":"Feature"},{"geometry":{"coordinates":[144.9761619,-37.8230506],"type":"Point"},"properties":{"events":[{"categories":["Music"],"eDate":"2026-04-11","eName":"mgk","genre":"Hip Hop","price":"$109.90","supports":[],"ticketUrl":null,"time":" 7pm"}],"vName":"Rod Laver Arena"},"type":"Feature"},{"geometry":{"coordinates":[144.9995955,-37.762377],"type":"Point"},"properties":{"events":[{"categories":["Music"],"eDate":"2026-04-11","eName":"Regurgitator","genre":"Rock","price":"$65.00","supports":["Dem Mob"],"ticketUrl":null,"time":" 7pm"}],"vName":"The Croxton"},"type":"Feature"},{"geometry":{"coordinates":[144.9657057,-37.8061581],"type":"Point"},"properties":{"events":[{"categories":["Music"],"eDate":"2026-04-11","eName":"Destrends","genre":"Rock","price":"$22.85 - 30.00","supports":["Y Street",""," Hesh"],"ticketUrl":null,"time":" 8pm"}],"vName":"The Curtin"},"type":"Feature"},{"geometry":{"coordinates":[144.9879283,-37.7505509],"type":"Point"},"properties":{"events":[{"categories":["Music"],"eDate":"2026-04-11","eName":"Scarlet Fever","genre":"Country/Folk","price":"Free","supports":[],"ticketUrl":null,"time":" 7pm"}],"vName":"The Merri Bar"},"type":"Feature"},{"geometry":{"coordinates":[144.9794553,-37.7982653],"type":"Point"},"properties":{"events":[{"categories":["Music"],"eDate":"2026-04-11","eName":"Santiago Motorizado","genre":"Global","price":"$63.14","supports":[],"ticketUrl":null,"time":" 7pm"}],"vName":"The Night Cat"},"type":"Feature"},{"geometry":{"coordinates":[145.0141502,-37.8117556],"type":"Point"},"properties":{"events":[{"categories":["Music"],"eDate":"2026-04-11","eName":"A Sacred Journey in Sound","genre":"Global","price":"$40.00","supports":[],"ticketUrl":null,"time":" 7pm"}],"vName":"The Open Space"},"type":"Feature"},{"geometry":{"coordinates":[145.0011167,-37.754662],"type":"Point"},"properties":{"events":[{"categories":["Comedy"],"eDate":"2026-04-11","eName":"Luke Kidgell: Good Intentions","genre":null,"price":"$55.00","supports":[],"ticketUrl":null,"time":" 6pm"}],"vName":"The Thornbury Theatre"},"type":"Feature"},{"geometry":{"coordinates":[144.9212126,-37.8326711],"type":"Point"},"properties":{"events":[{"categories":["Music"],"eDate":"2026-04-11","eName":"Ability Fest 2026","genre":"Electronic","price":"Free","supports":["more"],"ticketUrl":null,"time":" 2pm"}],"vName":"The Timber Yard"},"type":"Feature"},{"geometry":{"coordinates":[144.9985126,-37.7588241],"type":"Point"},"properties":{"events":[{"categories":["Music"],"eDate":"2026-04-11","eName":"Bad Boy of Folk: Cassette Launch","genre":"Country/Folk","price":"$20.00","supports":["Tim Woodz"," Out of Abingdon"," Wattle Lane"],"ticketUrl":null,"time":" 7pm"}],"vName":"Thornbury Bowls Club"},"type":"Feature"},{"geometry":{"coordinates":[145.1603807,-37.9035668],"type":"Point"},"properties":{"events":[{"categories":["Music"],"eDate":"2026-04-11","eName":"Judex Rose","genre":null,"price":"$30.00","supports":["Ras Jahknow Band"," Soultribe"," Sonikwaves"],"ticketUrl":null,"time":" 7pm"}],"vName":"Village Green"},"type":"Feature"},{"geometry":{"coordinates":[144.9661635,-37.8176298],"type":"Point"},"properties":{"events":[{"categories":["Free","Music","Other \"Art \""],"eDate":"2026-04-11","eName":"Claim 2 Fame Book Signing","genre":"Rock","price":"Free","supports":[],"ticketUrl":null,"time":"12pm"}],"vName":"Wax Music Lounge"},"type":"Feature"},{"geometry":{"coordinates":[144.9984324,-37.7729134],"type":"Point"},"properties":{"events":[{"categories":["Music"],"eDate":"2026-04-11","eName":"Sara & Ecka","genre":"Rock","price":"Free","supports":[],"ticketUrl":null,"time":" 6pm"}],"vName":"Wesley Anne"},"type":"Feature"}],"type":"FeatureCollection"}