{"features":[{"geometry":{"coordinates":[144.968386,-37.81843],"type":"Point"},"properties":{"events":[{"categories":["Music","Comedy"],"eDate":"2025-04-08","eName":"Cameron James: Broken Records","genre":"Indie","price":"$25.00 - 35.00","supports":[],"ticketUrl":null,"time":" 7:30pm"}],"vName":"ACMI"},"type":"Feature"},{"geometry":{"coordinates":[144.9679835243618,-37.8201575],"type":"Point"},"properties":{"events":[{"categories":["Music","Comedy","Other \"Cabaret\""],"eDate":"2025-04-08","eName":"Jude Perl: Jude Perl Tries To Finish A Sentence","genre":"Pop","price":"$32.00 - 35.00","supports":[],"ticketUrl":null,"time":" 6pm"},{"categories":["Comedy"],"eDate":"2025-04-08","eName":"Geraldine Hickey: Meander","genre":null,"price":"$38.00 - 42.00","supports":[],"ticketUrl":null,"time":" 6:15pm"},{"categories":["Comedy","Other \"Cabaret\""],"eDate":"2025-04-08","eName":"The Booth Variety Spectacular & Formal Apology Hour!","genre":null,"price":"$23.00 - 33.00","supports":[],"ticketUrl":null,"time":" 6:15pm"},{"categories":["Music","Comedy"],"eDate":"2025-04-08","eName":"Gillian Cosgriff: Fresh New Worries","genre":"Pop","price":"$30.00 - 39.00","supports":[],"ticketUrl":null,"time":" 7:20pm"},{"categories":["Music","Comedy","Other \"Cabaret\""],"eDate":"2025-04-08","eName":"One Man Musical By Flo & Joan","genre":"Classical","price":"$32.00 - 36.00","supports":[],"ticketUrl":null,"time":" 8pm"}],"vName":"Arts Centre Melbourne"},"type":"Feature"},{"geometry":{"coordinates":[144.978682,-37.7981225],"type":"Point"},"properties":{"events":[{"categories":["Free","Music"],"eDate":"2025-04-08","eName":"Darcy Fox","genre":null,"price":"Free","supports":[],"ticketUrl":null,"time":" 9pm"}],"vName":"Baxter's Lot"},"type":"Feature"},{"geometry":{"coordinates":[144.96918237308262,-37.817775499999996],"type":"Point"},"properties":{"events":[{"categories":["Comedy"],"eDate":"2025-04-08","eName":"Bron Lewis: Who’s Talking?","genre":null,"price":"$25.00 - 30.00","supports":[],"ticketUrl":null,"time":" 6:15pm"}],"vName":"Beer Deluxe"},"type":"Feature"},{"geometry":{"coordinates":[144.983442,-37.804851],"type":"Point"},"properties":{"events":[{"categories":["Comedy","Theatre"],"eDate":"2025-04-08","eName":"Throuple the Musical","genre":null,"price":"$18.00 - 26.00","supports":[],"ticketUrl":null,"time":" 8:45pm"}],"vName":"Grace Darling Hotel"},"type":"Feature"},{"geometry":{"coordinates":[144.9679835243618,-37.8201575],"type":"Point"},"properties":{"events":[{"categories":["Comedy"],"eDate":"2025-04-08","eName":"Danny Bhoy: DEAR WORLD...","genre":null,"price":"$56.90","supports":[],"ticketUrl":null,"time":" 6:30pm"},{"categories":["Comedy"],"eDate":"2025-04-08","eName":"Vivek Mahbubani","genre":null,"price":"$26.00 - 36.00","supports":[],"ticketUrl":null,"time":" 7:45pm"},{"categories":["Comedy"],"eDate":"2025-04-08","eName":"Nish Kumar: Nish, Don't Kill My Vibe","genre":null,"price":"$52.90","supports":[],"ticketUrl":null,"time":" 8:30pm"}],"vName":"Hamer Hall (Arts Centre Melbourne)"},"type":"Feature"},{"geometry":{"coordinates":[144.9659879,-37.8147557],"type":"Point"},"properties":{"events":[{"categories":["Comedy"],"eDate":"2025-04-08","eName":"Melanie Bracewell: A Little Treat","genre":null,"price":"$35.00 - 45.00","supports":[],"ticketUrl":null,"time":" 6:15pm"}],"vName":"Max Watt's (Melbourne)"},"type":"Feature"},{"geometry":{"coordinates":[144.9627231,-37.8073581],"type":"Point"},"properties":{"events":[{"categories":["Comedy"],"eDate":"2025-04-08","eName":"Nazeem Hussain: You Paid For This","genre":null,"price":"$35.00 - 45.00","supports":[],"ticketUrl":null,"time":" 6pm"},{"categories":["Comedy"],"eDate":"2025-04-08","eName":"Tom Cashman: 2 Truths, 1 Lie & 17 Slight Exaggerations","genre":null,"price":"$25.00 - 35.00","supports":[],"ticketUrl":null,"time":" 7:40pm"}],"vName":"Melbourne Town Hall"},"type":"Feature"},{"geometry":{"coordinates":[144.9712356,-37.812902],"type":"Point"},"properties":{"events":[{"categories":["Comedy"],"eDate":"2025-04-08","eName":"Guy Williams: If you midly criticise me I’ll say its cancel culture and turn to the alt right","genre":null,"price":"$25.00 - 35.00","supports":[],"ticketUrl":null,"time":" 8:50pm"}],"vName":"Morris House"},"type":"Feature"},{"geometry":{"coordinates":[144.9688742,-37.8074223],"type":"Point"},"properties":{"events":[{"categories":["Comedy"],"eDate":"2025-04-08","eName":"Rohan Arneil: The Never-Ending Smoko","genre":null,"price":"$20.50 - 26.50","supports":[],"ticketUrl":null,"time":" 8:50pm"}],"vName":"The Coopers Inn"},"type":"Feature"},{"geometry":{"coordinates":[144.9952245,-37.8510689],"type":"Point"},"properties":{"events":[{"categories":["Comedy","Theatre"],"eDate":"2025-04-08","eName":"You're A Good Man, Charlie Brown","genre":null,"price":"$29.50","supports":[],"ticketUrl":null,"time":"10am"}],"vName":"The MC Showroom"},"type":"Feature"},{"geometry":{"coordinates":[144.9708437,-37.7973184],"type":"Point"},"properties":{"events":[{"categories":["Comedy"],"eDate":"2025-04-08","eName":"Piotr Sikora: Furiozo - Man Looking for Trouble","genre":null,"price":"$22.29 - 30.39","supports":[],"ticketUrl":null,"time":" 8:30pm"}],"vName":"The Motley Bauhaus"},"type":"Feature"},{"geometry":{"coordinates":[144.9651425,-37.8119429],"type":"Point"},"properties":{"events":[{"categories":["Free","Music"],"eDate":"2025-04-08","eName":"NOW.HERE.THIS. Live Jazz","genre":"Jazz","price":"Free","supports":["The Now Here This All-Star Band"],"ticketUrl":null,"time":" 9pm"}],"vName":"The Toff In Town"},"type":"Feature"},{"geometry":{"coordinates":[144.9983987,-37.7729204],"type":"Point"},"properties":{"events":[{"categories":["Music"],"eDate":"2025-04-08","eName":"Will Pound & Jenn Butterworth + Mickey & Michelle","genre":"Country/Folk","price":"$33.70","supports":[],"ticketUrl":null,"time":" 8pm"}],"vName":"Wesley Anne"},"type":"Feature"}],"type":"FeatureCollection"}