{"features":[{"geometry":{"coordinates":[144.9500257,-37.8032773],"type":"Point"},"properties":{"events":[{"categories":["Theatre"],"eDate":"2024-11-26","eName":"Zaffé: Stéphanie Ghajar & Collaborators","genre":null,"price":"$35.00","supports":[],"ticketUrl":null,"time":" 8:30pm"}],"vName":"Arts House"},"type":"Feature"},{"geometry":{"coordinates":[144.978682,-37.7981225],"type":"Point"},"properties":{"events":[{"categories":["Free","Music"],"eDate":"2024-11-26","eName":"Mukul Jiwnani","genre":null,"price":"Free","supports":[],"ticketUrl":null,"time":" 9pm"}],"vName":"Baxter's Lot"},"type":"Feature"},{"geometry":{"coordinates":[144.9628440552175,-37.76100605],"type":"Point"},"properties":{"events":[{"categories":["Music"],"eDate":"2024-11-26","eName":"Open Mic Night @ Edinburgh Castle","genre":"Acoustic","price":"Free","supports":[],"ticketUrl":null,"time":" 7:30pm"}],"vName":"Edinburgh Castle Hotel"},"type":"Feature"},{"geometry":{"coordinates":[144.98535244416098,-37.79426315],"type":"Point"},"properties":{"events":[{"categories":["Music"],"eDate":"2024-11-26","eName":"Seb Szabo","genre":null,"price":"$20.00","supports":[],"ticketUrl":null,"time":" 7:30pm"}],"vName":"Gasometer Hotel"},"type":"Feature"},{"geometry":{"coordinates":[145.001392343033,-37.75592655],"type":"Point"},"properties":{"events":[{"categories":["Free","Music"],"eDate":"2024-11-26","eName":"Don't Sweat The Technique","genre":"Hip Hop","price":"Free","supports":["more"],"ticketUrl":null,"time":" 8pm"}],"vName":"Shotkickers"},"type":"Feature"}],"type":"FeatureCollection"}