{"features":[{"geometry":{"coordinates":[144.9763781,-37.7983136],"type":"Point"},"properties":{"events":[{"categories":["Music"],"eDate":"2024-02-01","eName":"The Delightful Insanity of The Sinsemillian","genre":"Metal","price":"$15.00","supports":[],"ticketUrl":null,"time":" 7:30pm"}],"vName":"Bad Decisions Bar"},"type":"Feature"},{"geometry":{"coordinates":[144.99828116650363,-37.7713296],"type":"Point"},"properties":{"events":[{"categories":["Music"],"eDate":"2024-02-01","eName":"Clayton Doley's Flashy Dashbacks","genre":"Jazz","price":"$20.00","supports":["The Bayou Billabong Horns"],"ticketUrl":null,"time":" 8pm"}],"vName":"Bar 303"},"type":"Feature"},{"geometry":{"coordinates":[144.9945274,-37.8001115],"type":"Point"},"properties":{"events":[{"categories":["Free","Music","Other \"Food & Drink\""],"eDate":"2024-02-01","eName":"Marcel Borrack TD Band","genre":"Soul/Funk","price":"Free","supports":[],"ticketUrl":null,"time":" 7pm"}],"vName":"Bodriggy Brewing Company"},"type":"Feature"},{"geometry":{"coordinates":[144.9617018,-37.7704566],"type":"Point"},"properties":{"events":[{"categories":["Music"],"eDate":"2024-02-01","eName":"Tarab Ensemble: Melodies for Palestine","genre":"Global","price":"$59.77","supports":[],"ticketUrl":null,"time":" 7:30pm"}],"vName":"Brunswick Ballroom"},"type":"Feature"},{"geometry":{"coordinates":[144.9875917,-37.7963837],"type":"Point"},"properties":{"events":[{"categories":["Free","Music"],"eDate":"2024-02-01","eName":"Twins Sport + Kite Vendor","genre":"Indie","price":"Free","supports":[],"ticketUrl":null,"time":" 8pm"}],"vName":"Gem Bar"},"type":"Feature"},{"geometry":{"coordinates":[144.9764962,-37.7983139],"type":"Point"},"properties":{"events":[{"categories":["Music"],"eDate":"2024-02-01","eName":"All The Smoke: Freestyle Rap Battles - Heat #2","genre":"Hip Hop","price":"$10.00","supports":["more"],"ticketUrl":null,"time":" 9pm"}],"vName":"Laundry Bar"},"type":"Feature"},{"geometry":{"coordinates":[144.96741062735794,-37.82454855],"type":"Point"},"properties":{"events":[{"categories":["Music"],"eDate":"2024-02-01","eName":"YoCiTY: Jarabi Band","genre":"Global","price":"$37.00","supports":[],"ticketUrl":null,"time":" 7pm"}],"vName":"Melbourne Recital Centre"},"type":"Feature"},{"geometry":{"coordinates":[144.998414,-37.771471],"type":"Point"},"properties":{"events":[{"categories":["Music"],"eDate":"2024-02-01","eName":"Carda","genre":"Electronic","price":"$29.10","supports":["Banta"],"ticketUrl":null,"time":" 8pm"}],"vName":"Northcote Social Club"},"type":"Feature"},{"geometry":{"coordinates":[144.97711,-37.79833],"type":"Point"},"properties":{"events":[{"categories":["Other \"Cabaret\""],"eDate":"2024-02-01","eName":"PIPES: The Singing Drag Show","genre":null,"price":"$17.35 - 23.50","supports":[],"ticketUrl":null,"time":" 8pm"}],"vName":"Old Bar"},"type":"Feature"},{"geometry":{"coordinates":[145.0142411,-37.7310367],"type":"Point"},"properties":{"events":[{"categories":["Free","Music"],"eDate":"2024-02-01","eName":"Open Mic @ Ragtime Tavern","genre":"Acoustic","price":"Free","supports":[],"ticketUrl":null,"time":" 7pm"}],"vName":"Ragtime Tavern"},"type":"Feature"},{"geometry":{"coordinates":[144.9631913,-37.7617818],"type":"Point"},"properties":{"events":[{"categories":["Free","Music"],"eDate":"2024-02-01","eName":"Open Mic Thursdays @ Ringo Barr","genre":"Acoustic","price":"Free","supports":[],"ticketUrl":null,"time":" 7pm"}],"vName":"Ringo Barr"},"type":"Feature"},{"geometry":{"coordinates":[144.9846126,-37.7989941],"type":"Point"},"properties":{"events":[{"categories":["Music"],"eDate":"2024-02-01","eName":"Chiroweg","genre":"Jazz","price":"$11.25","supports":["Odyssey To The Sun"," Skerzo"],"ticketUrl":null,"time":" 8pm"}],"vName":"The Tote Hotel"},"type":"Feature"},{"geometry":{"coordinates":[144.9706095,-37.7783326],"type":"Point"},"properties":{"events":[{"categories":["Music"],"eDate":"2024-02-01","eName":"Georgia Ray","genre":"Country/Folk","price":"$15.00","supports":["The Clever References"," Louis"],"ticketUrl":null,"time":" 7pm"}],"vName":"Whole Lotta Love"},"type":"Feature"}],"type":"FeatureCollection"}