{"features":[{"geometry":{"coordinates":[144.9715791,-37.8140656],"type":"Point"},"properties":{"events":[{"categories":["Music","Theatre"],"eDate":"2024-01-20","eName":"Dog Man: The Musical","genre":null,"price":"$39.50","supports":[],"ticketUrl":null,"time":" 1pm"},{"categories":["Music","Theatre"],"eDate":"2024-01-20","eName":"Dog Man: The Musical","genre":null,"price":"$39.50","supports":[],"ticketUrl":null,"time":" 6pm"}],"vName":"Athenaeum Theatre"},"type":"Feature"},{"geometry":{"coordinates":[144.978425,-37.79773],"type":"Point"},"properties":{"events":[{"categories":["Music"],"eDate":"2024-01-20","eName":"Pretty Good Sofa","genre":"Rock","price":"$17.35","supports":["Lara Anderson"," Carrieland"," BeanBo"],"ticketUrl":null,"time":" 8:30pm"}],"vName":"Bar Open"},"type":"Feature"},{"geometry":{"coordinates":[144.9617018,-37.7704566],"type":"Point"},"properties":{"events":[{"categories":["Free","Music"],"eDate":"2024-01-20","eName":"Megan Bernard & The Indulgence","genre":"Pop","price":"Free","supports":[],"ticketUrl":null,"time":" 5pm"},{"categories":["Free","Music"],"eDate":"2024-01-20","eName":"Peripheral DJs","genre":"Electronic","price":"Free","supports":[],"ticketUrl":null,"time":" 8pm"}],"vName":"Brunswick Artists' Bar"},"type":"Feature"},{"geometry":{"coordinates":[144.9617018,-37.7704566],"type":"Point"},"properties":{"events":[{"categories":["Music"],"eDate":"2024-01-20","eName":"Ramble Tamble: The Australian Creedence Show","genre":"Rock","price":"$46.00","supports":[],"ticketUrl":null,"time":" 8pm"}],"vName":"Brunswick Ballroom"},"type":"Feature"},{"geometry":{"coordinates":[144.9713425,-37.8128595],"type":"Point"},"properties":{"events":[{"categories":["Free","Music"],"eDate":"2024-01-20","eName":"Soul Central","genre":"Soul/Funk","price":"Free","supports":[],"ticketUrl":null,"time":" 8pm"},{"categories":["Free","Music"],"eDate":"2024-01-20","eName":"Kosmik Boogie Tribe (1am Show)","genre":"Rock","price":"Free","supports":[],"ticketUrl":null,"time":"11:30pm"}],"vName":"Cherry Bar"},"type":"Feature"},{"geometry":{"coordinates":[144.9628440552175,-37.76100605],"type":"Point"},"properties":{"events":[{"categories":["Music"],"eDate":"2024-01-20","eName":"Kinematic","genre":"Country/Folk","price":"Free","supports":[],"ticketUrl":null,"time":" 6pm"}],"vName":"Edinburgh Castle Hotel"},"type":"Feature"},{"geometry":{"coordinates":[144.9787445,-37.7967357],"type":"Point"},"properties":{"events":[{"categories":["Music"],"eDate":"2024-01-20","eName":"Reggae and Bass with Ras Jahknow Band","genre":null,"price":"$28.00","supports":["The Push Reggae Band"],"ticketUrl":null,"time":" 6pm"}],"vName":"Evelyn Hotel"},"type":"Feature"},{"geometry":{"coordinates":[144.9875917,-37.7963837],"type":"Point"},"properties":{"events":[{"categories":["Free","Music"],"eDate":"2024-01-20","eName":"Gavin! + Local Derby","genre":"Rock","price":"Free","supports":[],"ticketUrl":null,"time":" 4pm"},{"categories":["Free","Music"],"eDate":"2024-01-20","eName":"Creek + Shadow Tussle","genre":"Rock","price":"Free","supports":[],"ticketUrl":null,"time":" 8pm"}],"vName":"Gem Bar"},"type":"Feature"},{"geometry":{"coordinates":[145.0008148,-37.8107158],"type":"Point"},"properties":{"events":[{"categories":["Music"],"eDate":"2024-01-20","eName":"Himalayan Rockfest Vol. 2","genre":"Rock","price":"$49.99","supports":[],"ticketUrl":null,"time":" 7pm"}],"vName":"Leadbeater Hotel"},"type":"Feature"},{"geometry":{"coordinates":[144.9936498,-37.8000264],"type":"Point"},"properties":{"events":[{"categories":["Music"],"eDate":"2024-01-20","eName":"Fandango","genre":"Rock","price":"Free","supports":[],"ticketUrl":null,"time":" 7pm"}],"vName":"Lulie Tavern"},"type":"Feature"},{"geometry":{"coordinates":[144.8971518,-37.8054274],"type":"Point"},"properties":{"events":[{"categories":["Free","Music","Festival"],"eDate":"2024-01-20","eName":"PJ Party Music Fest","genre":null,"price":"Free","supports":["Noah & The Coldmen"," Clover Blue"," My Giddy Aunt"," Milly Strange"," Paisley Lace"," Maïa & The Näysäyers"],"ticketUrl":null,"time":" 2:45pm"},{"categories":["Music"],"eDate":"2024-01-20","eName":"PJ Party Live","genre":null,"price":"Free","supports":["more"],"ticketUrl":null,"time":" 6pm"}],"vName":"Mamma Chen's"},"type":"Feature"},{"geometry":{"coordinates":[145.3553553,-37.9078552],"type":"Point"},"properties":{"events":[{"categories":["Free","Music"],"eDate":"2024-01-20","eName":"Jōra","genre":"Indie","price":"Free","supports":["The Kerry's"],"ticketUrl":null,"time":" 8pm"}],"vName":"Micawber Tavern"},"type":"Feature"},{"geometry":{"coordinates":[144.96892412239615,-37.82266345],"type":"Point"},"properties":{"events":[{"categories":["Free","Music"],"eDate":"2024-01-20","eName":"NGV Triennial: Claddy (DJ Set)","genre":"Electronic","price":"Free","supports":[],"ticketUrl":null,"time":" 9pm"}],"vName":"NGV - National Gallery of Victoria"},"type":"Feature"},{"geometry":{"coordinates":[144.1374536,-37.3102809],"type":"Point"},"properties":{"events":[{"categories":["Music"],"eDate":"2024-01-20","eName":"Electric Dreams","genre":"Electronic","price":"$25.00","supports":["Shimmer Net"," Mayari"," Bangquatsch!"," Heath Myers"," Cuttlefish"],"ticketUrl":null,"time":" 6pm"}],"vName":"Palais-Hepburn"},"type":"Feature"},{"geometry":{"coordinates":[144.9631913,-37.7617818],"type":"Point"},"properties":{"events":[{"categories":["Music"],"eDate":"2024-01-20","eName":"The Elsewheres + Liv & The Dream","genre":"Rock","price":"$20.00","supports":[],"ticketUrl":null,"time":" 8pm"}],"vName":"Ringo Barr"},"type":"Feature"},{"geometry":{"coordinates":[144.9706095,-37.7783326],"type":"Point"},"properties":{"events":[{"categories":["Free","Music"],"eDate":"2024-01-20","eName":"The Black Jesus Experience","genre":"Soul/Funk","price":"Free","supports":[],"ticketUrl":null,"time":" 9pm"}],"vName":"The Beast"},"type":"Feature"},{"geometry":{"coordinates":[144.97515565,-37.805788500000006],"type":"Point"},"properties":{"events":[{"categories":["Music"],"eDate":"2024-01-20","eName":"Beautiful Bedlam","genre":"Rock","price":"$25.00","supports":["Ambur"," PSI PHI"],"ticketUrl":null,"time":" 6pm"}],"vName":"The Catfish"},"type":"Feature"},{"geometry":{"coordinates":[144.9657057,-37.8061581],"type":"Point"},"properties":{"events":[{"categories":["Free","Music"],"eDate":"2024-01-20","eName":"The Finks + Perlinki","genre":"Indie","price":"Free","supports":[],"ticketUrl":null,"time":" 3pm"},{"categories":["Music"],"eDate":"2024-01-20","eName":"De Porsal: ‘Dishlickers’ Album Launch","genre":"Punk","price":"$17.75","supports":["Muma Ganoush"," The Carp Factory"," A Stationary Frame"," DJ Dog Love"],"ticketUrl":null,"time":" 8pm"}],"vName":"The Curtin"},"type":"Feature"},{"geometry":{"coordinates":[144.9830837,-37.7988316],"type":"Point"},"properties":{"events":[{"categories":["Music"],"eDate":"2024-01-20","eName":"Shouse","genre":"Electronic","price":"$29.46 - 34.56","supports":["DJ Princess Donkey"," m8riarchy"],"ticketUrl":null,"time":"10pm"}],"vName":"The Night Cat"},"type":"Feature"},{"geometry":{"coordinates":[144.9846126,-37.7989941],"type":"Point"},"properties":{"events":[{"categories":["Free","Music"],"eDate":"2024-01-20","eName":"Dirt Road Wave + The Dallas Terrors","genre":"Punk","price":"Free","supports":[],"ticketUrl":null,"time":" 3pm"},{"categories":["Music"],"eDate":"2024-01-20","eName":"Nikodimos","genre":"Electronic","price":"$16.35","supports":["Elektronik Girl Epic"," Culaccino"],"ticketUrl":null,"time":" 8pm"},{"categories":["Music"],"eDate":"2024-01-20","eName":"Tillerman Pete","genre":"Blues","price":"$11.25","supports":[],"ticketUrl":null,"time":" 8:30pm"}],"vName":"The Tote Hotel"},"type":"Feature"},{"geometry":{"coordinates":[144.9827552,-37.8041303],"type":"Point"},"properties":{"events":[{"categories":["Music"],"eDate":"2024-01-20","eName":"Saturday Night Party At Yah's","genre":"Pop","price":"$15.00","supports":[],"ticketUrl":null,"time":" 9pm"},{"categories":["Music"],"eDate":"2024-01-20","eName":"Satin Cali","genre":"Rock","price":"$15.00","supports":["Kaitlin Keegan"],"ticketUrl":null,"time":" 9pm"}],"vName":"Yah Yah's"},"type":"Feature"}],"type":"FeatureCollection"}