{"features":[{"geometry":{"coordinates":[144.9679369,-37.8120109],"type":"Point"},"properties":{"events":[{"categories":["Music"],"eDate":"2024-06-07","eName":"Hoshi Evolution","genre":"Electronic","price":"$39.47 - 51.71","supports":[],"ticketUrl":null,"time":" 8pm"}],"vName":"170 Russell"},"type":"Feature"},{"geometry":{"coordinates":[144.99828116650363,-37.7713296],"type":"Point"},"properties":{"events":[{"categories":["Music"],"eDate":"2024-06-07","eName":"The Calabrians","genre":"Rock","price":"Free","supports":[],"ticketUrl":null,"time":" 5pm"},{"categories":["Music"],"eDate":"2024-06-07","eName":"Sion & Peace + NamDalee","genre":null,"price":"$20.00","supports":[],"ticketUrl":null,"time":" 8pm"}],"vName":"Bar 303"},"type":"Feature"},{"geometry":{"coordinates":[144.9607158,-37.776327],"type":"Point"},"properties":{"events":[{"categories":["Music"],"eDate":"2024-06-07","eName":"Gush","genre":"Indie","price":"$22.95","supports":["Naaki Soul"," Crawling"," Propaine"],"ticketUrl":null,"time":" 7:30pm"}],"vName":"Bergy Bandroom"},"type":"Feature"},{"geometry":{"coordinates":[144.9617018,-37.7704566],"type":"Point"},"properties":{"events":[{"categories":["Music"],"eDate":"2024-06-07","eName":"Parsnip","genre":"Rock","price":"$28.15","supports":["Alien Nosejob"," Alex MacFarlane"],"ticketUrl":null,"time":" 8:30pm"}],"vName":"Brunswick Ballroom"},"type":"Feature"},{"geometry":{"coordinates":[144.9713425,-37.8128595],"type":"Point"},"properties":{"events":[{"categories":["Free","Music"],"eDate":"2024-06-07","eName":"Dirt Road Wave","genre":"Rock","price":"Free","supports":[],"ticketUrl":null,"time":" 8pm"}],"vName":"Cherry Bar"},"type":"Feature"},{"geometry":{"coordinates":[144.9248037207342,-37.7656716],"type":"Point"},"properties":{"events":[{"categories":["Music"],"eDate":"2024-06-07","eName":"Andrew De Silva’s Dedication to Prince","genre":"Pop","price":"$70.00","supports":[],"ticketUrl":null,"time":" 7:30pm"}],"vName":"Clocktower Centre"},"type":"Feature"},{"geometry":{"coordinates":[144.99266639479475,-37.82488935],"type":"Point"},"properties":{"events":[{"categories":["Music"],"eDate":"2024-06-07","eName":"Jimmy Eat World Celebrated - Clarity: 25 Years","genre":"Punk","price":"$26.05","supports":[],"ticketUrl":null,"time":" 8:30pm"}],"vName":"Corner Hotel"},"type":"Feature"},{"geometry":{"coordinates":[144.9628440552175,-37.76100605],"type":"Point"},"properties":{"events":[{"categories":["Free","Music","Trivia"],"eDate":"2024-06-07","eName":"Bingo","genre":"Electronic","price":"Free","supports":[],"ticketUrl":null,"time":" 7pm"}],"vName":"Edinburgh Castle Hotel"},"type":"Feature"},{"geometry":{"coordinates":[144.973013,-37.8640582],"type":"Point"},"properties":{"events":[{"categories":["Music"],"eDate":"2024-06-07","eName":"Disney 2000's Party","genre":"Pop","price":"$11.75 - 22.95","supports":[],"ticketUrl":null,"time":" 9pm"}],"vName":"Hotel Esplanade (aka The Espy)"},"type":"Feature"},{"geometry":{"coordinates":[144.9596527,-37.7720304],"type":"Point"},"properties":{"events":[{"categories":["Music"],"eDate":"2024-06-07","eName":"ISU TAKI presents Inti Raymi / We TripAntü 2024","genre":"Electronic","price":"$39.00","supports":["more"],"ticketUrl":null,"time":" 8pm"}],"vName":"Howler"},"type":"Feature"},{"geometry":{"coordinates":[144.9936498,-37.8000264],"type":"Point"},"properties":{"events":[{"categories":["Free","Music"],"eDate":"2024-06-07","eName":"Liam Wright","genre":null,"price":"Free","supports":["Liv Cartledge"," J Taylor Bell"],"ticketUrl":null,"time":" 7pm"}],"vName":"Lulie Tavern"},"type":"Feature"},{"geometry":{"coordinates":[144.8971518,-37.8054274],"type":"Point"},"properties":{"events":[{"categories":["Music","Art"],"eDate":"2024-06-07","eName":"Nocturnal Voidism","genre":null,"price":"$25.00 - 30.00","supports":["Cloud Ice 9"," Full Fleshed"," LSDeath"],"ticketUrl":null,"time":" 6:30pm"}],"vName":"Mamma Chen's"},"type":"Feature"},{"geometry":{"coordinates":[144.998414,-37.771471],"type":"Point"},"properties":{"events":[{"categories":["Music"],"eDate":"2024-06-07","eName":"aleksiah","genre":"Indie","price":"$24.00","supports":["Gush"],"ticketUrl":null,"time":" 8pm"}],"vName":"Northcote Social Club"},"type":"Feature"},{"geometry":{"coordinates":[144.97711,-37.79833],"type":"Point"},"properties":{"events":[{"categories":["Music"],"eDate":"2024-06-07","eName":"Ricky Albeck & The Belair Line Band","genre":"Rock","price":"$11.25","supports":[],"ticketUrl":null,"time":" 8pm"}],"vName":"Old Bar"},"type":"Feature"},{"geometry":{"coordinates":[144.9254729,-37.8284751],"type":"Point"},"properties":{"events":[{"categories":["Music"],"eDate":"2024-06-07","eName":"X CLUB","genre":"Electronic","price":"$89.90 - 109.90","supports":["SPFDJ"," SHAMPAIN"," Fukhed"," Crybaby"],"ticketUrl":null,"time":" 5:30pm"}],"vName":"PICA (Port Melbourne Industrial Centre for the Arts)"},"type":"Feature"},{"geometry":{"coordinates":[144.9605705,-37.8132486],"type":"Point"},"properties":{"events":[{"categories":["Music"],"eDate":"2024-06-07","eName":"The Not-So-Big Band: All Things Nintendo","genre":"Jazz","price":"$45.00","supports":[],"ticketUrl":null,"time":" 5:30pm"}],"vName":"Paris Cat Jazz Club"},"type":"Feature"},{"geometry":{"coordinates":[144.993413,-37.8506652],"type":"Point"},"properties":{"events":[{"categories":["Music"],"eDate":"2024-06-07","eName":"Enrica Falqui: Ikigai, Harmonics & Revolver Fridays","genre":"Electronic","price":"$21.42 - 31.62","supports":[],"ticketUrl":null,"time":" 7am"}],"vName":"Revolver Upstairs"},"type":"Feature"},{"geometry":{"coordinates":[144.9607404,-37.7743469],"type":"Point"},"properties":{"events":[{"categories":["Music"],"eDate":"2024-06-07","eName":"Distorta","genre":"Metal","price":"$13.30","supports":["Dark Order"," Terrestrials"," Haladene"," Serpentry"],"ticketUrl":null,"time":" 6:30pm"},{"categories":["Music"],"eDate":"2024-06-07","eName":"sugarush: Charli XCX Brat Release Party","genre":"Pop","price":"$14.00 - 22.00","supports":[],"ticketUrl":null,"time":"11pm"}],"vName":"Stay Gold"},"type":"Feature"},{"geometry":{"coordinates":[144.9657057,-37.8061581],"type":"Point"},"properties":{"events":[{"categories":["Music"],"eDate":"2024-06-07","eName":"Still House Plants","genre":"Electronic","price":"$22.85","supports":["00_"," bodies of divine infinite and eternal spirit"],"ticketUrl":null,"time":" 8pm"}],"vName":"The Curtin"},"type":"Feature"},{"geometry":{"coordinates":[144.9651425,-37.8119429],"type":"Point"},"properties":{"events":[{"categories":["Free","Music"],"eDate":"2024-06-07","eName":"Hyper Toff","genre":"Electronic","price":"Free","supports":[],"ticketUrl":null,"time":"11pm"}],"vName":"The Toff In Town"},"type":"Feature"},{"geometry":{"coordinates":[144.9846126,-37.7989941],"type":"Point"},"properties":{"events":[{"categories":["Music"],"eDate":"2024-06-07","eName":"Picket Palace","genre":"Rock","price":"$16.35","supports":[],"ticketUrl":null,"time":" 7pm"},{"categories":["Music"],"eDate":"2024-06-07","eName":"luv4her","genre":"Indie","price":"$16.35","supports":["Marlowe Wilton"],"ticketUrl":null,"time":" 8pm"}],"vName":"The Tote Hotel"},"type":"Feature"},{"geometry":{"coordinates":[144.9618426,-37.8125531],"type":"Point"},"properties":{"events":[{"categories":["Free","Music"],"eDate":"2024-06-07","eName":"Mike Gurrieri: San Paredes presents Rain - A Prince Tribute","genre":null,"price":"Free","supports":[],"ticketUrl":null,"time":" 4pm"}],"vName":"Whitehart Bar"},"type":"Feature"}],"type":"FeatureCollection"}