{"features":[{"geometry":{"coordinates":[144.9982812,-37.7713296],"type":"Point"},"properties":{"events":[{"categories":["Music"],"eDate":"2025-05-03","eName":"GOOD LUCK BABE: A Bon Voyage To Gaez","genre":"Rock","price":"$20.00","supports":[],"ticketUrl":null,"time":" 7pm"}],"vName":"Bar 303"},"type":"Feature"},{"geometry":{"coordinates":[144.978425,-37.79773],"type":"Point"},"properties":{"events":[{"categories":["Music"],"eDate":"2025-05-03","eName":"Some Heard Trouble","genre":"Metal","price":"$18.50","supports":["Nervous Light"," Detestor"],"ticketUrl":null,"time":" 8:30pm"}],"vName":"Bar Open"},"type":"Feature"},{"geometry":{"coordinates":[144.978682,-37.7981225],"type":"Point"},"properties":{"events":[{"categories":["Free","Music"],"eDate":"2025-05-03","eName":"Lewis Toms","genre":null,"price":"Free","supports":[],"ticketUrl":null,"time":" 9pm"},{"categories":["Free","Music"],"eDate":"2025-05-03","eName":"DJ Peanut Butter Melly","genre":null,"price":"Free","supports":[],"ticketUrl":null,"time":"10pm"}],"vName":"Baxter's Lot"},"type":"Feature"},{"geometry":{"coordinates":[144.9891167,-37.7996488],"type":"Point"},"properties":{"events":[{"categories":["Music"],"eDate":"2025-05-03","eName":"Religious Observance","genre":"Metal","price":"$17.35","supports":["Irreparable"," Kaarst"," Chief Whip"],"ticketUrl":null,"time":" 8:15pm"}],"vName":"Bendigo Hotel"},"type":"Feature"},{"geometry":{"coordinates":[144.9607158,-37.776327],"type":"Point"},"properties":{"events":[{"categories":["Music"],"eDate":"2025-05-03","eName":"Lapidatus","genre":"Metal","price":"$15.00","supports":["Funky Town Fish"," Rare Phenomenon"],"ticketUrl":null,"time":" 1:30pm"},{"categories":["Music"],"eDate":"2025-05-03","eName":"Hobsons Bay Coast Guard","genre":"Rock","price":"$16.85","supports":["Metdog"," My Guardian Angel"],"ticketUrl":null,"time":" 8pm"}],"vName":"Bergy Bandroom"},"type":"Feature"},{"geometry":{"coordinates":[144.9568039,-37.8111442],"type":"Point"},"properties":{"events":[{"categories":["Music"],"eDate":"2025-05-03","eName":"Anna Setton","genre":"Jazz","price":"$40.00","supports":[],"ticketUrl":null,"time":" 7:30pm"}],"vName":"Bird's Basement"},"type":"Feature"},{"geometry":{"coordinates":[144.9617083,-37.7704205],"type":"Point"},"properties":{"events":[{"categories":["Music","Comedy","Other \"Cabaret\""],"eDate":"2025-05-03","eName":"A DAY IN MAY: Berry Street Fundraiser","genre":"Rock","price":"$33.76","supports":["more"],"ticketUrl":null,"time":" 2pm"},{"categories":["Music"],"eDate":"2025-05-03","eName":"The Resignators: 20 Years Of Skanking","genre":"Punk","price":"$33.76","supports":["The Go Set"],"ticketUrl":null,"time":" 8:30pm"}],"vName":"Brunswick Ballroom"},"type":"Feature"},{"geometry":{"coordinates":[145.3339412,-37.9158104],"type":"Point"},"properties":{"events":[{"categories":["Music"],"eDate":"2025-05-03","eName":"Ed Kuepper: Solo. At Last!","genre":"Punk","price":"$59.90","supports":[],"ticketUrl":null,"time":" 8pm"}],"vName":"Burrinja Cultural Centre"},"type":"Feature"},{"geometry":{"coordinates":[144.9951224,-37.8476521],"type":"Point"},"properties":{"events":[{"categories":["Music"],"eDate":"2025-05-03","eName":"The Music of Ennio Morricone & the Spaghetti West","genre":"Country/Folk","price":"$55.00","supports":[],"ticketUrl":null,"time":" 8pm"}],"vName":"Chapel Off Chapel"},"type":"Feature"},{"geometry":{"coordinates":[144.9713425,-37.8128595],"type":"Point"},"properties":{"events":[{"categories":["Music"],"eDate":"2025-05-03","eName":"Necko","genre":"Rock","price":"Free","supports":[],"ticketUrl":null,"time":" 8pm"}],"vName":"Cherry Bar"},"type":"Feature"},{"geometry":{"coordinates":[144.9668096,-37.8133834],"type":"Point"},"properties":{"events":[{"categories":["Comedy"],"eDate":"2025-05-03","eName":"Navin Noronha: Homewrecker – A Queer Indian Comedy Special","genre":null,"price":"$49.00","supports":[],"ticketUrl":null,"time":" 6pm"}],"vName":"Comedy Republic"},"type":"Feature"},{"geometry":{"coordinates":[144.9489214,-37.8106039],"type":"Point"},"properties":{"events":[{"categories":["Music"],"eDate":"2025-05-03","eName":"Slowdive","genre":"Rock","price":"$119.90","supports":["Beach Fossils"],"ticketUrl":null,"time":" 7pm"},{"categories":["Music"],"eDate":"2025-05-03","eName":"Slowdive","genre":"Rock","price":"$119.90 - 129.90","supports":["Beach Fossils"],"ticketUrl":null,"time":" 7pm"}],"vName":"Festival Hall"},"type":"Feature"},{"geometry":{"coordinates":[144.9875792,-37.7963739],"type":"Point"},"properties":{"events":[{"categories":["Music"],"eDate":"2025-05-03","eName":"Flight To Dubai","genre":null,"price":"Free","supports":["Bughunt"],"ticketUrl":null,"time":" 4pm"},{"categories":["Free","Music"],"eDate":"2025-05-03","eName":"Flight To Dubai + Bughunt","genre":"Rock","price":"Free","supports":[],"ticketUrl":null,"time":" 7:30pm"},{"categories":["Free","Music"],"eDate":"2025-05-03","eName":"Al Matcott & The Forever Band + Baby Blue","genre":"Rock","price":"Free","supports":[],"ticketUrl":null,"time":" 8pm"}],"vName":"Gem Bar"},"type":"Feature"},{"geometry":{"coordinates":[144.9679835,-37.8201575],"type":"Point"},"properties":{"events":[{"categories":["Music"],"eDate":"2025-05-03","eName":"The Verdi Gala Concert","genre":"Classical","price":"$65.00 - 189.00","supports":[],"ticketUrl":null,"time":" 2pm"}],"vName":"Hamer Hall (Arts Centre Melbourne)"},"type":"Feature"},{"geometry":{"coordinates":[144.8984802,-37.8111559],"type":"Point"},"properties":{"events":[{"categories":["Music"],"eDate":"2025-05-03","eName":"Davidson, Salmon & Shilo Revue","genre":"Rock","price":"$32.00","supports":["Kim Salmon"," JP Shilo"],"ticketUrl":null,"time":" 7:30pm"}],"vName":"Kindred Bandroom"},"type":"Feature"},{"geometry":{"coordinates":[145.0008148,-37.8107158],"type":"Point"},"properties":{"events":[{"categories":["Music"],"eDate":"2025-05-03","eName":"Cousin Tony’s Brand New Firebird","genre":"Rock","price":"$34.70","supports":[],"ticketUrl":null,"time":" 8pm"},{"categories":["Music"],"eDate":"2025-05-03","eName":"Cousin Tony’s: Play “The Albums”","genre":"Rock","price":"$34.70","supports":[],"ticketUrl":null,"time":" 8pm"}],"vName":"Leadbeater Hotel"},"type":"Feature"},{"geometry":{"coordinates":[144.9658499,-37.8147453],"type":"Point"},"properties":{"events":[{"categories":["Music"],"eDate":"2025-05-03","eName":"Black Market","genre":"Electronic","price":"$49.50 - 66.90","supports":[],"ticketUrl":null,"time":" 9pm"}],"vName":"Max Watt's (Melbourne)"},"type":"Feature"},{"geometry":{"coordinates":[144.9675876,-37.8240849],"type":"Point"},"properties":{"events":[{"categories":["Music"],"eDate":"2025-05-03","eName":"The Soul of the Cello: Timo-Veikko Valve","genre":"Classical","price":"$48.45","supports":[],"ticketUrl":null,"time":" 7:30pm"}],"vName":"Melbourne Recital Centre"},"type":"Feature"},{"geometry":{"coordinates":[144.9790251,-37.8675008],"type":"Point"},"properties":{"events":[{"categories":["Music"],"eDate":"2025-05-03","eName":"#LifesTooShortGoSeeABand2025","genre":"Rock","price":"$35.00 - 90.00","supports":["Electric Mary"," The Lips"," Karly Jewell"],"ticketUrl":null,"time":" 7pm"},{"categories":["Music"],"eDate":"2025-05-03","eName":"Life’s Too Short Go See A Band 2025","genre":"Rock","price":"$35.00 - 55.00","supports":[],"ticketUrl":null,"time":" 7pm"}],"vName":"Memo Music Hall"},"type":"Feature"},{"geometry":{"coordinates":[144.9712356,-37.812902],"type":"Point"},"properties":{"events":[{"categories":["Music"],"eDate":"2025-05-03","eName":"Söjourn","genre":"Electronic","price":"Free","supports":[],"ticketUrl":null,"time":" 7pm"},{"categories":["Comedy"],"eDate":"2025-05-03","eName":"Basement Comedy Club","genre":null,"price":"$25.00","supports":[],"ticketUrl":null,"time":" 8pm"}],"vName":"Morris House"},"type":"Feature"},{"geometry":{"coordinates":[144.9982706,-37.7737068],"type":"Point"},"properties":{"events":[{"categories":["Music"],"eDate":"2025-05-03","eName":"New Model Army","genre":"Rock","price":"$89.45","supports":[],"ticketUrl":null,"time":" 7:30pm"}],"vName":"Northcote Theatre"},"type":"Feature"},{"geometry":{"coordinates":[144.97711,-37.79833],"type":"Point"},"properties":{"events":[{"categories":["Music"],"eDate":"2025-05-03","eName":"Square Wave Bounce","genre":"Electronic","price":"Free","supports":["Fleeting Persuasion"," Mark Campbell & The Ravens"],"ticketUrl":null,"time":" 3pm"},{"categories":["Music"],"eDate":"2025-05-03","eName":"Wapperin","genre":"Electronic","price":"$28.60","supports":["The Pink Tiles"," Vogli Bonze"],"ticketUrl":null,"time":" 8pm"}],"vName":"Old Bar"},"type":"Feature"},{"geometry":{"coordinates":[144.97609011199125,-37.867583041643705],"type":"Point"},"properties":{"events":[{"categories":["Music"],"eDate":"2025-05-03","eName":"The King of Pop Show: Michael Jackson Live Concert Experience","genre":"Pop","price":"$95.00","supports":[],"ticketUrl":null,"time":" 6:30pm"}],"vName":"Palais Theatre"},"type":"Feature"},{"geometry":{"coordinates":[144.9661336,-37.7358243],"type":"Point"},"properties":{"events":[{"categories":["Music"],"eDate":"2025-05-03","eName":"Spoonful","genre":"Rock","price":"Free","supports":[],"ticketUrl":null,"time":" 9pm"}],"vName":"Post Office Hotel"},"type":"Feature"},{"geometry":{"coordinates":[144.9583409,-37.7664168],"type":"Point"},"properties":{"events":[{"categories":["Other \"Dance \""],"eDate":"2025-05-03","eName":"Floorplay Melbourne 2025","genre":null,"price":"$70.00","supports":[],"ticketUrl":null,"time":" 6pm"}],"vName":"Quadraphonic Club"},"type":"Feature"},{"geometry":{"coordinates":[144.993413,-37.8506652],"type":"Point"},"properties":{"events":[{"categories":["Music"],"eDate":"2025-05-03","eName":"Horsepower","genre":"Metal","price":"$26.52","supports":["Thantu Thikha"," Time Ends"," Implode"," Time Peace"],"ticketUrl":null,"time":" 7pm"}],"vName":"Revolver Upstairs"},"type":"Feature"},{"geometry":{"coordinates":[145.0013923,-37.7559265],"type":"Point"},"properties":{"events":[{"categories":["Music"],"eDate":"2025-05-03","eName":"Missing Link 5","genre":"Rock","price":"$20.00","supports":[],"ticketUrl":null,"time":" 8pm"}],"vName":"Shotkickers"},"type":"Feature"},{"geometry":{"coordinates":[145.3534507,-37.9100746],"type":"Point"},"properties":{"events":[{"categories":["Music"],"eDate":"2025-05-03","eName":"Trux","genre":"Rock","price":"Free","supports":[],"ticketUrl":null,"time":" 4:30pm"},{"categories":["Music"],"eDate":"2025-05-03","eName":"HDC","genre":"Electronic","price":"Free","supports":[],"ticketUrl":null,"time":" 9pm"}],"vName":"Sooki Lounge"},"type":"Feature"},{"geometry":{"coordinates":[144.9607404,-37.7743469],"type":"Point"},"properties":{"events":[{"categories":["Music"],"eDate":"2025-05-03","eName":"The End Of… Behind Crimson Eyes (2nd Show)","genre":"Metal","price":"Free","supports":[],"ticketUrl":null,"time":" 7pm"},{"categories":["Music"],"eDate":"2025-05-03","eName":"Behind Crimson Eyes","genre":"Metal","price":"$39.90","supports":[],"ticketUrl":null,"time":" 8pm"},{"categories":["Music"],"eDate":"2025-05-03","eName":"Divorced Dad Rock Night","genre":"Rock","price":"$25.00","supports":[],"ticketUrl":null,"time":"11pm"}],"vName":"Stay Gold"},"type":"Feature"},{"geometry":{"coordinates":[144.9995955,-37.762377],"type":"Point"},"properties":{"events":[{"categories":["Music"],"eDate":"2025-05-03","eName":"Ross The Boss","genre":"Metal","price":"$52.95","supports":[],"ticketUrl":null,"time":" 7:30pm"}],"vName":"The Croxton"},"type":"Feature"},{"geometry":{"coordinates":[144.9657057,-37.8061581],"type":"Point"},"properties":{"events":[{"categories":["Music"],"eDate":"2025-05-03","eName":"Ruby Mae","genre":"Indie","price":"$22.85","supports":[],"ticketUrl":null,"time":" 8pm"}],"vName":"The Curtin"},"type":"Feature"},{"geometry":{"coordinates":[144.9555612,-37.8066759],"type":"Point"},"properties":{"events":[{"categories":["Free","Music"],"eDate":"2025-05-03","eName":"Kier Stevens + T.K Reeves","genre":"Acoustic","price":"Free","supports":[],"ticketUrl":null,"time":" 9pm"}],"vName":"The Drunken Poet"},"type":"Feature"},{"geometry":{"coordinates":[145.1334272,-37.9135736],"type":"Point"},"properties":{"events":[{"categories":["Music"],"eDate":"2025-05-03","eName":"Big Jazz Day Out","genre":"Jazz","price":"$55.00 - 110.00","supports":["more"],"ticketUrl":null,"time":"12pm"}],"vName":"The Ian Potter Centre for Performing Arts"},"type":"Feature"},{"geometry":{"coordinates":[144.9586498,-37.766903],"type":"Point"},"properties":{"events":[{"categories":["Music"],"eDate":"2025-05-03","eName":"Vince Jones","genre":"Jazz","price":"$50.00","supports":["Michelle Nicolle"],"ticketUrl":null,"time":" 8pm"}],"vName":"The Jazzlab"},"type":"Feature"},{"geometry":{"coordinates":[144.9463641,-37.8047757],"type":"Point"},"properties":{"events":[{"categories":["Music"],"eDate":"2025-05-03","eName":"The Hot Blood","genre":"Rock","price":"$23.50","supports":["Screensaver"," Super X"," Romcom"],"ticketUrl":null,"time":" 8pm"}],"vName":"The Last Chance Rock & Roll Bar"},"type":"Feature"},{"geometry":{"coordinates":[144.9879283,-37.7505509],"type":"Point"},"properties":{"events":[{"categories":["Music"],"eDate":"2025-05-03","eName":"Oscar Ladell","genre":"Acoustic","price":"Free","supports":[],"ticketUrl":null,"time":" 7pm"}],"vName":"The Merri Bar"},"type":"Feature"},{"geometry":{"coordinates":[144.996838,-37.7794356],"type":"Point"},"properties":{"events":[{"categories":["Music"],"eDate":"2025-05-03","eName":"Jo Davie","genre":"Country/Folk","price":"$23.50","supports":["Kaitlin Keegan"],"ticketUrl":null,"time":" 8pm"}],"vName":"The Merri Creek Tavern"},"type":"Feature"},{"geometry":{"coordinates":[144.9708437,-37.7973184],"type":"Point"},"properties":{"events":[{"categories":["Free","Music"],"eDate":"2025-05-03","eName":"Rob Aspinall","genre":"R&B","price":"Free","supports":[],"ticketUrl":null,"time":" 5pm"},{"categories":["Music"],"eDate":"2025-05-03","eName":"Motley Jazz Jam","genre":"Jazz","price":"Free","supports":[],"ticketUrl":null,"time":" 7:30pm"},{"categories":["Comedy","Theatre"],"eDate":"2025-05-03","eName":"The Big HOO-HAA!","genre":null,"price":"$32.00","supports":[],"ticketUrl":null,"time":" 8:30pm"}],"vName":"The Motley Bauhaus"},"type":"Feature"},{"geometry":{"coordinates":[144.9794553,-37.7982653],"type":"Point"},"properties":{"events":[{"categories":["Music"],"eDate":"2025-05-03","eName":"Superficial Presen Pink Pony Club","genre":"Pop","price":"$14.27 - 22.00","supports":[],"ticketUrl":null,"time":"11pm"}],"vName":"The Night Cat"},"type":"Feature"},{"geometry":{"coordinates":[145.1818891,-37.8163371],"type":"Point"},"properties":{"events":[{"categories":["Music","Theatre"],"eDate":"2025-05-03","eName":"Josephine Wants to Dance","genre":"Pop","price":"$22.00","supports":[],"ticketUrl":null,"time":"10am"},{"categories":["Theatre"],"eDate":"2025-05-03","eName":"Niusia","genre":null,"price":"$46.00","supports":[],"ticketUrl":null,"time":" 2pm"}],"vName":"The Round"},"type":"Feature"},{"geometry":{"coordinates":[144.9998797,-37.7616512],"type":"Point"},"properties":{"events":[{"categories":["Music"],"eDate":"2025-05-03","eName":"Daniel Reeves & Sandee Facy","genre":"Country/Folk","price":"Free","supports":[],"ticketUrl":null,"time":" 5pm"}],"vName":"The Thornbury Local"},"type":"Feature"},{"geometry":{"coordinates":[144.9651425,-37.8119429],"type":"Point"},"properties":{"events":[{"categories":["Music"],"eDate":"2025-05-03","eName":"Hosted by Chemo","genre":"Electronic","price":"$23.46","supports":[],"ticketUrl":null,"time":" 7pm"}],"vName":"The Toff In Town"},"type":"Feature"},{"geometry":{"coordinates":[144.9870814,-37.799406],"type":"Point"},"properties":{"events":[{"categories":["Music"],"eDate":"2025-05-03","eName":"Press Club (All Ages Gig)","genre":"Rock","price":"$39.30","supports":[],"ticketUrl":null,"time":" 2:30pm"},{"categories":["Free","Music"],"eDate":"2025-05-03","eName":"The Belafontes Variety Show","genre":"Indie","price":"Free","supports":["Austen Leidle"],"ticketUrl":null,"time":" 3pm"},{"categories":["Music"],"eDate":"2025-05-03","eName":"Press Club","genre":"Rock","price":"$44.40","supports":[],"ticketUrl":null,"time":" 8pm"},{"categories":["Music"],"eDate":"2025-05-03","eName":"Dog Door","genre":"Rock","price":"$16.35","supports":["Sour Worm"," Maisie Everett"],"ticketUrl":null,"time":" 8:30pm"}],"vName":"The Tote Hotel"},"type":"Feature"},{"geometry":{"coordinates":[144.9769451,-37.8055776],"type":"Point"},"properties":{"events":[{"categories":["Music"],"eDate":"2025-05-03","eName":"The Dahlias","genre":"Rock","price":"$16.85","supports":["Fur Blossom"," more"],"ticketUrl":null,"time":" 1pm"},{"categories":["Music"],"eDate":"2025-05-03","eName":"Smoke Stack Rhino","genre":"Blues","price":"$23.50","supports":["Doc Halibut"," The 6v6s"," Ingrid & The Ministers"],"ticketUrl":null,"time":" 8pm"}],"vName":"The Workers Club"},"type":"Feature"},{"geometry":{"coordinates":[144.9661635,-37.8176298],"type":"Point"},"properties":{"events":[{"categories":["Music"],"eDate":"2025-05-03","eName":"Exit Speed","genre":"Electronic","price":"$21.95","supports":[],"ticketUrl":null,"time":" 8pm"}],"vName":"Wax Music Lounge"},"type":"Feature"},{"geometry":{"coordinates":[144.9825847,-37.8051825],"type":"Point"},"properties":{"events":[{"categories":["Music"],"eDate":"2025-05-03","eName":"Terra Rouge","genre":"Rock","price":"$15.00","supports":["Yagki"],"ticketUrl":null,"time":" 9pm"}],"vName":"Yah Yah's"},"type":"Feature"}],"type":"FeatureCollection"}