{"features":[{"geometry":{"coordinates":[144.978682,-37.7981225],"type":"Point"},"properties":{"events":[{"categories":["Free","Music"],"eDate":"2025-01-19","eName":"Mya and Nathan","genre":null,"price":"Free","supports":[],"ticketUrl":null,"time":" 9pm"}],"vName":"Baxter's Lot"},"type":"Feature"},{"geometry":{"coordinates":[144.96564318571427,-37.745964314285715],"type":"Point"},"properties":{"events":[{"categories":["Free","Music"],"eDate":"2025-01-19","eName":"Sticky Carpet","genre":"Rock","price":"Free","supports":[],"ticketUrl":null,"time":" 3pm"}],"vName":"Coburg RSL Club"},"type":"Feature"},{"geometry":{"coordinates":[144.8971518,-37.8054274],"type":"Point"},"properties":{"events":[{"categories":["Free","Music"],"eDate":"2025-01-19","eName":"Maïa Mattïsse","genre":null,"price":"Free","supports":["Hot Glue"],"ticketUrl":null,"time":" 7pm"}],"vName":"Mamma Chen's"},"type":"Feature"},{"geometry":{"coordinates":[144.9605705,-37.8132486],"type":"Point"},"properties":{"events":[{"categories":["Music"],"eDate":"2025-01-19","eName":"Wendy Lee Taylor presents 'From Paris To....'","genre":"Jazz","price":"$45.00","supports":[],"ticketUrl":null,"time":" 6pm"},{"categories":["Music"],"eDate":"2025-01-19","eName":"The Music of Nancy Wilson & Cannonball Adderley","genre":"Jazz","price":"$45.00","supports":[],"ticketUrl":null,"time":" 6:30pm"}],"vName":"Paris Cat Jazz Club"},"type":"Feature"},{"geometry":{"coordinates":[144.9615882,-37.7711432],"type":"Point"},"properties":{"events":[{"categories":["Free","Music"],"eDate":"2025-01-19","eName":"Ingrid & The Ministers","genre":null,"price":"Free","supports":["Rubita"],"ticketUrl":null,"time":" 2pm"}],"vName":"Retreat Hotel"},"type":"Feature"},{"geometry":{"coordinates":[144.965405,-37.8117457],"type":"Point"},"properties":{"events":[{"categories":["Free","Music","Art"],"eDate":"2025-01-19","eName":"Fuego (Latin Summer Series: Part One)","genre":null,"price":"Free","supports":[],"ticketUrl":null,"time":" 3pm"}],"vName":"Section 8"},"type":"Feature"},{"geometry":{"coordinates":[144.9706095,-37.7783326],"type":"Point"},"properties":{"events":[{"categories":["Music"],"eDate":"2025-01-19","eName":"Twangover: Popa Mono","genre":"Country/Folk","price":"Free","supports":[],"ticketUrl":null,"time":" 4pm"}],"vName":"The Beast"},"type":"Feature"},{"geometry":{"coordinates":[144.9827552,-37.8041303],"type":"Point"},"properties":{"events":[{"categories":["Music"],"eDate":"2025-01-19","eName":"Sl*t Pop Rave: Midsumma After Party","genre":"Pop","price":"$0.00 - 12.37","supports":[],"ticketUrl":null,"time":" 9pm"}],"vName":"Yah Yah's"},"type":"Feature"}],"type":"FeatureCollection"}