{"features":[{"geometry":{"coordinates":[144.978682,-37.7981225],"type":"Point"},"properties":{"events":[{"categories":["Free","Music"],"eDate":"2024-08-16","eName":"Woody Samson","genre":null,"price":"Free","supports":[],"ticketUrl":null,"time":" 9:30pm"},{"categories":["Music"],"eDate":"2024-08-16","eName":"Normar Jr","genre":"Indie","price":"Free","supports":[],"ticketUrl":null,"time":"10pm"}],"vName":"Baxter's Lot"},"type":"Feature"},{"geometry":{"coordinates":[144.9617018,-37.7704566],"type":"Point"},"properties":{"events":[{"categories":["Music"],"eDate":"2024-08-16","eName":"Sex On Toast's Winter Variety Show","genre":"Soul/Funk","price":"$33.76","supports":[],"ticketUrl":null,"time":" 8pm"}],"vName":"Brunswick Ballroom"},"type":"Feature"},{"geometry":{"coordinates":[144.99266639479475,-37.82488935],"type":"Point"},"properties":{"events":[{"categories":["Music"],"eDate":"2024-08-16","eName":"Weenzer: 30 Year Weezer & Ween Celebration","genre":"Rock","price":"$24.00","supports":[],"ticketUrl":null,"time":" 8pm"}],"vName":"Corner Hotel"},"type":"Feature"},{"geometry":{"coordinates":[144.9628440552175,-37.76100605],"type":"Point"},"properties":{"events":[{"categories":["Free","Music","Trivia"],"eDate":"2024-08-16","eName":"Bingo","genre":"Electronic","price":"Free","supports":[],"ticketUrl":null,"time":" 7pm"}],"vName":"Edinburgh Castle Hotel"},"type":"Feature"},{"geometry":{"coordinates":[144.9787445,-37.7967357],"type":"Point"},"properties":{"events":[{"categories":["Music"],"eDate":"2024-08-16","eName":"Rare Phenomenon","genre":null,"price":"$15.00","supports":["Shakespeare"," Dynasty"],"ticketUrl":null,"time":" 7:30pm"}],"vName":"Evelyn Hotel"},"type":"Feature"},{"geometry":{"coordinates":[144.9875917,-37.7963837],"type":"Point"},"properties":{"events":[{"categories":["Free","Music"],"eDate":"2024-08-16","eName":"The Brakes: August Residency","genre":"Rock","price":"Free","supports":["Headspin"],"ticketUrl":null,"time":" 6pm"},{"categories":["Free","Music"],"eDate":"2024-08-16","eName":"The Brakes + Headspin","genre":"Rock","price":"Free","supports":[],"ticketUrl":null,"time":" 8pm"}],"vName":"Gem Bar"},"type":"Feature"},{"geometry":{"coordinates":[144.9787445,-37.7967357],"type":"Point"},"properties":{"events":[{"categories":["Music"],"eDate":"2024-08-16","eName":"Interval: Bertie + Tinika","genre":"Electronic","price":"$15.00 - 25.00","supports":["b. caszh"," EVA"," DJ Gracey"," Lenny Lens"," BRYN"],"ticketUrl":null,"time":"10pm"}],"vName":"Glamorama"},"type":"Feature"},{"geometry":{"coordinates":[144.983442,-37.804851],"type":"Point"},"properties":{"events":[{"categories":["Music"],"eDate":"2024-08-16","eName":"The Heart Shaped Aces","genre":"Rock","price":"$10.00 - 15.00","supports":["Human Noise"," Operation Karma"],"ticketUrl":null,"time":" 7:30pm"}],"vName":"Grace Darling Hotel"},"type":"Feature"},{"geometry":{"coordinates":[144.9679835243618,-37.8201575],"type":"Point"},"properties":{"events":[{"categories":["Music","Other \"Film\""],"eDate":"2024-08-16","eName":"Surprise Chef: Hear My Eyes - Wake in Fright (Early Session)","genre":"Soul/Funk","price":"$69.00 - 89.00","supports":[],"ticketUrl":null,"time":" 6:30pm"},{"categories":["Music","Other \"Film\""],"eDate":"2024-08-16","eName":"Surprise Chef: Hear My Eyes - Wake in Fright","genre":"Soul/Funk","price":"$69.00 - 89.00","supports":[],"ticketUrl":null,"time":" 9:30pm"}],"vName":"Hamer Hall (Arts Centre Melbourne)"},"type":"Feature"},{"geometry":{"coordinates":[144.973013,-37.8640582],"type":"Point"},"properties":{"events":[{"categories":["Music"],"eDate":"2024-08-16","eName":"One Direction: 14th Anniversary Party","genre":"Pop","price":"$22.95","supports":[],"ticketUrl":null,"time":" 9pm"}],"vName":"Hotel Esplanade (aka The Espy)"},"type":"Feature"},{"geometry":{"coordinates":[144.9936498,-37.8000264],"type":"Point"},"properties":{"events":[{"categories":["Free","Music"],"eDate":"2024-08-16","eName":"They Might Be Dead Frogs","genre":"Punk","price":"Free","supports":["Isabella Fortuna"," The Rartel"],"ticketUrl":null,"time":" 9pm"}],"vName":"Lulie Tavern"},"type":"Feature"},{"geometry":{"coordinates":[144.8971518,-37.8054274],"type":"Point"},"properties":{"events":[{"categories":["Music"],"eDate":"2024-08-16","eName":"Kingpin Brine","genre":null,"price":"$15.00","supports":["Alice Anderson"," Cousin In Law"],"ticketUrl":null,"time":" 7pm"}],"vName":"Mamma Chen's"},"type":"Feature"},{"geometry":{"coordinates":[144.9509539,-37.8253749],"type":"Point"},"properties":{"events":[{"categories":["Other \"Spoken Word\"","Other \"Poetry & Forums\""],"eDate":"2024-08-16","eName":"Procurement Australia's 16th Annual Conference","genre":null,"price":"$450.00","supports":[],"ticketUrl":null,"time":" 8:30am"},{"categories":["Other \"Spoken Word\"","Other \"Poetry & Forums\""],"eDate":"2024-08-16","eName":"Procurement Australia's 16th Annual Conference 2024","genre":null,"price":"$318.18 - 500.00","supports":[],"ticketUrl":null,"time":" 8:30am"}],"vName":"Melbourne Convention & Exhibition Centre (MCEC)"},"type":"Feature"},{"geometry":{"coordinates":[144.9786817,-37.8671902],"type":"Point"},"properties":{"events":[{"categories":["Music"],"eDate":"2024-08-16","eName":"Queen Forever","genre":"Rock","price":"$45.00 - 60.00","supports":[],"ticketUrl":null,"time":" 7pm"}],"vName":"Memo Music Hall"},"type":"Feature"},{"geometry":{"coordinates":[145.3553553,-37.9078552],"type":"Point"},"properties":{"events":[{"categories":["Free","Music"],"eDate":"2024-08-16","eName":"Zak Shepherd","genre":null,"price":"Free","supports":[],"ticketUrl":null,"time":" 7pm"}],"vName":"Micawber Tavern"},"type":"Feature"},{"geometry":{"coordinates":[144.9712356,-37.812902],"type":"Point"},"properties":{"events":[{"categories":["Comedy"],"eDate":"2024-08-16","eName":"Basement Comedy Club","genre":null,"price":"$24.00","supports":["more"],"ticketUrl":null,"time":" 8pm"}],"vName":"Morris House"},"type":"Feature"},{"geometry":{"coordinates":[144.96892412239615,-37.82266345],"type":"Point"},"properties":{"events":[{"categories":["Music"],"eDate":"2024-08-16","eName":"NGV Friday Nights: Kunjani Heita Afrika","genre":"Jazz","price":"$45.00","supports":[],"ticketUrl":null,"time":" 6pm"}],"vName":"NGV - National Gallery of Victoria"},"type":"Feature"},{"geometry":{"coordinates":[144.998414,-37.771471],"type":"Point"},"properties":{"events":[{"categories":["Music"],"eDate":"2024-08-16","eName":"GRAACE","genre":"Pop","price":"$40.40","supports":[],"ticketUrl":null,"time":" 8pm"}],"vName":"Northcote Social Club"},"type":"Feature"},{"geometry":{"coordinates":[144.97711,-37.79833],"type":"Point"},"properties":{"events":[{"categories":["Music"],"eDate":"2024-08-16","eName":"The Lazy Susans","genre":"Indie","price":"$17.35","supports":["Sick Visor"," Grass Stains"],"ticketUrl":null,"time":" 8pm"}],"vName":"Old Bar"},"type":"Feature"},{"geometry":{"coordinates":[144.9605705,-37.8132486],"type":"Point"},"properties":{"events":[{"categories":["Music"],"eDate":"2024-08-16","eName":"Charlie Parker with Strings","genre":"Jazz","price":"$45.00","supports":[],"ticketUrl":null,"time":" 5:30pm"},{"categories":["Music"],"eDate":"2024-08-16","eName":"Stevie Wonder Ful","genre":"Jazz","price":"$45.00","supports":[],"ticketUrl":null,"time":" 6:30pm"},{"categories":["Music"],"eDate":"2024-08-16","eName":"Susy Hull Sings Gershwin","genre":"Jazz","price":"$45.00","supports":[],"ticketUrl":null,"time":" 9pm"},{"categories":["Music"],"eDate":"2024-08-16","eName":"John Bennett Quintet: Plays The Music of Cannonball & Nat Adderley","genre":"Jazz","price":"$45.00","supports":[],"ticketUrl":null,"time":" 9:30pm"}],"vName":"Paris Cat Jazz Club"},"type":"Feature"},{"geometry":{"coordinates":[144.9615882,-37.7711432],"type":"Point"},"properties":{"events":[{"categories":["Free","Music"],"eDate":"2024-08-16","eName":"House, Party with DJ TIM","genre":"Electronic","price":"Free","supports":[],"ticketUrl":null,"time":" 8pm"}],"vName":"Retreat Hotel"},"type":"Feature"},{"geometry":{"coordinates":[144.9631913,-37.7617818],"type":"Point"},"properties":{"events":[{"categories":["Free","Music"],"eDate":"2024-08-16","eName":"Pontresina + Steppers","genre":"Jazz","price":"Free","supports":[],"ticketUrl":null,"time":" 8pm"}],"vName":"Ringo Barr"},"type":"Feature"},{"geometry":{"coordinates":[145.001392343033,-37.75592655],"type":"Point"},"properties":{"events":[{"categories":["Music"],"eDate":"2024-08-16","eName":"Penny Ikinger's Marbles","genre":"Rock","price":"$23.45","supports":["Signal Chain"," Fancy Weapon"],"ticketUrl":null,"time":" 8pm"}],"vName":"Shotkickers"},"type":"Feature"},{"geometry":{"coordinates":[144.9607404,-37.7743469],"type":"Point"},"properties":{"events":[{"categories":["Music"],"eDate":"2024-08-16","eName":"Maizie","genre":"Punk","price":"$17.00","supports":["No Longer Kids"," Terra Rouge"," Crushed Lavender"],"ticketUrl":null,"time":" 7pm"},{"categories":["Music"],"eDate":"2024-08-16","eName":"Mr. McClelland’s Finishing School Presents: 1994","genre":"Pop","price":"$15.85","supports":["Steve Wide"],"ticketUrl":null,"time":"11pm"}],"vName":"Stay Gold"},"type":"Feature"},{"geometry":{"coordinates":[144.9706095,-37.7783326],"type":"Point"},"properties":{"events":[{"categories":["Free","Music"],"eDate":"2024-08-16","eName":"Máquina Peligrosa","genre":"Rock","price":"Free","supports":["Matt Black's Continental Snarl"],"ticketUrl":null,"time":" 9pm"}],"vName":"The Beast"},"type":"Feature"},{"geometry":{"coordinates":[144.9585654,-37.8059962],"type":"Point"},"properties":{"events":[{"categories":["Music"],"eDate":"2024-08-16","eName":"Kyoto Indie Rock Experiments","genre":"Rock","price":"$23.50","supports":["Gush"," Fan Girl"],"ticketUrl":null,"time":" 8pm"}],"vName":"The Last Chance Rock & Roll Bar"},"type":"Feature"},{"geometry":{"coordinates":[144.9708437,-37.7973184],"type":"Point"},"properties":{"events":[{"categories":["Other \"Spoken Word\"","Other \"Poetry & Forums\""],"eDate":"2024-08-16","eName":"Underground Philosophy","genre":null,"price":"$35.46","supports":[],"ticketUrl":null,"time":" 7:30pm"},{"categories":["Music"],"eDate":"2024-08-16","eName":"Charlotte Bridie","genre":"Indie","price":"$20.26","supports":[],"ticketUrl":null,"time":" 8pm"}],"vName":"The Motley Bauhaus"},"type":"Feature"},{"geometry":{"coordinates":[144.9618426,-37.8125531],"type":"Point"},"properties":{"events":[{"categories":["Free","Music"],"eDate":"2024-08-16","eName":"Colette","genre":null,"price":"Free","supports":[],"ticketUrl":null,"time":" 4pm"}],"vName":"Whitehart Bar"},"type":"Feature"}],"type":"FeatureCollection"}