{"features":[{"geometry":{"coordinates":[144.978425,-37.79773],"type":"Point"},"properties":{"events":[{"categories":["Free","Music"],"eDate":"2025-01-17","eName":"The Four Scoops","genre":"Jazz","price":"Free","supports":[],"ticketUrl":null,"time":" 6:30pm"},{"categories":["Music"],"eDate":"2025-01-17","eName":"Heaps Grass","genre":"Indie","price":"$20.00","supports":["Flora Carbo"," Wybie"],"ticketUrl":null,"time":" 8:30pm"},{"categories":["Free","Music"],"eDate":"2025-01-17","eName":"Smoking Vinyl","genre":"Jazz","price":"Free","supports":[],"ticketUrl":null,"time":" 8:30pm"}],"vName":"Bar Open"},"type":"Feature"},{"geometry":{"coordinates":[144.978682,-37.7981225],"type":"Point"},"properties":{"events":[{"categories":["Free","Music"],"eDate":"2025-01-17","eName":"Harrisen Hughes","genre":null,"price":"Free","supports":[],"ticketUrl":null,"time":" 9pm"},{"categories":["Music"],"eDate":"2025-01-17","eName":"DJ Nomar Jr","genre":"Electronic","price":"Free","supports":[],"ticketUrl":null,"time":"10pm"}],"vName":"Baxter's Lot"},"type":"Feature"},{"geometry":{"coordinates":[144.9567859,-37.8111049],"type":"Point"},"properties":{"events":[{"categories":["Music"],"eDate":"2025-01-17","eName":"Cool Change","genre":"Rock","price":"$38.00","supports":[],"ticketUrl":null,"time":" 6pm"}],"vName":"Bird's Basement"},"type":"Feature"},{"geometry":{"coordinates":[144.9713425,-37.8128595],"type":"Point"},"properties":{"events":[{"categories":["Music"],"eDate":"2025-01-17","eName":"Select All","genre":"Rock","price":"$12.37","supports":["Champ Ruby"," GetJaxxed"],"ticketUrl":null,"time":" 8pm"}],"vName":"Cherry Bar"},"type":"Feature"},{"geometry":{"coordinates":[144.99266639479475,-37.82488935],"type":"Point"},"properties":{"events":[{"categories":["Music","Other \"Wrestling\""],"eDate":"2025-01-17","eName":"Wrestlerock","genre":"Rock","price":"$45.45","supports":[],"ticketUrl":null,"time":" 8pm"}],"vName":"Corner Hotel"},"type":"Feature"},{"geometry":{"coordinates":[144.8971518,-37.8054274],"type":"Point"},"properties":{"events":[{"categories":["Free","Music"],"eDate":"2025-01-17","eName":"Little Theatre","genre":null,"price":"Free","supports":["Red Hound"," Circle The Sun"],"ticketUrl":null,"time":" 7:30pm"}],"vName":"Mamma Chen's"},"type":"Feature"},{"geometry":{"coordinates":[144.998414,-37.771471],"type":"Point"},"properties":{"events":[{"categories":["Music"],"eDate":"2025-01-17","eName":"Peach Fuzz","genre":"Rock","price":"$19.50","supports":["Sweet Temper"," Dead Ed"],"ticketUrl":null,"time":" 8pm"}],"vName":"Northcote Social Club"},"type":"Feature"},{"geometry":{"coordinates":[144.9605705,-37.8132486],"type":"Point"},"properties":{"events":[{"categories":["Music"],"eDate":"2025-01-17","eName":"Not So Big Band: A Tribute To Kind of Blue (with Gianni Marinucci)","genre":"Jazz","price":"$48.00","supports":[],"ticketUrl":null,"time":" 6pm"},{"categories":["Music"],"eDate":"2025-01-17","eName":"Gregg Arthur: Jazz & Cocktails","genre":"Jazz","price":"$45.00","supports":[],"ticketUrl":null,"time":" 6:30pm"},{"categories":["Music"],"eDate":"2025-01-17","eName":"Elly Poletti Sings The A List: Aretha-Adele-Alicia-Amy","genre":"Jazz","price":"$48.00","supports":[],"ticketUrl":null,"time":" 9pm"},{"categories":["Music"],"eDate":"2025-01-17","eName":"The Big Idiot Club","genre":"Jazz","price":"$45.00","supports":[],"ticketUrl":null,"time":" 9:30pm"}],"vName":"Paris Cat Jazz Club"},"type":"Feature"},{"geometry":{"coordinates":[144.9607404,-37.7743469],"type":"Point"},"properties":{"events":[{"categories":["Comedy"],"eDate":"2025-01-17","eName":"Natalie Cuomo & Dan LaMorte","genre":null,"price":"$61.10","supports":[],"ticketUrl":null,"time":" 7:30pm"},{"categories":["Music"],"eDate":"2025-01-17","eName":"Powerpop Girls Party","genre":"Pop","price":"$13.98 - 22.00","supports":[],"ticketUrl":null,"time":"11pm"}],"vName":"Stay Gold"},"type":"Feature"},{"geometry":{"coordinates":[144.9657057,-37.8061581],"type":"Point"},"properties":{"events":[{"categories":["Music"],"eDate":"2025-01-17","eName":"EGGY + Way Dynamic","genre":null,"price":"Free","supports":[],"ticketUrl":null,"time":" 7:30pm"}],"vName":"The Curtin"},"type":"Feature"},{"geometry":{"coordinates":[144.9840598,-37.7827901],"type":"Point"},"properties":{"events":[{"categories":["Music"],"eDate":"2025-01-17","eName":"Fairtrade Narcotics","genre":null,"price":"$15.00","supports":["Dopplerhaus"," Please People"],"ticketUrl":null,"time":" 6pm"}],"vName":"The Fitzroy Pinnacle"},"type":"Feature"},{"geometry":{"coordinates":[144.9585654,-37.8059962],"type":"Point"},"properties":{"events":[{"categories":["Music"],"eDate":"2025-01-17","eName":"Violet","genre":"Rock","price":"$11.25","supports":["Garden Lane"," Will Gibb"],"ticketUrl":null,"time":" 8pm"}],"vName":"The Last Chance Rock & Roll Bar"},"type":"Feature"},{"geometry":{"coordinates":[144.99987967655426,-37.76165125],"type":"Point"},"properties":{"events":[{"categories":["Free","Music","Other \"Food & Drink\""],"eDate":"2025-01-17","eName":"Everyday Wonder + Private Stash (lite)","genre":null,"price":"Free","supports":[],"ticketUrl":null,"time":" 8pm"}],"vName":"The Thornbury Local"},"type":"Feature"},{"geometry":{"coordinates":[144.9651425,-37.8119429],"type":"Point"},"properties":{"events":[{"categories":["Free","Music"],"eDate":"2025-01-17","eName":"Deep Cargo","genre":"Electronic","price":"Free","supports":[],"ticketUrl":null,"time":"10pm"}],"vName":"The Toff In Town"},"type":"Feature"},{"geometry":{"coordinates":[144.9846126,-37.7989941],"type":"Point"},"properties":{"events":[{"categories":["Music"],"eDate":"2025-01-17","eName":"Antenna","genre":"Rock","price":"$23.50","supports":["Phil & The Tiles"," Raev"," Jaded"],"ticketUrl":null,"time":" 8pm"},{"categories":["Music"],"eDate":"2025-01-17","eName":"Cass Aware","genre":"Rock","price":"$11.25","supports":["Jaded State"," Star Jock"],"ticketUrl":null,"time":" 8:30pm"}],"vName":"The Tote Hotel"},"type":"Feature"},{"geometry":{"coordinates":[144.9983987,-37.7729204],"type":"Point"},"properties":{"events":[{"categories":["Music"],"eDate":"2025-01-17","eName":"Athena Lim","genre":"Indie","price":"Free","supports":[],"ticketUrl":null,"time":" 6pm"}],"vName":"Wesley Anne"},"type":"Feature"},{"geometry":{"coordinates":[144.9827552,-37.8041303],"type":"Point"},"properties":{"events":[{"categories":["Music"],"eDate":"2025-01-17","eName":"Teenage Dream 2010's Pop Party","genre":"Pop","price":"$0.00 - 15.00","supports":[],"ticketUrl":null,"time":" 9pm"}],"vName":"Yah Yah's"},"type":"Feature"}],"type":"FeatureCollection"}