{"features":[{"geometry":{"coordinates":[144.9715791,-37.8140656],"type":"Point"},"properties":{"events":[{"categories":["Comedy"],"eDate":"2025-02-22","eName":"Anna Akana","genre":null,"price":"$49.90","supports":[],"ticketUrl":null,"time":" 6pm"}],"vName":"Athenaeum Theatre"},"type":"Feature"},{"geometry":{"coordinates":[144.978682,-37.7981225],"type":"Point"},"properties":{"events":[{"categories":["Free","Music"],"eDate":"2025-02-22","eName":"Harrisen Hughes","genre":null,"price":"Free","supports":[],"ticketUrl":null,"time":" 9pm"},{"categories":["Music"],"eDate":"2025-02-22","eName":"DJ Rubisco","genre":"Electronic","price":"Free","supports":[],"ticketUrl":null,"time":"10pm"}],"vName":"Baxter's Lot"},"type":"Feature"},{"geometry":{"coordinates":[144.98911674151407,-37.79964875],"type":"Point"},"properties":{"events":[{"categories":["Music"],"eDate":"2025-02-22","eName":"Altav","genre":"Rock","price":"$12.25","supports":["Broad Parade"," Cass Aware"],"ticketUrl":null,"time":" 9pm"}],"vName":"Bendigo Hotel"},"type":"Feature"},{"geometry":{"coordinates":[144.9607158,-37.776327],"type":"Point"},"properties":{"events":[{"categories":["Music"],"eDate":"2025-02-22","eName":"Lostii","genre":"Indie","price":"$16.85","supports":["Forner"," Girl From Nowhere"],"ticketUrl":null,"time":" 8pm"}],"vName":"Bergy Bandroom"},"type":"Feature"},{"geometry":{"coordinates":[145.0006024,-37.8837941],"type":"Point"},"properties":{"events":[{"categories":["Music"],"eDate":"2025-02-22","eName":"John Scurry's Reverse Swing Quartet","genre":"Jazz","price":"$25.00 - 30.00","supports":[],"ticketUrl":null,"time":" 8pm"},{"categories":["Music"],"eDate":"2025-02-22","eName":"John Scurry's Reverse Swing Quartet","genre":"Jazz","price":"$30.00","supports":[],"ticketUrl":null,"time":" 8pm"}],"vName":"Classic Southside"},"type":"Feature"},{"geometry":{"coordinates":[144.99266639479475,-37.82488935],"type":"Point"},"properties":{"events":[{"categories":["Music"],"eDate":"2025-02-22","eName":"Rum Jungle","genre":"Rock","price":"$40.40","supports":[],"ticketUrl":null,"time":" 8pm"}],"vName":"Corner Hotel"},"type":"Feature"},{"geometry":{"coordinates":[144.96947,-37.816565],"type":"Point"},"properties":{"events":[{"categories":["Music"],"eDate":"2025-02-22","eName":"G-EAZY","genre":"Hip Hop","price":"$101.65","supports":[],"ticketUrl":null,"time":" 7pm"}],"vName":"Forum Melbourne"},"type":"Feature"},{"geometry":{"coordinates":[144.98535244416098,-37.79426315],"type":"Point"},"properties":{"events":[{"categories":["Music"],"eDate":"2025-02-22","eName":"Ska Fighter II Fest 2025","genre":"Punk","price":"$68.35","supports":["TopNovil"," Steppin’ Razor"," Radshack"," Operation Ibis"," The Kittyhawks"," Admiral Ackbar's Dishonourable Discharge"," more"],"ticketUrl":null,"time":"12pm"}],"vName":"Gasometer Hotel"},"type":"Feature"},{"geometry":{"coordinates":[144.9875917,-37.7963837],"type":"Point"},"properties":{"events":[{"categories":["Free","Music"],"eDate":"2025-02-22","eName":"The Hybernators + Traumaboys","genre":"Punk","price":"Free","supports":[],"ticketUrl":null,"time":" 4pm"}],"vName":"Gem Bar"},"type":"Feature"},{"geometry":{"coordinates":[144.973013,-37.8640582],"type":"Point"},"properties":{"events":[{"categories":["Music"],"eDate":"2025-02-22","eName":"Sheer Chance","genre":"Punk","price":"$15.85","supports":["Orphix"," I Am Duckeye"],"ticketUrl":null,"time":" 7pm"}],"vName":"Hotel Esplanade (aka The Espy)"},"type":"Feature"},{"geometry":{"coordinates":[145.0355738,-37.8205529],"type":"Point"},"properties":{"events":[{"categories":["Music"],"eDate":"2025-02-22","eName":"Bob Sedergreen & Friends","genre":"Jazz","price":"$25.00 - 30.00","supports":["Savannah Blount"],"ticketUrl":null,"time":" 8pm"}],"vName":"Lido Jazz Room"},"type":"Feature"},{"geometry":{"coordinates":[144.9631732,-37.8142454],"type":"Point"},"properties":{"events":[{"categories":["Free","Music"],"eDate":"2025-02-22","eName":"Dusk Til Dark at MPavilion: The Night Terrors","genre":"Electronic","price":"Free","supports":[],"ticketUrl":null,"time":" 7:30pm"}],"vName":"MPavilion"},"type":"Feature"},{"geometry":{"coordinates":[144.8971518,-37.8054274],"type":"Point"},"properties":{"events":[{"categories":["Free","Music"],"eDate":"2025-02-22","eName":"Morningbirds","genre":null,"price":"Free","supports":["Earth Cadet"," Moth"],"ticketUrl":null,"time":" 7:30pm"}],"vName":"Mamma Chen's"},"type":"Feature"},{"geometry":{"coordinates":[144.9659879,-37.8147557],"type":"Point"},"properties":{"events":[{"categories":["Music"],"eDate":"2025-02-22","eName":"Nocturna","genre":"Electronic","price":"$22.45 - 24.50","supports":[],"ticketUrl":null,"time":" 9pm"}],"vName":"Max Watt's (Melbourne)"},"type":"Feature"},{"geometry":{"coordinates":[144.9712356,-37.812902],"type":"Point"},"properties":{"events":[{"categories":["Comedy"],"eDate":"2025-02-22","eName":"Basement Comedy Club","genre":null,"price":"$25.00","supports":[],"ticketUrl":null,"time":" 8pm"}],"vName":"Morris House"},"type":"Feature"},{"geometry":{"coordinates":[144.998414,-37.771471],"type":"Point"},"properties":{"events":[{"categories":["Music"],"eDate":"2025-02-22","eName":"Fool Nelson","genre":"Rock","price":"$18.40","supports":[],"ticketUrl":null,"time":" 8:30pm"}],"vName":"Northcote Social Club"},"type":"Feature"},{"geometry":{"coordinates":[144.9977626,-37.7755001],"type":"Point"},"properties":{"events":[{"categories":["Music"],"eDate":"2025-02-22","eName":"NTS - Naarm","genre":"Electronic","price":"$78.23 - 100.67","supports":[],"ticketUrl":null,"time":" 5pm"}],"vName":"Northcote Theatre"},"type":"Feature"},{"geometry":{"coordinates":[144.9605705,-37.8132486],"type":"Point"},"properties":{"events":[{"categories":["Music"],"eDate":"2025-02-22","eName":"We May Never Meet Again: The Music Of Amy Winehouse with Elly Poletti","genre":"Jazz","price":"$48.00","supports":[],"ticketUrl":null,"time":" 6pm"},{"categories":["Music"],"eDate":"2025-02-22","eName":"The Music of Fleetwood Mac with Amethyst Jane","genre":"Jazz","price":"$45.00","supports":[],"ticketUrl":null,"time":" 6:30pm"},{"categories":["Music"],"eDate":"2025-02-22","eName":"Dean's Martini","genre":"Jazz","price":"$50.00","supports":[],"ticketUrl":null,"time":" 9pm"}],"vName":"Paris Cat Jazz Club"},"type":"Feature"},{"geometry":{"coordinates":[144.97817073839508,-37.8014757],"type":"Point"},"properties":{"events":[{"categories":["Music"],"eDate":"2025-02-22","eName":"Hassall","genre":"Pop","price":"$24.90","supports":[],"ticketUrl":null,"time":" 8pm"}],"vName":"Perseverance Hotel"},"type":"Feature"},{"geometry":{"coordinates":[144.90239079583333,-37.79990865],"type":"Point"},"properties":{"events":[{"categories":["Free","Music"],"eDate":"2025-02-22","eName":"Saturday Night Party","genre":"Electronic","price":"Free","supports":[],"ticketUrl":null,"time":"10pm"}],"vName":"Pride Of Our Footscray Community Bar"},"type":"Feature"},{"geometry":{"coordinates":[145.0142411,-37.7310367],"type":"Point"},"properties":{"events":[{"categories":["Music"],"eDate":"2025-02-22","eName":"Beltin’ Elton With Nitida","genre":"Pop","price":"Free","supports":[],"ticketUrl":null,"time":" 8pm"}],"vName":"Ragtime Tavern"},"type":"Feature"},{"geometry":{"coordinates":[144.9615882,-37.7711432],"type":"Point"},"properties":{"events":[{"categories":["Free","Music"],"eDate":"2025-02-22","eName":"Lachlan Denton","genre":"Acoustic","price":"Free","supports":[],"ticketUrl":null,"time":" 1:30pm"}],"vName":"Retreat Hotel"},"type":"Feature"},{"geometry":{"coordinates":[144.9746525926778,-37.823819181966286],"type":"Point"},"properties":{"events":[{"categories":["Free","Music"],"eDate":"2025-02-22","eName":"Melbourne Symphony Orchestra presents Symphonic Showcase","genre":"Classical","price":"Free","supports":[],"ticketUrl":null,"time":" 5:30pm"}],"vName":"Sidney Myer Music Bowl"},"type":"Feature"},{"geometry":{"coordinates":[144.9607404,-37.7743469],"type":"Point"},"properties":{"events":[{"categories":["Music"],"eDate":"2025-02-22","eName":"am//pm emo night","genre":"Punk","price":"$18.65 - 25.00","supports":[],"ticketUrl":null,"time":" 8pm"}],"vName":"Stay Gold"},"type":"Feature"},{"geometry":{"coordinates":[144.99959550357977,-37.762376950000004],"type":"Point"},"properties":{"events":[{"categories":["Music"],"eDate":"2025-02-22","eName":"Close Counters","genre":"Electronic","price":"$13.30 - 23.50","supports":[],"ticketUrl":null,"time":" 7:30pm"},{"categories":["Music"],"eDate":"2025-02-22","eName":"Party Dozen","genre":"Punk","price":"$23.50 - 34.70","supports":[],"ticketUrl":null,"time":" 8pm"}],"vName":"The Croxton"},"type":"Feature"},{"geometry":{"coordinates":[144.958676,-37.7669571],"type":"Point"},"properties":{"events":[{"categories":["Music"],"eDate":"2025-02-22","eName":"Harry James Angus","genre":"Jazz","price":"$35.00 - 40.00","supports":[],"ticketUrl":null,"time":" 8pm"}],"vName":"The Jazzlab"},"type":"Feature"},{"geometry":{"coordinates":[144.9585654,-37.8059962],"type":"Point"},"properties":{"events":[{"categories":["Music"],"eDate":"2025-02-22","eName":"Foley!: Celebrating 10 Years of Ascot Vale","genre":"Rock","price":"$20.00","supports":["Foxtrot"," The Lazy Susans"," Jerome Knappert"," Flowers in The Attic"," Overthinker"," Sunset Blush"," Tom Grey"],"ticketUrl":null,"time":" 6pm"},{"categories":["Music"],"eDate":"2025-02-22","eName":"Goodwood","genre":"Rock","price":"$16.35","supports":[],"ticketUrl":null,"time":" 8:30pm"}],"vName":"The Last Chance Rock & Roll Bar"},"type":"Feature"},{"geometry":{"coordinates":[144.9968036,-37.7794807],"type":"Point"},"properties":{"events":[{"categories":["Free","Music"],"eDate":"2025-02-22","eName":"Solar Wax","genre":"Acoustic","price":"Free","supports":["Sian Stacey"," Grand Pricks"],"ticketUrl":null,"time":" 8pm"}],"vName":"The Merri Creek Tavern"},"type":"Feature"},{"geometry":{"coordinates":[144.9708437,-37.7973184],"type":"Point"},"properties":{"events":[{"categories":["Free","Music"],"eDate":"2025-02-22","eName":"Jazz Arvos","genre":"Jazz","price":"Free","supports":[],"ticketUrl":null,"time":" 5pm"}],"vName":"The Motley Bauhaus"},"type":"Feature"},{"geometry":{"coordinates":[144.9846126,-37.7989941],"type":"Point"},"properties":{"events":[{"categories":["Free","Music"],"eDate":"2025-02-22","eName":"Plastic Section + The Earthquakes","genre":"Rock","price":"Free","supports":[],"ticketUrl":null,"time":" 3pm"},{"categories":["Music"],"eDate":"2025-02-22","eName":"Fever Shack","genre":"Metal","price":"$23.50","supports":["No Way Out"," Heat"," Judged By 12"," Timepeace"],"ticketUrl":null,"time":" 8pm"}],"vName":"The Tote Hotel"},"type":"Feature"},{"geometry":{"coordinates":[144.9769450659087,-37.8055776],"type":"Point"},"properties":{"events":[{"categories":["Music"],"eDate":"2025-02-22","eName":"Gaudion + Rod Coote","genre":"Indie","price":"$23.50","supports":[],"ticketUrl":null,"time":" 8pm"},{"categories":["Music"],"eDate":"2025-02-22","eName":"Gaudion + Rod Coote","genre":"Indie","price":"$23.50","supports":[],"ticketUrl":null,"time":" 8pm"}],"vName":"The Workers Club"},"type":"Feature"}],"type":"FeatureCollection"}