{"features":[{"geometry":{"coordinates":[144.978425,-37.79773],"type":"Point"},"properties":{"events":[{"categories":["Music","Trivia"],"eDate":"2024-12-04","eName":"Obdurate","genre":"Jazz","price":"$20.00","supports":["Nausicaa"," Splitlanes"],"ticketUrl":null,"time":" 8pm"}],"vName":"Bar Open"},"type":"Feature"},{"geometry":{"coordinates":[144.978682,-37.7981225],"type":"Point"},"properties":{"events":[{"categories":["Free","Music"],"eDate":"2024-12-04","eName":"SunnyDaze","genre":null,"price":"Free","supports":[],"ticketUrl":null,"time":" 9pm"}],"vName":"Baxter's Lot"},"type":"Feature"},{"geometry":{"coordinates":[144.9945274,-37.8001115],"type":"Point"},"properties":{"events":[{"categories":["Free","Music","Other \"Food & Drink\""],"eDate":"2024-12-04","eName":"Uncomfortable Science!","genre":null,"price":"Free","supports":["Cantrips"],"ticketUrl":null,"time":" 7pm"}],"vName":"Bodriggy Brewing Company"},"type":"Feature"},{"geometry":{"coordinates":[144.96741062735794,-37.82454855],"type":"Point"},"properties":{"events":[{"categories":["Music"],"eDate":"2024-12-04","eName":"Joshua Bell in Recital","genre":"Classical","price":"$95.00","supports":[],"ticketUrl":null,"time":" 7:30pm"}],"vName":"Melbourne Recital Centre"},"type":"Feature"},{"geometry":{"coordinates":[144.9828155,-37.8567825],"type":"Point"},"properties":{"events":[{"categories":["Music"],"eDate":"2024-12-04","eName":"Dylan Gossett","genre":"Indie","price":"$72.35","supports":["Tyla Rodrigues"],"ticketUrl":null,"time":" 7pm"}],"vName":"Prince Bandroom"},"type":"Feature"},{"geometry":{"coordinates":[144.9708437,-37.7973184],"type":"Point"},"properties":{"events":[{"categories":["Music"],"eDate":"2024-12-04","eName":"Conk: Long Play 2024","genre":"Pop","price":"$10.13","supports":[],"ticketUrl":null,"time":" 7:30pm"}],"vName":"The Motley Bauhaus"},"type":"Feature"},{"geometry":{"coordinates":[144.97609390481176,-37.86415685],"type":"Point"},"properties":{"events":[{"categories":["Theatre"],"eDate":"2024-12-04","eName":"Skating in the Clouds","genre":null,"price":"$45.00","supports":[],"ticketUrl":null,"time":" 7:30pm"}],"vName":"Theatre Works"},"type":"Feature"}],"type":"FeatureCollection"}