{"features":[{"geometry":{"coordinates":[144.9982812,-37.7713296],"type":"Point"},"properties":{"events":[{"categories":["Music","Free"],"eDate":"2026-07-14","eName":"Klub M.U.K.","genre":"Acoustic","price":"Free","supports":[],"ticketUrl":null,"time":" 7:30pm"}],"vName":"Bar 303"},"type":"Feature"},{"geometry":{"coordinates":[145.1232659,-38.1461351],"type":"Point"},"properties":{"events":[{"categories":["Theatre"],"eDate":"2026-07-14","eName":"Glass Child","genre":null,"price":"$24.00 - 59.00","supports":[],"ticketUrl":null,"time":" 7:30pm"}],"vName":"Frankston Arts Centre"},"type":"Feature"},{"geometry":{"coordinates":[144.9679835,-37.8201575],"type":"Point"},"properties":{"events":[{"categories":["Music"],"eDate":"2026-07-14","eName":"Music and Ideas: Open Rehearsal with Tabita Berglund","genre":"Classical","price":"$19.00","supports":[],"ticketUrl":null,"time":" 6:30pm"}],"vName":"Hamer Hall (Arts Centre Melbourne)"},"type":"Feature"},{"geometry":{"coordinates":[144.9794553,-37.7982653],"type":"Point"},"properties":{"events":[{"categories":["Music"],"eDate":"2026-07-14","eName":"YHWH Nailgun","genre":null,"price":"$59.90","supports":[],"ticketUrl":null,"time":" 7:30pm"}],"vName":"The Night Cat"},"type":"Feature"},{"geometry":{"coordinates":[144.9661635,-37.8176298],"type":"Point"},"properties":{"events":[{"categories":["Music"],"eDate":"2026-07-14","eName":"Brazlombia","genre":"Electronic","price":"$10.95","supports":["Gabss"],"ticketUrl":null,"time":" 7pm"}],"vName":"Wax Music Lounge"},"type":"Feature"}],"type":"FeatureCollection"}