{"features":[{"geometry":{"coordinates":[144.978682,-37.7981225],"type":"Point"},"properties":{"events":[{"categories":["Free","Music"],"eDate":"2025-07-24","eName":"Leaps and Bounds: Mya Rogers & Liliana","genre":null,"price":"Free","supports":[],"ticketUrl":null,"time":" 9pm"}],"vName":"Baxter's Lot"},"type":"Feature"},{"geometry":{"coordinates":[144.9891167,-37.7996488],"type":"Point"},"properties":{"events":[{"categories":["Music"],"eDate":"2025-07-24","eName":"Buck Wild Thursdays: Blank Face + Gecko","genre":"Rock","price":"$20.00","supports":[],"ticketUrl":null,"time":" 7:30pm"}],"vName":"Bendigo Hotel"},"type":"Feature"},{"geometry":{"coordinates":[144.9568039,-37.8111442],"type":"Point"},"properties":{"events":[{"categories":["Music"],"eDate":"2025-07-24","eName":"Taylor Henderson","genre":"Pop","price":"$40.00","supports":[],"ticketUrl":null,"time":" 7:30pm"}],"vName":"Bird's Basement"},"type":"Feature"},{"geometry":{"coordinates":[144.9945274,-37.8001115],"type":"Point"},"properties":{"events":[{"categories":["Free","Music","Other \"Art \"","Other \"Food \""],"eDate":"2025-07-24","eName":"LBMF: Canisha + Liv & The Dream","genre":null,"price":"Free","supports":[],"ticketUrl":null,"time":" 7pm"},{"categories":["Comedy","Other \"Art \"","Other \"Food \""],"eDate":"2025-07-24","eName":"Shad & Pete Save The World with Dilruk Jayasinha & Kirsty Webeck","genre":"Soul/Funk","price":"Free","supports":[],"ticketUrl":null,"time":" 7:30pm"}],"vName":"Bodriggy Brewing Company"},"type":"Feature"},{"geometry":{"coordinates":[144.9617083,-37.7704205],"type":"Point"},"properties":{"events":[{"categories":["Music"],"eDate":"2025-07-24","eName":"Emily Lubitz","genre":"Indie","price":"$35.00","supports":["Harry James Angus"],"ticketUrl":null,"time":" 8pm"}],"vName":"Brunswick Ballroom"},"type":"Feature"},{"geometry":{"coordinates":[145.0314658,-37.8067273],"type":"Point"},"properties":{"events":[{"categories":["Music"],"eDate":"2025-07-24","eName":"Kew Court House Live: Baker Moran West","genre":"Country/Folk","price":"$20.00","supports":[],"ticketUrl":null,"time":" 7:30pm"}],"vName":"Kew Court House"},"type":"Feature"},{"geometry":{"coordinates":[144.9675876,-37.8240849],"type":"Point"},"properties":{"events":[{"categories":["Music"],"eDate":"2025-07-24","eName":"Westbourne Grammar School Annual Concert 2025: Resonance","genre":"Classical","price":"$40.00","supports":[],"ticketUrl":null,"time":" 6:30pm"}],"vName":"Melbourne Recital Centre"},"type":"Feature"},{"geometry":{"coordinates":[144.9790251,-37.8675008],"type":"Point"},"properties":{"events":[{"categories":["Music"],"eDate":"2025-07-24","eName":"Prohibition","genre":"Jazz","price":"$45.00","supports":[],"ticketUrl":null,"time":" 7:15pm"}],"vName":"Memo Music Hall"},"type":"Feature"},{"geometry":{"coordinates":[144.998414,-37.771471],"type":"Point"},"properties":{"events":[{"categories":["Music","Other \"Film\""],"eDate":"2025-07-24","eName":"Sensible Antixx Records presents Burn Gently (Film Screening)","genre":"Hip Hop","price":"Free","supports":[],"ticketUrl":null,"time":" 7:30pm"}],"vName":"Northcote Social Club"},"type":"Feature"},{"geometry":{"coordinates":[144.97711,-37.79833],"type":"Point"},"properties":{"events":[{"categories":["Music"],"eDate":"2025-07-24","eName":"City Of Yarra, Leaps And Bounds & The Old Bar Presents: Thursday Night Throwdown","genre":"Rock","price":"$10.00","supports":[],"ticketUrl":null,"time":" 7:30pm"}],"vName":"Old Bar"},"type":"Feature"},{"geometry":{"coordinates":[144.96084,-37.813514],"type":"Point"},"properties":{"events":[{"categories":["Music"],"eDate":"2025-07-24","eName":"The Music of Herbie Hancock with Ryley Duncan","genre":"Jazz","price":"$40.00","supports":[],"ticketUrl":null,"time":" 7:30pm"},{"categories":["Music"],"eDate":"2025-07-24","eName":"Blue Note ‘60","genre":"Jazz","price":"$40.00","supports":[],"ticketUrl":null,"time":" 8pm"}],"vName":"Paris Cat Jazz Club"},"type":"Feature"},{"geometry":{"coordinates":[144.993413,-37.8506652],"type":"Point"},"properties":{"events":[{"categories":["Free","Music"],"eDate":"2025-07-24","eName":"Dangerfield Presents The Crystal Ship","genre":"Rock","price":"Free","supports":["Gypsy Lee"," Isabelle Skye"],"ticketUrl":null,"time":" 7:30pm"}],"vName":"Revolver Upstairs"},"type":"Feature"},{"geometry":{"coordinates":[144.9706211,-37.778276],"type":"Point"},"properties":{"events":[{"categories":["Other \"Trivia \"","Other \"Cabaret\""],"eDate":"2025-07-24","eName":"Drag Bingo","genre":null,"price":"Free","supports":[],"ticketUrl":null,"time":" 8pm"}],"vName":"The Beast"},"type":"Feature"},{"geometry":{"coordinates":[144.9657057,-37.8061581],"type":"Point"},"properties":{"events":[{"categories":["Music"],"eDate":"2025-07-24","eName":"El Tee","genre":"Indie","price":"$33.45","supports":["Lucy Harrington"],"ticketUrl":null,"time":" 7:30pm"}],"vName":"The Curtin"},"type":"Feature"},{"geometry":{"coordinates":[144.9840598,-37.7827901],"type":"Point"},"properties":{"events":[{"categories":["Music"],"eDate":"2025-07-24","eName":"Quinny","genre":null,"price":"$15.00","supports":["Tom Dickins"],"ticketUrl":null,"time":" 8:30pm"}],"vName":"The Fitzroy Pinnacle"},"type":"Feature"},{"geometry":{"coordinates":[144.9708437,-37.7973184],"type":"Point"},"properties":{"events":[{"categories":["Free","Music","Comedy"],"eDate":"2025-07-24","eName":"The ‘WHAM, BAM, THANK YOU’ Jam","genre":"Jazz","price":"Free","supports":[],"ticketUrl":null,"time":" 7:30pm"}],"vName":"The Motley Bauhaus"},"type":"Feature"},{"geometry":{"coordinates":[144.9984324,-37.7729134],"type":"Point"},"properties":{"events":[{"categories":["Music"],"eDate":"2025-07-24","eName":"Georgia Lines","genre":"Indie","price":"$29.90","supports":[],"ticketUrl":null,"time":" 7pm"}],"vName":"Wesley Anne"},"type":"Feature"}],"type":"FeatureCollection"}