{"features":[{"geometry":{"coordinates":[144.9607158,-37.776327],"type":"Point"},"properties":{"events":[{"categories":["Music"],"eDate":"2026-03-21","eName":"RACH: ‘Colourless Days’ EP Launch","genre":null,"price":"$15.00","supports":["Grevillea Hedge"," Darcy Forever"],"ticketUrl":null,"time":" 1:30pm"}],"vName":"Bergy Bandroom"},"type":"Feature"},{"geometry":{"coordinates":[144.9617439,-37.7713516],"type":"Point"},"properties":{"events":[{"categories":["Comedy","Other \"Cabaret\""],"eDate":"2026-03-21","eName":"It’s Camp Drag Show","genre":null,"price":"$20.00","supports":[],"ticketUrl":null,"time":" 8pm"}],"vName":"Brunswick Mechanics Institute"},"type":"Feature"},{"geometry":{"coordinates":[145.0004166,-37.7612582],"type":"Point"},"properties":{"events":[{"categories":["Music"],"eDate":"2026-03-21","eName":"Plaster of Paris","genre":"Rock","price":"$16.75","supports":["Terrible Muriel"," Babysitter"],"ticketUrl":null,"time":" 8pm"}],"vName":"Cactus Room"},"type":"Feature"},{"geometry":{"coordinates":[144.9627513,-37.760963],"type":"Point"},"properties":{"events":[{"categories":["Music"],"eDate":"2026-03-21","eName":"Laneous Duo","genre":"Jazz","price":"Free","supports":[],"ticketUrl":null,"time":" 8pm"}],"vName":"Edinburgh Castle Hotel"},"type":"Feature"},{"geometry":{"coordinates":[145.0314658,-37.8067273],"type":"Point"},"properties":{"events":[{"categories":["Music"],"eDate":"2026-03-21","eName":"Matt Joe Gow","genre":null,"price":"$35.00","supports":[],"ticketUrl":null,"time":" 3:30pm"}],"vName":"Kew Court House"},"type":"Feature"},{"geometry":{"coordinates":[144.8984802,-37.8111559],"type":"Point"},"properties":{"events":[{"categories":["Music"],"eDate":"2026-03-21","eName":"ANDREW MCSWEENEY and the Wishing Horse","genre":null,"price":"$27.00","supports":["Josh Aitken"],"ticketUrl":null,"time":" 2pm"}],"vName":"Kindred Bandroom"},"type":"Feature"},{"geometry":{"coordinates":[144.9675876,-37.8240849],"type":"Point"},"properties":{"events":[{"categories":["Music"],"eDate":"2026-03-21","eName":"The Poetry of Piano Duo","genre":"Acoustic","price":"$62.00","supports":[],"ticketUrl":null,"time":" 2:30pm"},{"categories":["Music"],"eDate":"2026-03-21","eName":"Chopin Piano Recital","genre":"Classical","price":"$68.00","supports":[],"ticketUrl":null,"time":" 6pm"},{"categories":["Music"],"eDate":"2026-03-21","eName":"Veteran Performing Artist Showcase","genre":"Acoustic","price":"$32.00","supports":[],"ticketUrl":null,"time":" 7pm"}],"vName":"Melbourne Recital Centre"},"type":"Feature"},{"geometry":{"coordinates":[144.9879283,-37.7505509],"type":"Point"},"properties":{"events":[{"categories":["Music"],"eDate":"2026-03-21","eName":"Zeitgeist Riders","genre":"Acoustic","price":"Free","supports":[],"ticketUrl":null,"time":" 7pm"}],"vName":"The Merri Bar"},"type":"Feature"},{"geometry":{"coordinates":[144.9794553,-37.7982653],"type":"Point"},"properties":{"events":[{"categories":["Music"],"eDate":"2026-03-21","eName":"Vaudeville Smash: The Gift (10 Year Anniversary Show)","genre":"Soul/Funk","price":"$24.39","supports":[],"ticketUrl":null,"time":" 7:30pm"}],"vName":"The Night Cat"},"type":"Feature"},{"geometry":{"coordinates":[144.9870814,-37.799406],"type":"Point"},"properties":{"events":[{"categories":["Music"],"eDate":"2026-03-21","eName":"MOLER","genre":"Rock","price":"$25.00","supports":["Spitting Chips"," Penny Ikinger"],"ticketUrl":null,"time":" 7:30pm"}],"vName":"The Tote Hotel"},"type":"Feature"},{"geometry":{"coordinates":[144.9984324,-37.7729134],"type":"Point"},"properties":{"events":[{"categories":["Music"],"eDate":"2026-03-21","eName":"Front Porch","genre":"Jazz","price":"Free","supports":[],"ticketUrl":null,"time":" 6pm"},{"categories":["Music"],"eDate":"2026-03-21","eName":"Henry Wagons","genre":"Country/Folk","price":"Free","supports":[],"ticketUrl":null,"time":" 8pm"}],"vName":"Wesley Anne"},"type":"Feature"}],"type":"FeatureCollection"}