{"features":[{"geometry":{"coordinates":[144.9982812,-37.7713296],"type":"Point"},"properties":{"events":[{"categories":["Music"],"eDate":"2026-05-30","eName":"Fuá da Tita","genre":"Jazz","price":"Free","supports":[],"ticketUrl":null,"time":" 5:30pm"},{"categories":["Free","Music"],"eDate":"2026-05-30","eName":"HOMEBASS","genre":"Electronic","price":"Free","supports":[],"ticketUrl":null,"time":" 8pm"}],"vName":"Bar 303"},"type":"Feature"},{"geometry":{"coordinates":[144.978682,-37.7981225],"type":"Point"},"properties":{"events":[{"categories":["Free","Music"],"eDate":"2026-05-30","eName":"Woody Samson","genre":null,"price":"Free","supports":[],"ticketUrl":null,"time":" 9pm"}],"vName":"Baxter's Lot"},"type":"Feature"},{"geometry":{"coordinates":[144.9891167,-37.7996488],"type":"Point"},"properties":{"events":[{"categories":["Music"],"eDate":"2026-05-30","eName":"BIG Melbourne 2026","genre":"Metal","price":"$49.96","supports":["Cutthroat"," Algor Mortis"," Post Heaven"," Tumour"," Splinter"," Peace Ritual"," Resident"," Chrome Cage"," Concrete Bomb"," Blinder"],"ticketUrl":null,"time":" 1pm"},{"categories":["Music"],"eDate":"2026-05-30","eName":"Bone Reaper","genre":"Metal","price":"$17.35","supports":["Black Jesus"," Circle Of Blood"," Inscryptions"],"ticketUrl":null,"time":" 8:30pm"}],"vName":"Bendigo Hotel"},"type":"Feature"},{"geometry":{"coordinates":[144.9607158,-37.776327],"type":"Point"},"properties":{"events":[{"categories":["Music"],"eDate":"2026-05-30","eName":"Rance Lazarus","genre":"Indie","price":"$28.05","supports":["Mister Co."," Ambraya"],"ticketUrl":null,"time":" 7pm"}],"vName":"Bergy Bandroom"},"type":"Feature"},{"geometry":{"coordinates":[144.9568039,-37.8111442],"type":"Point"},"properties":{"events":[{"categories":["Music"],"eDate":"2026-05-30","eName":"An Evening with Andrew De Silva","genre":"R&B","price":"$40.00","supports":[],"ticketUrl":null,"time":" 6pm"}],"vName":"Bird's Basement"},"type":"Feature"},{"geometry":{"coordinates":[144.9617083,-37.7704205],"type":"Point"},"properties":{"events":[{"categories":["Music"],"eDate":"2026-05-30","eName":"Melbourne Soul Weekender","genre":"Soul/Funk","price":"$29.58","supports":[],"ticketUrl":null,"time":" 8pm"}],"vName":"Brunswick Ballroom"},"type":"Feature"},{"geometry":{"coordinates":[145.0004166,-37.7612582],"type":"Point"},"properties":{"events":[{"categories":["Free","Music"],"eDate":"2026-05-30","eName":"Local Labels: Cheersquad Records","genre":null,"price":"Free","supports":["Davey Lane"," Grace Mitchell"],"ticketUrl":null,"time":" 2pm"}],"vName":"Cactus Room"},"type":"Feature"},{"geometry":{"coordinates":[144.9248037,-37.7656716],"type":"Point"},"properties":{"events":[{"categories":["Festival"],"eDate":"2026-05-30","eName":"WNBF Macrofactor National Championships","genre":null,"price":"$55.00","supports":[],"ticketUrl":null,"time":"10am"}],"vName":"Clocktower Centre"},"type":"Feature"},{"geometry":{"coordinates":[144.9926664,-37.8248893],"type":"Point"},"properties":{"events":[{"categories":["Music"],"eDate":"2026-05-30","eName":"Tortoise","genre":"Rock","price":"$92.50","supports":[],"ticketUrl":null,"time":" 8pm"}],"vName":"Corner Hotel"},"type":"Feature"},{"geometry":{"coordinates":[144.9627513,-37.760963],"type":"Point"},"properties":{"events":[{"categories":["Music"],"eDate":"2026-05-30","eName":"Youthless","genre":"Jazz","price":"Free","supports":[],"ticketUrl":null,"time":" 8pm"}],"vName":"Edinburgh Castle Hotel"},"type":"Feature"},{"geometry":{"coordinates":[144.9489214,-37.8106039],"type":"Point"},"properties":{"events":[{"categories":["Music"],"eDate":"2026-05-30","eName":"Lil’ Kim","genre":"Hip Hop","price":"Free","supports":[],"ticketUrl":null,"time":" 7:30pm"}],"vName":"Festival Hall"},"type":"Feature"},{"geometry":{"coordinates":[144.9787378,-37.7954205],"type":"Point"},"properties":{"events":[{"categories":["Music"],"eDate":"2026-05-30","eName":"Sassafrass: DJ Luv You + Jo Christy","genre":"Electronic","price":"$0.00 - 30.00","supports":[],"ticketUrl":null,"time":" 9pm"}],"vName":"Glamorama"},"type":"Feature"},{"geometry":{"coordinates":[144.9679835,-37.8201575],"type":"Point"},"properties":{"events":[{"categories":["Music"],"eDate":"2026-05-30","eName":"Jaime conducts Dvořák, Smetana & Coll (Matinee)","genre":"Classical","price":"$20.00 - 139.00","supports":[],"ticketUrl":null,"time":" 2pm"}],"vName":"Hamer Hall (Arts Centre Melbourne)"},"type":"Feature"},{"geometry":{"coordinates":[144.973013,-37.8640582],"type":"Point"},"properties":{"events":[{"categories":["Music"],"eDate":"2026-05-30","eName":"St. Kild ‘N’ Doom: MEGALOMANIA – The Australian Black Sabbath Tribute Show","genre":"Metal","price":"$22.95","supports":["Rawtism"," Emperor Moth"],"ticketUrl":null,"time":" 7:30pm"}],"vName":"Hotel Esplanade (aka The Espy)"},"type":"Feature"},{"geometry":{"coordinates":[144.9596527,-37.7720304],"type":"Point"},"properties":{"events":[{"categories":["Music"],"eDate":"2026-05-30","eName":"aleksiah","genre":"Pop","price":"Free","supports":[],"ticketUrl":null,"time":" 8pm"}],"vName":"Howler"},"type":"Feature"},{"geometry":{"coordinates":[145.0008148,-37.8107158],"type":"Point"},"properties":{"events":[{"categories":["Music"],"eDate":"2026-05-30","eName":"Select All","genre":"Rock","price":"$17.85","supports":["Macëy"," Astrofuzz"," Lab Rat"," Mailey"],"ticketUrl":null,"time":" 7pm"}],"vName":"Leadbeater Hotel"},"type":"Feature"},{"geometry":{"coordinates":[144.9675876,-37.8240849],"type":"Point"},"properties":{"events":[{"categories":["Free","Music"],"eDate":"2026-05-30","eName":"2026 Baroque Competition","genre":"Classical","price":"Free","supports":[],"ticketUrl":null,"time":" 3pm"},{"categories":["Free","Music"],"eDate":"2026-05-30","eName":"2026 Baroque Competition","genre":"Classical","price":"Free","supports":[],"ticketUrl":null,"time":" 3pm"}],"vName":"Melbourne Recital Centre"},"type":"Feature"},{"geometry":{"coordinates":[144.9982706,-37.7737068],"type":"Point"},"properties":{"events":[{"categories":["Music"],"eDate":"2026-05-30","eName":"Ned Bennett","genre":"Electronic","price":"$47.12","supports":[],"ticketUrl":null,"time":" 7:30pm"}],"vName":"Northcote Theatre"},"type":"Feature"},{"geometry":{"coordinates":[144.9615882,-37.7711432],"type":"Point"},"properties":{"events":[{"categories":["Music"],"eDate":"2026-05-30","eName":"The Violet Summers","genre":"Indie","price":"Free","supports":[],"ticketUrl":null,"time":" 2pm"},{"categories":["Music"],"eDate":"2026-05-30","eName":"Jib","genre":null,"price":"$17.95","supports":["Kite Vendor"," Refugia"],"ticketUrl":null,"time":" 7:30pm"}],"vName":"Retreat Hotel"},"type":"Feature"},{"geometry":{"coordinates":[145.0013923,-37.7559265],"type":"Point"},"properties":{"events":[{"categories":["Music"],"eDate":"2026-05-30","eName":"Possible Humans + Metho","genre":"Rock","price":"$23.80","supports":["Craning"," Alx GoSlow"," Burakashi"],"ticketUrl":null,"time":" 7:30pm"}],"vName":"Shotkickers"},"type":"Feature"},{"geometry":{"coordinates":[144.9607404,-37.7743469],"type":"Point"},"properties":{"events":[{"categories":["Music"],"eDate":"2026-05-30","eName":"Heists","genre":"Metal","price":"$28.60","supports":["Bad Juju"," Liar"," SOULSLEEP"],"ticketUrl":null,"time":" 7pm"},{"categories":["Music"],"eDate":"2026-05-30","eName":"Heavy Medicine","genre":"Blues","price":"$15.43","supports":[],"ticketUrl":null,"time":" 8pm"},{"categories":["Music"],"eDate":"2026-05-30","eName":"Taking Back Saturday","genre":"Punk","price":"$16.85 - 23.50","supports":[],"ticketUrl":null,"time":"11pm"}],"vName":"Stay Gold"},"type":"Feature"},{"geometry":{"coordinates":[144.9708437,-37.7973184],"type":"Point"},"properties":{"events":[{"categories":["Free","Music","Comedy"],"eDate":"2026-05-30","eName":"Wham Bam, Thank You Jam","genre":"Rock","price":"Free","supports":[],"ticketUrl":null,"time":" 9pm"}],"vName":"The Motley Bauhaus"},"type":"Feature"},{"geometry":{"coordinates":[144.9794553,-37.7982653],"type":"Point"},"properties":{"events":[{"categories":["Music"],"eDate":"2026-05-30","eName":"Cash Savage & The Last Drinks","genre":"Indie","price":"$60.00","supports":[],"ticketUrl":null,"time":" 7:30pm"}],"vName":"The Night Cat"},"type":"Feature"},{"geometry":{"coordinates":[144.9998797,-37.7616512],"type":"Point"},"properties":{"events":[{"categories":["Music"],"eDate":"2026-05-30","eName":"Regenmoor","genre":"Rock","price":"Free","supports":["The Snake Preachers"," Trash & The Treasures"],"ticketUrl":null,"time":" 8pm"}],"vName":"The Thornbury Local"},"type":"Feature"},{"geometry":{"coordinates":[144.9651425,-37.8119429],"type":"Point"},"properties":{"events":[{"categories":["Music"],"eDate":"2026-05-30","eName":"CURIO.AM","genre":"Electronic","price":"$17.34 - 28.56","supports":[],"ticketUrl":null,"time":"11pm"},{"categories":["Music"],"eDate":"2026-05-30","eName":"Curio Collective presents CURIO.AM","genre":null,"price":"Free","supports":[],"ticketUrl":null,"time":"11pm"}],"vName":"The Toff In Town"},"type":"Feature"},{"geometry":{"coordinates":[144.9769451,-37.8055776],"type":"Point"},"properties":{"events":[{"categories":["Music"],"eDate":"2026-05-30","eName":"Crazy Nights","genre":"Rock","price":"$20.00","supports":["Riot Act"," The Flash Bastard Experience"],"ticketUrl":null,"time":" 7:30pm"}],"vName":"The Workers Club"},"type":"Feature"},{"geometry":{"coordinates":[144.9984324,-37.7729134],"type":"Point"},"properties":{"events":[{"categories":["Music"],"eDate":"2026-05-30","eName":"ACBC (Boris Connolley)","genre":"Jazz","price":"Free","supports":[],"ticketUrl":null,"time":" 6pm"}],"vName":"Wesley Anne"},"type":"Feature"}],"type":"FeatureCollection"}