{"features":[{"geometry":{"coordinates":[144.978682,-37.7981225],"type":"Point"},"properties":{"events":[{"categories":["Music","Free"],"eDate":"2025-12-07","eName":"Baxter’s Open Mic","genre":null,"price":"Free","supports":[],"ticketUrl":null,"time":" 6pm"},{"categories":["Music","Free"],"eDate":"2025-12-07","eName":"Tejo D’Cruz","genre":null,"price":"Free","supports":[],"ticketUrl":null,"time":" 9pm"}],"vName":"Baxter's Lot"},"type":"Feature"},{"geometry":{"coordinates":[144.9720318,-37.8656234],"type":"Point"},"properties":{"events":[{"categories":["Other \"Food \"","Music"],"eDate":"2025-12-07","eName":"Baxter Sunseeker","genre":"Acoustic","price":"Free","supports":[],"ticketUrl":null,"time":"12pm"}],"vName":"Captain Baxter"},"type":"Feature"},{"geometry":{"coordinates":[145.0031046,-37.88397],"type":"Point"},"properties":{"events":[{"categories":["Music"],"eDate":"2025-12-07","eName":"Arandú","genre":null,"price":"$30.00","supports":["Alethia"],"ticketUrl":null,"time":" 2pm"}],"vName":"Caulfield RSL"},"type":"Feature"},{"geometry":{"coordinates":[144.9875792,-37.7963739],"type":"Point"},"properties":{"events":[{"categories":["Music"],"eDate":"2025-12-07","eName":"The Brakes + Mack & Cook","genre":null,"price":"$13.00","supports":[],"ticketUrl":null,"time":" 3:45pm"}],"vName":"Gem Bar"},"type":"Feature"},{"geometry":{"coordinates":[144.8984802,-37.8111559],"type":"Point"},"properties":{"events":[{"categories":["Music"],"eDate":"2025-12-07","eName":"Atomic: The Songs Of Blondie","genre":"Rock","price":"$38.66","supports":[],"ticketUrl":null,"time":" 2pm"}],"vName":"Kindred Bandroom"},"type":"Feature"},{"geometry":{"coordinates":[144.9936498,-37.8000264],"type":"Point"},"properties":{"events":[{"categories":["Music"],"eDate":"2025-12-07","eName":"Blue Sabbath","genre":"Rock","price":"Free","supports":[],"ticketUrl":null,"time":" 5pm"}],"vName":"Lulie Tavern"},"type":"Feature"},{"geometry":{"coordinates":[144.8997171,-37.8004117],"type":"Point"},"properties":{"events":[{"categories":["Free","Music"],"eDate":"2025-12-07","eName":"Freestyle Hip-Hop","genre":"Hip Hop","price":"Free","supports":[],"ticketUrl":null,"time":" 6pm"}],"vName":"Misfits"},"type":"Feature"},{"geometry":{"coordinates":[144.9615882,-37.7711432],"type":"Point"},"properties":{"events":[{"categories":["Free","Music"],"eDate":"2025-12-07","eName":"Charlie Lane & Ruby Mae Acoustic Sessions","genre":"Blues","price":"Free","supports":[],"ticketUrl":null,"time":" 2pm"}],"vName":"Retreat Hotel"},"type":"Feature"},{"geometry":{"coordinates":[144.9879283,-37.7505509],"type":"Point"},"properties":{"events":[{"categories":["Music"],"eDate":"2025-12-07","eName":"Mark Easton","genre":"Acoustic","price":"Free","supports":[],"ticketUrl":null,"time":" 4pm"}],"vName":"The Merri Bar"},"type":"Feature"},{"geometry":{"coordinates":[144.9920349,-37.8074016],"type":"Point"},"properties":{"events":[{"categories":["Music"],"eDate":"2025-12-07","eName":"Christine Manetta","genre":"Blues","price":"Free","supports":[],"ticketUrl":null,"time":" 7pm"}],"vName":"The Yorkshire Stingo Hotel"},"type":"Feature"},{"geometry":{"coordinates":[144.9984324,-37.7729134],"type":"Point"},"properties":{"events":[{"categories":["Music"],"eDate":"2025-12-07","eName":"Rosario De Marco","genre":"Acoustic","price":"Free","supports":[],"ticketUrl":null,"time":" 6pm"}],"vName":"Wesley Anne"},"type":"Feature"}],"type":"FeatureCollection"}