{"features":[{"geometry":{"coordinates":[144.978682,-37.7981225],"type":"Point"},"properties":{"events":[{"categories":["Free","Music"],"eDate":"2026-05-01","eName":"Xander Cuming","genre":null,"price":"Free","supports":[],"ticketUrl":null,"time":" 9pm"},{"categories":["Free","Music"],"eDate":"2026-05-01","eName":"Lewis Ciavarella","genre":null,"price":"Free","supports":[],"ticketUrl":null,"time":" 9pm"}],"vName":"Baxter's Lot"},"type":"Feature"},{"geometry":{"coordinates":[144.9568039,-37.8111442],"type":"Point"},"properties":{"events":[{"categories":["Music"],"eDate":"2026-05-01","eName":"The Australian Blondie Tribute Show","genre":"Rock","price":"$39.00","supports":[],"ticketUrl":null,"time":" 6pm"}],"vName":"Bird's Basement"},"type":"Feature"},{"geometry":{"coordinates":[144.9617083,-37.7704205],"type":"Point"},"properties":{"events":[{"categories":["Free","Music"],"eDate":"2026-05-01","eName":"Poppy Carmelle","genre":"Indie","price":"Free","supports":["Lini"," Celia & Jamie"],"ticketUrl":null,"time":" 8:30pm"}],"vName":"Brunswick Artists' Bar"},"type":"Feature"},{"geometry":{"coordinates":[145.0004166,-37.7612582],"type":"Point"},"properties":{"events":[{"categories":["Free","Music"],"eDate":"2026-05-01","eName":"RIP MTV Party","genre":null,"price":"Free","supports":["jenirationX"," Tristan Trashcan"],"ticketUrl":null,"time":" 7pm"}],"vName":"Cactus Room"},"type":"Feature"},{"geometry":{"coordinates":[145.0002585,-37.7592368],"type":"Point"},"properties":{"events":[{"categories":["Music"],"eDate":"2026-05-01","eName":"Workfriend","genre":"Indie","price":"$10.00","supports":["Winnie Trappett"," Harness"],"ticketUrl":null,"time":" 8pm"}],"vName":"Cafe Gummo"},"type":"Feature"},{"geometry":{"coordinates":[144.9713425,-37.8128595],"type":"Point"},"properties":{"events":[{"categories":["Music"],"eDate":"2026-05-01","eName":"The Sharp","genre":"Rock","price":"$15.43","supports":["Assassins"," House of El"],"ticketUrl":null,"time":" 8pm"},{"categories":["Free","Music"],"eDate":"2026-05-01","eName":"PHASE: Emo / Nu Metal Party","genre":"Punk","price":"Free","supports":[],"ticketUrl":null,"time":"11pm"}],"vName":"Cherry Bar"},"type":"Feature"},{"geometry":{"coordinates":[144.9627513,-37.760963],"type":"Point"},"properties":{"events":[{"categories":["Music"],"eDate":"2026-05-01","eName":"Basement Spaceman","genre":"Indie","price":"Free","supports":[],"ticketUrl":null,"time":" 8pm"}],"vName":"Edinburgh Castle Hotel"},"type":"Feature"},{"geometry":{"coordinates":[145.1232659,-38.1461351],"type":"Point"},"properties":{"events":[{"categories":["Music"],"eDate":"2026-05-01","eName":"Beethoven, Mozart & more","genre":"Classical","price":"$20.00 - 127.00","supports":[],"ticketUrl":null,"time":" 7:30pm"}],"vName":"Frankston Arts Centre"},"type":"Feature"},{"geometry":{"coordinates":[144.9596527,-37.7720304],"type":"Point"},"properties":{"events":[{"categories":["Music"],"eDate":"2026-05-01","eName":"Willowbank Grove","genre":"Rock","price":"$21.42 - 28.56","supports":["Daezy"," Five Buck Kid"],"ticketUrl":null,"time":" 8pm"}],"vName":"Howler"},"type":"Feature"},{"geometry":{"coordinates":[145.0008148,-37.8107158],"type":"Point"},"properties":{"events":[{"categories":["Music"],"eDate":"2026-05-01","eName":"Dizzy Wright","genre":"Hip Hop","price":"$59.90","supports":["Martian"," Matthew Craig"],"ticketUrl":null,"time":" 8pm"}],"vName":"Leadbeater Hotel"},"type":"Feature"},{"geometry":{"coordinates":[144.8997171,-37.8004117],"type":"Point"},"properties":{"events":[{"categories":["Music"],"eDate":"2026-05-01","eName":"ESP LTD: Jael","genre":"Electronic","price":"$27.40 - 40.00","supports":["JPS"],"ticketUrl":null,"time":" 5pm"}],"vName":"Misfits"},"type":"Feature"},{"geometry":{"coordinates":[144.998414,-37.771471],"type":"Point"},"properties":{"events":[{"categories":["Music"],"eDate":"2026-05-01","eName":"Katy Steele","genre":"Indie","price":"$50.00","supports":["Queenie"],"ticketUrl":null,"time":" 8:30pm"}],"vName":"Northcote Social Club"},"type":"Feature"},{"geometry":{"coordinates":[144.97711,-37.79833],"type":"Point"},"properties":{"events":[{"categories":["Music"],"eDate":"2026-05-01","eName":"DJ Ben Emes","genre":"Electronic","price":"Free","supports":[],"ticketUrl":null,"time":"12:05am"},{"categories":["Music"],"eDate":"2026-05-01","eName":"The Gruntled","genre":"Rock","price":"$11.25","supports":["Star/Time"," Trappist Afterland"],"ticketUrl":null,"time":" 8pm"},{"categories":["Music"],"eDate":"2026-05-01","eName":"DJ Gracie","genre":"Electronic","price":"Free","supports":[],"ticketUrl":null,"time":"11:30pm"}],"vName":"Old Bar"},"type":"Feature"},{"geometry":{"coordinates":[144.96084,-37.813514],"type":"Point"},"properties":{"events":[{"categories":["Music"],"eDate":"2026-05-01","eName":"Joys Njambi Presents: “Queens of Soul”","genre":"Soul/Funk","price":"$45.00","supports":[],"ticketUrl":null,"time":" 6pm"},{"categories":["Music"],"eDate":"2026-05-01","eName":"It’s Always Chet: An Evening with Gabriel Lynch","genre":"Jazz","price":"$45.00","supports":[],"ticketUrl":null,"time":" 6:30pm"},{"categories":["Music"],"eDate":"2026-05-01","eName":"Joys Njambi Presents: “Queens of Soul”","genre":"Soul/Funk","price":"$45.00","supports":[],"ticketUrl":null,"time":" 9pm"},{"categories":["Music"],"eDate":"2026-05-01","eName":"The Musical Evolution of Miles Davis","genre":"Jazz","price":"$45.00","supports":[],"ticketUrl":null,"time":" 9:30pm"}],"vName":"Paris Cat Jazz Club"},"type":"Feature"},{"geometry":{"coordinates":[144.9607404,-37.7743469],"type":"Point"},"properties":{"events":[{"categories":["Music"],"eDate":"2026-05-01","eName":"Access Granted 4","genre":"Electronic","price":"$58.25","supports":[],"ticketUrl":null,"time":" 7pm"}],"vName":"Stay Gold"},"type":"Feature"},{"geometry":{"coordinates":[145.0986525,-37.7608327],"type":"Point"},"properties":{"events":[{"categories":["Music","Other \"Film\""],"eDate":"2026-05-01","eName":"Grass: A Nation’s Battle for Life with ZÖJ","genre":null,"price":"$49.50","supports":[],"ticketUrl":null,"time":" 7pm"}],"vName":"The Capitol (RMIT)"},"type":"Feature"},{"geometry":{"coordinates":[144.9655277,-37.7344052],"type":"Point"},"properties":{"events":[{"categories":["Music"],"eDate":"2026-05-01","eName":"Four Eyed Frog","genre":null,"price":"$10.00","supports":["Eveya"," Riot Act"],"ticketUrl":null,"time":" 6:30pm"}],"vName":"The Graveyard Bar"},"type":"Feature"},{"geometry":{"coordinates":[144.9708437,-37.7973184],"type":"Point"},"properties":{"events":[{"categories":["Comedy"],"eDate":"2026-05-01","eName":"The Big HOO-HAA!","genre":null,"price":"$30.00","supports":[],"ticketUrl":null,"time":" 8:30pm"}],"vName":"The Motley Bauhaus"},"type":"Feature"},{"geometry":{"coordinates":[144.9794553,-37.7982653],"type":"Point"},"properties":{"events":[{"categories":["Music"],"eDate":"2026-05-01","eName":"WAAX","genre":"Rock","price":"$57.02","supports":[],"ticketUrl":null,"time":" 7:30pm"}],"vName":"The Night Cat"},"type":"Feature"},{"geometry":{"coordinates":[144.9651425,-37.8119429],"type":"Point"},"properties":{"events":[{"categories":["Other \"Cabaret\""],"eDate":"2026-05-01","eName":"The Melbourne Festival of Tease: The Sip Club","genre":null,"price":"$47.94 - 70.38","supports":[],"ticketUrl":null,"time":" 7pm"},{"categories":["Other \"Cabaret\""],"eDate":"2026-05-01","eName":"The Melbourne Festival of Tease: The Late Night Grind…House","genre":null,"price":"$47.94 - 70.38","supports":[],"ticketUrl":null,"time":" 9:30pm"}],"vName":"The Toff In Town"},"type":"Feature"}],"type":"FeatureCollection"}