{"features":[{"geometry":{"coordinates":[144.99828116650363,-37.7713296],"type":"Point"},"properties":{"events":[{"categories":["Music"],"eDate":"2025-03-13","eName":"Anomaly + Afterimages","genre":"Rock","price":"$10.00","supports":[],"ticketUrl":null,"time":" 8pm"}],"vName":"Bar 303"},"type":"Feature"},{"geometry":{"coordinates":[144.978425,-37.79773],"type":"Point"},"properties":{"events":[{"categories":["Free","Music"],"eDate":"2025-03-13","eName":"Edward York","genre":"Jazz","price":"Free","supports":[],"ticketUrl":null,"time":" 6:30pm"},{"categories":["Other \"Spoken Word\"","Other \"Poetry & Forums\""],"eDate":"2025-03-13","eName":"Bad Flâneur","genre":null,"price":"$9.00","supports":[],"ticketUrl":null,"time":" 7pm"}],"vName":"Bar Open"},"type":"Feature"},{"geometry":{"coordinates":[144.978682,-37.7981225],"type":"Point"},"properties":{"events":[{"categories":["Free","Music"],"eDate":"2025-03-13","eName":"Tejo D'Cruz","genre":null,"price":"Free","supports":[],"ticketUrl":null,"time":" 9pm"}],"vName":"Baxter's Lot"},"type":"Feature"},{"geometry":{"coordinates":[144.9567859,-37.8111049],"type":"Point"},"properties":{"events":[{"categories":["Music"],"eDate":"2025-03-13","eName":"Mahalia Barnes","genre":"Soul/Funk","price":"$40.00","supports":[],"ticketUrl":null,"time":" 6pm"}],"vName":"Bird's Basement"},"type":"Feature"},{"geometry":{"coordinates":[144.9617018,-37.7704566],"type":"Point"},"properties":{"events":[{"categories":["Music"],"eDate":"2025-03-13","eName":"Ruthie Foster Heartshine Australian Tour 2025","genre":"Blues","price":"$80.63","supports":[],"ticketUrl":null,"time":" 6pm"},{"categories":["Music"],"eDate":"2025-03-13","eName":"Ruthie Foster","genre":"Blues","price":"$80.63","supports":[],"ticketUrl":null,"time":" 8pm"}],"vName":"Brunswick Ballroom"},"type":"Feature"},{"geometry":{"coordinates":[144.99266639479475,-37.82488935],"type":"Point"},"properties":{"events":[{"categories":["Music"],"eDate":"2025-03-13","eName":"Redferrin","genre":"Indie","price":"$64.90","supports":["Bella Mackenzie"],"ticketUrl":null,"time":" 7:30pm"}],"vName":"Corner Hotel"},"type":"Feature"},{"geometry":{"coordinates":[144.9679835243618,-37.8201575],"type":"Point"},"properties":{"events":[{"categories":["Music"],"eDate":"2025-03-13","eName":"Brahms & Tchaikovsky","genre":"Classical","price":"$45.00 - 100.00","supports":[],"ticketUrl":null,"time":" 7:30pm"},{"categories":["Music"],"eDate":"2025-03-13","eName":"Goran Bregovic & His Wedding & Funeral Band","genre":"Classical","price":"$79.00","supports":[],"ticketUrl":null,"time":" 8pm"}],"vName":"Hamer Hall (Arts Centre Melbourne)"},"type":"Feature"},{"geometry":{"coordinates":[144.973013,-37.8640582],"type":"Point"},"properties":{"events":[{"categories":["Music"],"eDate":"2025-03-13","eName":"David McCredie","genre":"Indie","price":"$29.60","supports":["Rhys Coventry"],"ticketUrl":null,"time":" 7pm"}],"vName":"Hotel Esplanade (aka The Espy)"},"type":"Feature"},{"geometry":{"coordinates":[144.9596527,-37.7720304],"type":"Point"},"properties":{"events":[{"categories":["Music"],"eDate":"2025-03-13","eName":"Nai Palm","genre":"Jazz","price":"$52.30","supports":[],"ticketUrl":null,"time":" 7:30pm"}],"vName":"Howler"},"type":"Feature"},{"geometry":{"coordinates":[144.8971518,-37.8054274],"type":"Point"},"properties":{"events":[{"categories":["Music"],"eDate":"2025-03-13","eName":"Birdgirl","genre":null,"price":"$10.00 - 15.00","supports":["Max Aurora"," Lex Langton"],"ticketUrl":null,"time":" 7pm"}],"vName":"Mamma Chen's"},"type":"Feature"},{"geometry":{"coordinates":[144.9712356,-37.812902],"type":"Point"},"properties":{"events":[{"categories":["Comedy"],"eDate":"2025-03-13","eName":"RAW Comedy: Semi Final #2","genre":null,"price":"$20.00","supports":[],"ticketUrl":null,"time":" 7pm"}],"vName":"Morris House"},"type":"Feature"},{"geometry":{"coordinates":[144.998414,-37.771471],"type":"Point"},"properties":{"events":[{"categories":["Music"],"eDate":"2025-03-13","eName":"Otomo Yoshihide","genre":"Jazz","price":"$36.00","supports":["Tomomi Adachi & Noise Scavengers"," Uminari Trio"],"ticketUrl":null,"time":" 7:30pm"}],"vName":"Northcote Social Club"},"type":"Feature"},{"geometry":{"coordinates":[144.97711,-37.79833],"type":"Point"},"properties":{"events":[{"categories":["Music"],"eDate":"2025-03-13","eName":"Dear Judy","genre":"Rock","price":"$11.25","supports":["Greg Allan"," Charlotte Bridie"],"ticketUrl":null,"time":" 7:30pm"}],"vName":"Old Bar"},"type":"Feature"},{"geometry":{"coordinates":[144.9605705,-37.8132486],"type":"Point"},"properties":{"events":[{"categories":["Music"],"eDate":"2025-03-13","eName":"Nina Ferro & The Gold Standard","genre":"Jazz","price":"$45.00","supports":[],"ticketUrl":null,"time":" 7:30pm"},{"categories":["Music"],"eDate":"2025-03-13","eName":"Nathan Slater Quartet","genre":"Jazz","price":"$40.00","supports":[],"ticketUrl":null,"time":" 8pm"}],"vName":"Paris Cat Jazz Club"},"type":"Feature"},{"geometry":{"coordinates":[145.0142411,-37.7310367],"type":"Point"},"properties":{"events":[{"categories":["Free","Music"],"eDate":"2025-03-13","eName":"Open Mic @ Ragtime Tavern","genre":"Acoustic","price":"Free","supports":[],"ticketUrl":null,"time":" 7pm"}],"vName":"Ragtime Tavern"},"type":"Feature"},{"geometry":{"coordinates":[144.9615882,-37.7711432],"type":"Point"},"properties":{"events":[{"categories":["Free","Music"],"eDate":"2025-03-13","eName":"Shelly’s Motor Club","genre":"Rock","price":"Free","supports":["Insufficient Funds"," The Rayes"],"ticketUrl":null,"time":" 7pm"}],"vName":"Retreat Hotel"},"type":"Feature"},{"geometry":{"coordinates":[144.9746525926778,-37.823819181966286],"type":"Point"},"properties":{"events":[{"categories":["Music"],"eDate":"2025-03-13","eName":"NIKI","genre":null,"price":"$91.50","supports":[],"ticketUrl":null,"time":" 7pm"}],"vName":"Sidney Myer Music Bowl"},"type":"Feature"},{"geometry":{"coordinates":[144.9607404,-37.7743469],"type":"Point"},"properties":{"events":[{"categories":["Music"],"eDate":"2025-03-13","eName":"YOOF","genre":"Soul/Funk","price":"$17.48","supports":["Big Cat"," The Whyb Project"],"ticketUrl":null,"time":" 7pm"}],"vName":"Stay Gold"},"type":"Feature"},{"geometry":{"coordinates":[144.9706095,-37.7783326],"type":"Point"},"properties":{"events":[{"categories":["Free","Music"],"eDate":"2025-03-13","eName":"Paper Jane","genre":"Country/Folk","price":"Free","supports":["Ben Smith"],"ticketUrl":null,"time":" 8:30pm"}],"vName":"The Beast"},"type":"Feature"},{"geometry":{"coordinates":[144.958676,-37.7669571],"type":"Point"},"properties":{"events":[{"categories":["Music"],"eDate":"2025-03-13","eName":"Yunior Terry’s Undercurrents","genre":"Jazz","price":"$25.00 - 30.00","supports":[],"ticketUrl":null,"time":" 7:30pm"}],"vName":"The Jazzlab"},"type":"Feature"},{"geometry":{"coordinates":[144.9708437,-37.7973184],"type":"Point"},"properties":{"events":[{"categories":["Music"],"eDate":"2025-03-13","eName":"Lee Jones Quintet","genre":"Jazz","price":"$20.26","supports":[],"ticketUrl":null,"time":" 7pm"}],"vName":"The Motley Bauhaus"},"type":"Feature"},{"geometry":{"coordinates":[144.9651425,-37.8119429],"type":"Point"},"properties":{"events":[{"categories":["Free","Music"],"eDate":"2025-03-13","eName":"Jazz & Jaffles Presents: Jerry + Max Koenig Trio","genre":"Jazz","price":"Free","supports":[],"ticketUrl":null,"time":" 8pm"}],"vName":"The Toff In Town"},"type":"Feature"},{"geometry":{"coordinates":[144.9846126,-37.7989941],"type":"Point"},"properties":{"events":[{"categories":["Music"],"eDate":"2025-03-13","eName":"Immy Owusu","genre":"Hip Hop","price":"$28.60","supports":["Wild Gloriosa"," Baraka The Kid"," Sensible J"],"ticketUrl":null,"time":" 7pm"},{"categories":["Music"],"eDate":"2025-03-13","eName":"War Penguin","genre":"Metal","price":"$13.30","supports":["Horror Domain"," Buried Below"],"ticketUrl":null,"time":" 7:30pm"}],"vName":"The Tote Hotel"},"type":"Feature"},{"geometry":{"coordinates":[144.9618426,-37.8125531],"type":"Point"},"properties":{"events":[{"categories":["Free","Music"],"eDate":"2025-03-13","eName":"Inner Sanctuary FEAT: DJ JNETT + Jimmy James","genre":null,"price":"Free","supports":[],"ticketUrl":null,"time":" 3pm"}],"vName":"Whitehart Bar"},"type":"Feature"}],"type":"FeatureCollection"}