{"features":[{"geometry":{"coordinates":[144.9607158,-37.776327],"type":"Point"},"properties":{"events":[{"categories":["Music"],"eDate":"2024-08-10","eName":"Against Abuse 2","genre":"Metal","price":"$17.85","supports":[],"ticketUrl":null,"time":" 2pm"},{"categories":["Music"],"eDate":"2024-08-10","eName":"Rinse","genre":"Indie","price":"$16.85","supports":[],"ticketUrl":null,"time":" 8pm"}],"vName":"Bergy Bandroom"},"type":"Feature"},{"geometry":{"coordinates":[144.9617018,-37.7704566],"type":"Point"},"properties":{"events":[{"categories":["Music"],"eDate":"2024-08-10","eName":"Kylie Auldist","genre":"Soul/Funk","price":"$34.27","supports":[],"ticketUrl":null,"time":" 8pm"}],"vName":"Brunswick Ballroom"},"type":"Feature"},{"geometry":{"coordinates":[144.96947,-37.816565],"type":"Point"},"properties":{"events":[{"categories":["Music"],"eDate":"2024-08-10","eName":"Ride","genre":"Rock","price":"$99.90","supports":["Mercury Rev"],"ticketUrl":null,"time":" 7pm"}],"vName":"Forum Melbourne"},"type":"Feature"},{"geometry":{"coordinates":[144.98535244416098,-37.79426315],"type":"Point"},"properties":{"events":[{"categories":["Music"],"eDate":"2024-08-10","eName":"Gaso Goes Guerillas","genre":null,"price":"$25.00","supports":["Book Runner"," Supermodels"," Cavedweller"," DJML4C"],"ticketUrl":null,"time":" 6pm"}],"vName":"Gasometer Hotel"},"type":"Feature"},{"geometry":{"coordinates":[144.9875917,-37.7963837],"type":"Point"},"properties":{"events":[{"categories":["Free","Music"],"eDate":"2024-08-10","eName":"Loose Lips + Pollyman","genre":"Rock","price":"Free","supports":[],"ticketUrl":null,"time":" 4pm"},{"categories":["Free","Music"],"eDate":"2024-08-10","eName":"Your Midjourney Fantasy","genre":null,"price":"Free","supports":[],"ticketUrl":null,"time":" 7pm"},{"categories":["Free","Music"],"eDate":"2024-08-10","eName":"Honk + Mum Rock DJs","genre":"Country/Folk","price":"Free","supports":[],"ticketUrl":null,"time":" 8pm"}],"vName":"Gem Bar"},"type":"Feature"},{"geometry":{"coordinates":[144.9787445,-37.7967357],"type":"Point"},"properties":{"events":[{"categories":["Music"],"eDate":"2024-08-10","eName":"Glamorama Saturdays","genre":"Electronic","price":"$20.00","supports":["Nokia3210"," Kailyn Crabbe"," Jove"],"ticketUrl":null,"time":" 9pm"}],"vName":"Glamorama"},"type":"Feature"},{"geometry":{"coordinates":[144.9596527,-37.7720304],"type":"Point"},"properties":{"events":[{"categories":["Music"],"eDate":"2024-08-10","eName":"Girl & Girl","genre":"Indie","price":"$28.56","supports":[],"ticketUrl":null,"time":" 8pm"}],"vName":"Howler"},"type":"Feature"},{"geometry":{"coordinates":[145.0293642,-37.8073947],"type":"Point"},"properties":{"events":[{"categories":["Music"],"eDate":"2024-08-10","eName":"Nathan Slater Quartet","genre":null,"price":"$20.00 - 26.00","supports":[],"ticketUrl":null,"time":" 8pm"}],"vName":"Kew Court House"},"type":"Feature"},{"geometry":{"coordinates":[144.8971518,-37.8054274],"type":"Point"},"properties":{"events":[{"categories":["Free","Music"],"eDate":"2024-08-10","eName":"Nampo","genre":null,"price":"Free","supports":["Exosquelette"," Kaiyah Mercedes"],"ticketUrl":null,"time":" 2pm"},{"categories":["Free","Music"],"eDate":"2024-08-10","eName":"The Artificial Limb","genre":null,"price":"Free","supports":["Strawberry Lipstick"," Queen Hyena"," A.C Saunders"," Software-Entwicklungskit"],"ticketUrl":null,"time":" 7pm"}],"vName":"Mamma Chen's"},"type":"Feature"},{"geometry":{"coordinates":[144.96741062735794,-37.82454855],"type":"Point"},"properties":{"events":[{"categories":["Music"],"eDate":"2024-08-10","eName":"Reunited: An Evening with Stacey Alleaume & Hadleigh Adams","genre":"Classical","price":"$99.00","supports":[],"ticketUrl":null,"time":" 7pm"},{"categories":["Music"],"eDate":"2024-08-10","eName":"Australian Chamber Orchestra: Silence & Rapture","genre":"Classical","price":"$59.00","supports":[],"ticketUrl":null,"time":" 7:30pm"}],"vName":"Melbourne Recital Centre"},"type":"Feature"},{"geometry":{"coordinates":[144.9786817,-37.8671902],"type":"Point"},"properties":{"events":[{"categories":["Music"],"eDate":"2024-08-10","eName":"BABBA: 30th Anniversary","genre":"Pop","price":"$35.00 - 60.00","supports":[],"ticketUrl":null,"time":" 7pm"}],"vName":"Memo Music Hall"},"type":"Feature"},{"geometry":{"coordinates":[144.9712356,-37.812902],"type":"Point"},"properties":{"events":[{"categories":["Comedy"],"eDate":"2024-08-10","eName":"Basement Comedy Club","genre":null,"price":"$25.00","supports":["Nick Cody"," Andrew Portelli"," more"],"ticketUrl":null,"time":" 8pm"}],"vName":"Morris House"},"type":"Feature"},{"geometry":{"coordinates":[144.9977626,-37.7755001],"type":"Point"},"properties":{"events":[{"categories":["Music"],"eDate":"2024-08-10","eName":"Little Ravers: Melbourne","genre":"Electronic","price":"$20.20 - 33.25","supports":[],"ticketUrl":null,"time":"10am"},{"categories":["Music"],"eDate":"2024-08-10","eName":"Little Ravers: Melbourne","genre":"Electronic","price":"$20.20 - 33.25","supports":[],"ticketUrl":null,"time":" 4pm"}],"vName":"Northcote Theatre"},"type":"Feature"},{"geometry":{"coordinates":[144.97711,-37.79833],"type":"Point"},"properties":{"events":[{"categories":["Music"],"eDate":"2024-08-10","eName":"The Orphan","genre":"Rock","price":"$11.25","supports":["Nephalem"," Grave Risk"," Lakeview"],"ticketUrl":null,"time":" 8pm"}],"vName":"Old Bar"},"type":"Feature"},{"geometry":{"coordinates":[144.9605705,-37.8132486],"type":"Point"},"properties":{"events":[{"categories":["Music"],"eDate":"2024-08-10","eName":"Not So Big Band: The Big Bandalorian (The Music of Star Wars)","genre":"Jazz","price":"$45.00","supports":[],"ticketUrl":null,"time":" 6pm"},{"categories":["Music"],"eDate":"2024-08-10","eName":"Ollie Shute Quintet presents: The Music Of Jamiroquai","genre":"Jazz","price":"$45.00","supports":[],"ticketUrl":null,"time":" 6:30pm"},{"categories":["Music"],"eDate":"2024-08-10","eName":"Nadira and Friends Present: Songs of Nat King Cole","genre":"Jazz","price":"$45.00","supports":[],"ticketUrl":null,"time":" 6:30pm"},{"categories":["Music"],"eDate":"2024-08-10","eName":"Fabulous Diva: The Music of Dr Nina Simone","genre":"Jazz","price":"$45.00","supports":[],"ticketUrl":null,"time":" 8:30pm"},{"categories":["Music"],"eDate":"2024-08-10","eName":"Solomon Sisay & His Band","genre":"Jazz","price":"$45.00","supports":[],"ticketUrl":null,"time":" 9:30pm"}],"vName":"Paris Cat Jazz Club"},"type":"Feature"},{"geometry":{"coordinates":[144.9615882,-37.7711432],"type":"Point"},"properties":{"events":[{"categories":["Free","Music"],"eDate":"2024-08-10","eName":"Anatreptix","genre":"Global","price":"Free","supports":[],"ticketUrl":null,"time":" 2:30pm"},{"categories":["Music"],"eDate":"2024-08-10","eName":"Rocking For Rob","genre":"Rock","price":"$5.00","supports":[],"ticketUrl":null,"time":" 7:30pm"}],"vName":"Retreat Hotel"},"type":"Feature"},{"geometry":{"coordinates":[144.9631913,-37.7617818],"type":"Point"},"properties":{"events":[{"categories":["Music"],"eDate":"2024-08-10","eName":"Salvador Peralta & Friends","genre":"Indie","price":"$15.00 - 20.00","supports":["Jamichi"],"ticketUrl":null,"time":" 8pm"}],"vName":"Ringo Barr"},"type":"Feature"},{"geometry":{"coordinates":[144.9607404,-37.7743469],"type":"Point"},"properties":{"events":[{"categories":["Music","Other \"Cabaret\""],"eDate":"2024-08-10","eName":"Bonez Queer Party: My Chemical Romance Ball","genre":"Punk","price":"$19.40 - 29.60","supports":[],"ticketUrl":null,"time":" 9pm"}],"vName":"Stay Gold"},"type":"Feature"},{"geometry":{"coordinates":[144.9706095,-37.7783326],"type":"Point"},"properties":{"events":[{"categories":["Free","Music"],"eDate":"2024-08-10","eName":"Oscar LaDell","genre":"Soul/Funk","price":"Free","supports":["Bryn Oakly"],"ticketUrl":null,"time":" 8:30pm"}],"vName":"The Beast"},"type":"Feature"},{"geometry":{"coordinates":[144.9555612,-37.8066759],"type":"Point"},"properties":{"events":[{"categories":["Free","Music"],"eDate":"2024-08-10","eName":"Shaky Stills","genre":"Country/Folk","price":"Free","supports":[],"ticketUrl":null,"time":" 9pm"}],"vName":"The Drunken Poet"},"type":"Feature"},{"geometry":{"coordinates":[144.9708437,-37.7973184],"type":"Point"},"properties":{"events":[{"categories":["Free","Music"],"eDate":"2024-08-10","eName":"Jazz Arvos","genre":"Jazz","price":"Free","supports":[],"ticketUrl":null,"time":" 5pm"},{"categories":["Comedy"],"eDate":"2024-08-10","eName":"Yarning With The Ancestors","genre":null,"price":"$10.13 - 30.39","supports":[],"ticketUrl":null,"time":" 7pm"},{"categories":["Music"],"eDate":"2024-08-10","eName":"Lostii","genre":"Electronic","price":"$15.20","supports":["Double Vanity"],"ticketUrl":null,"time":" 8:15pm"}],"vName":"The Motley Bauhaus"},"type":"Feature"},{"geometry":{"coordinates":[144.9651425,-37.8119429],"type":"Point"},"properties":{"events":[{"categories":["Music","Comedy"],"eDate":"2024-08-10","eName":"Small Town Alien","genre":"Rock","price":"$17.34","supports":[],"ticketUrl":null,"time":" 2pm"}],"vName":"The Toff In Town"},"type":"Feature"},{"geometry":{"coordinates":[144.9983987,-37.7729204],"type":"Point"},"properties":{"events":[{"categories":["Music"],"eDate":"2024-08-10","eName":"Sam Buckingham","genre":"Indie","price":"$42.00","supports":["Emma Dean"],"ticketUrl":null,"time":" 7:30pm"}],"vName":"Wesley Anne"},"type":"Feature"},{"geometry":{"coordinates":[144.9618426,-37.8125531],"type":"Point"},"properties":{"events":[{"categories":["Free","Music"],"eDate":"2024-08-10","eName":"Uncut Rhythm","genre":null,"price":"Free","supports":["binofski"," Mr Pitiful"],"ticketUrl":null,"time":" 2pm"}],"vName":"Whitehart Bar"},"type":"Feature"}],"type":"FeatureCollection"}