{"features":[{"geometry":{"coordinates":[144.99828116650363,-37.7713296],"type":"Point"},"properties":{"events":[{"categories":["Music"],"eDate":"2024-12-21","eName":"Phoebe's Dream","genre":"Indie","price":"$8.00","supports":["Transient Blue"," Sam Curtis"],"ticketUrl":null,"time":" 8pm"},{"categories":["Music"],"eDate":"2024-12-21","eName":"Phoebe’s Dream","genre":"Acoustic","price":"$8.00","supports":["Transient Blue"," Sam Curtis"],"ticketUrl":null,"time":" 8pm"}],"vName":"Bar 303"},"type":"Feature"},{"geometry":{"coordinates":[144.978425,-37.79773],"type":"Point"},"properties":{"events":[{"categories":["Music"],"eDate":"2024-12-21","eName":"The Straight Shooters","genre":"Rock","price":"$17.35","supports":["The Satts"," The Outfits"],"ticketUrl":null,"time":" 8:30pm"},{"categories":["Free","Music"],"eDate":"2024-12-21","eName":"Midnight Circuitry / Synaptic Dreams","genre":"Electronic","price":"Free","supports":[],"ticketUrl":null,"time":"11pm"}],"vName":"Bar Open"},"type":"Feature"},{"geometry":{"coordinates":[144.978682,-37.7981225],"type":"Point"},"properties":{"events":[{"categories":["Free","Music"],"eDate":"2024-12-21","eName":"Lewis Toms","genre":null,"price":"Free","supports":[],"ticketUrl":null,"time":" 9pm"},{"categories":["Music"],"eDate":"2024-12-21","eName":"DJ Lewy C","genre":"Electronic","price":"Free","supports":[],"ticketUrl":null,"time":"10pm"}],"vName":"Baxter's Lot"},"type":"Feature"},{"geometry":{"coordinates":[144.98911674151407,-37.79964875],"type":"Point"},"properties":{"events":[{"categories":["Music"],"eDate":"2024-12-21","eName":"The Dr. Colossus Christmas","genre":"Metal","price":"$28.05","supports":[],"ticketUrl":null,"time":" 8:30pm"}],"vName":"Bendigo Hotel"},"type":"Feature"},{"geometry":{"coordinates":[144.9607158,-37.776327],"type":"Point"},"properties":{"events":[{"categories":["Music"],"eDate":"2024-12-21","eName":"The Seven Ups Xmas Bonanza","genre":null,"price":"$33.15","supports":["Gusto Gusto"," Foggy Nation"," Mindy Weng Weng"],"ticketUrl":null,"time":" 8pm"}],"vName":"Bergy Bandroom"},"type":"Feature"},{"geometry":{"coordinates":[144.96947,-37.816565],"type":"Point"},"properties":{"events":[{"categories":["Music"],"eDate":"2024-12-21","eName":"Meg Washington","genre":"Indie","price":"$59.90","supports":["Jacob Diamond"],"ticketUrl":null,"time":" 7pm"}],"vName":"Forum Melbourne"},"type":"Feature"},{"geometry":{"coordinates":[144.9787445,-37.7967357],"type":"Point"},"properties":{"events":[{"categories":["Music"],"eDate":"2024-12-21","eName":"Beaufort Beats Day Party","genre":"Electronic","price":"$15.00 - 22.50","supports":["Royboy"," Flow"," CJ Slayer"," Caity Watsøn"],"ticketUrl":null,"time":" 3pm"}],"vName":"Glamorama"},"type":"Feature"},{"geometry":{"coordinates":[144.9679835243618,-37.8201575],"type":"Point"},"properties":{"events":[{"categories":["Music"],"eDate":"2024-12-21","eName":"Love Actually in Concert","genre":"Classical","price":"$69.00 - 155.00","supports":[],"ticketUrl":null,"time":" 8pm"}],"vName":"Hamer Hall (Arts Centre Melbourne)"},"type":"Feature"},{"geometry":{"coordinates":[144.8971518,-37.8054274],"type":"Point"},"properties":{"events":[{"categories":["Free","Music"],"eDate":"2024-12-21","eName":"Snub","genre":null,"price":"Free","supports":["Insectoid Witch"," The Nation Two"," Pet Therapy"," Another Rotting Corpse"," Hot Dog"," Buzz & The Pickups"],"ticketUrl":null,"time":" 1pm"}],"vName":"Mamma Chen's"},"type":"Feature"},{"geometry":{"coordinates":[144.9659879,-37.8147557],"type":"Point"},"properties":{"events":[{"categories":["Music"],"eDate":"2024-12-21","eName":"Road to ASTERIA","genre":"Electronic","price":"$68.98","supports":["Alex M"," Hardik"," Horseplay"," Lance"," Papas Jnr"," Nik Sitz"," Re:phaze"],"ticketUrl":null,"time":" 9pm"}],"vName":"Max Watt's (Melbourne)"},"type":"Feature"},{"geometry":{"coordinates":[144.9786817,-37.8671902],"type":"Point"},"properties":{"events":[{"categories":["Music"],"eDate":"2024-12-21","eName":"Claymore’s Celtic Christmas","genre":"Country/Folk","price":"$35.00 - 50.00","supports":[],"ticketUrl":null,"time":" 7pm"}],"vName":"Memo Music Hall"},"type":"Feature"},{"geometry":{"coordinates":[144.9712356,-37.812902],"type":"Point"},"properties":{"events":[{"categories":["Comedy"],"eDate":"2024-12-21","eName":"Basement Comedy Club","genre":null,"price":"$25.00","supports":["more"],"ticketUrl":null,"time":" 8pm"}],"vName":"Morris House"},"type":"Feature"},{"geometry":{"coordinates":[144.998414,-37.771471],"type":"Point"},"properties":{"events":[{"categories":["Music"],"eDate":"2024-12-21","eName":"Simona Castricum","genre":"Electronic","price":"$29.10","supports":["Screensaver"," Adored"],"ticketUrl":null,"time":" 8:30pm"}],"vName":"Northcote Social Club"},"type":"Feature"},{"geometry":{"coordinates":[144.97711,-37.79833],"type":"Point"},"properties":{"events":[{"categories":["Free","Music"],"eDate":"2024-12-21","eName":"The Tommys","genre":"Rock","price":"Free","supports":["Plastic Section"],"ticketUrl":null,"time":" 4pm"},{"categories":["Music"],"eDate":"2024-12-21","eName":"Juice. Junction Live Presents: Verbrasco","genre":"Indie","price":"$10.00 - 15.00","supports":["Chloe Booth"," The Opals"],"ticketUrl":null,"time":" 8pm"}],"vName":"Old Bar"},"type":"Feature"},{"geometry":{"coordinates":[144.9988348,-37.8525949],"type":"Point"},"properties":{"events":[{"categories":["Music"],"eDate":"2024-12-21","eName":"Peaks Radio Summer Rooftop Party","genre":"Electronic","price":"$29.00 - 38.00","supports":[],"ticketUrl":null,"time":" 3pm"}],"vName":"OneSixOne"},"type":"Feature"},{"geometry":{"coordinates":[144.9981771,-37.7742773],"type":"Point"},"properties":{"events":[{"categories":["Music"],"eDate":"2024-12-21","eName":"Tangology","genre":"Jazz","price":"$20.00","supports":[],"ticketUrl":null,"time":" 1pm"},{"categories":["Music"],"eDate":"2024-12-21","eName":"Kazaband","genre":"Jazz","price":"$10.00 - 15.00","supports":[],"ticketUrl":null,"time":" 5pm"},{"categories":["Music"],"eDate":"2024-12-21","eName":"Tania Bosak & Friends: Final Final Show","genre":"Jazz","price":"$25.00","supports":["DJ Conte"],"ticketUrl":null,"time":" 7pm"}],"vName":"Open Studio"},"type":"Feature"},{"geometry":{"coordinates":[144.9605705,-37.8132486],"type":"Point"},"properties":{"events":[{"categories":["Music"],"eDate":"2024-12-21","eName":"A Paris Cat Christmas","genre":"Jazz","price":"$48.00","supports":[],"ticketUrl":null,"time":" 6pm"},{"categories":["Music"],"eDate":"2024-12-21","eName":"Nardia Presents: The Songbook Of Eva Cassidy","genre":"Jazz","price":"$45.00","supports":[],"ticketUrl":null,"time":" 6:30pm"},{"categories":["Music"],"eDate":"2024-12-21","eName":"Not So Big Band: A Sinatra Christmas with Ben McGill","genre":"Jazz","price":"$45.00","supports":[],"ticketUrl":null,"time":" 9pm"},{"categories":["Music"],"eDate":"2024-12-21","eName":"Chris Johnstone Sextet: Play Grant Green & Joe Henderson","genre":"Jazz","price":"$45.00","supports":[],"ticketUrl":null,"time":" 9:30pm"}],"vName":"Paris Cat Jazz Club"},"type":"Feature"},{"geometry":{"coordinates":[144.9644769,-37.7534967],"type":"Point"},"properties":{"events":[{"categories":["Free","Music"],"eDate":"2024-12-21","eName":"Elvis Christmas Extravaganza","genre":"Rock","price":"Free","supports":[],"ticketUrl":null,"time":" 9pm"}],"vName":"Post Office Hotel"},"type":"Feature"},{"geometry":{"coordinates":[144.9615882,-37.7711432],"type":"Point"},"properties":{"events":[{"categories":["Music"],"eDate":"2024-12-21","eName":"Cassettes","genre":"Country/Folk","price":"Free","supports":["Cousin Maya"],"ticketUrl":null,"time":" 2:30pm"},{"categories":["Music"],"eDate":"2024-12-21","eName":"Christmas in July in December: Titration & Friends","genre":"Electronic","price":"$20.00","supports":["Xandri"," Emma Yue"," YMI & The Streetcats"],"ticketUrl":null,"time":" 7pm"}],"vName":"Retreat Hotel"},"type":"Feature"},{"geometry":{"coordinates":[144.9631913,-37.7617818],"type":"Point"},"properties":{"events":[{"categories":["Free","Music"],"eDate":"2024-12-21","eName":"Fur Blossom + Sand","genre":"Indie","price":"Free","supports":[],"ticketUrl":null,"time":" 8pm"}],"vName":"Ringo Barr"},"type":"Feature"},{"geometry":{"coordinates":[144.965405,-37.8117457],"type":"Point"},"properties":{"events":[{"categories":["Free","Music"],"eDate":"2024-12-21","eName":"Sunnyside","genre":"Electronic","price":"Free","supports":["Sophuli"," Windtunnel"," Acid Chess Club"],"ticketUrl":null,"time":" 6pm"}],"vName":"Section 8"},"type":"Feature"},{"geometry":{"coordinates":[144.9607404,-37.7743469],"type":"Point"},"properties":{"events":[{"categories":["Music"],"eDate":"2024-12-21","eName":"Body Prison","genre":"Metal","price":"$31.63","supports":["Hate Complex"," Deadskin"," Identity Error"],"ticketUrl":null,"time":" 7pm"}],"vName":"Stay Gold"},"type":"Feature"},{"geometry":{"coordinates":[144.9657057,-37.8061581],"type":"Point"},"properties":{"events":[{"categories":["Music"],"eDate":"2024-12-21","eName":"Magic Dirt: Christmas at The Curtin","genre":"Rock","price":"$43.80 - 54.15","supports":["Loose Content"," Curlers"],"ticketUrl":null,"time":" 8pm"}],"vName":"The Curtin"},"type":"Feature"},{"geometry":{"coordinates":[144.958676,-37.7669571],"type":"Point"},"properties":{"events":[{"categories":["Music"],"eDate":"2024-12-21","eName":"The Pearly Shells Xmas Special","genre":"Jazz","price":"$35.00 - 40.00","supports":[],"ticketUrl":null,"time":" 8pm"}],"vName":"The Jazzlab"},"type":"Feature"},{"geometry":{"coordinates":[144.9585654,-37.8059962],"type":"Point"},"properties":{"events":[{"categories":["Music"],"eDate":"2024-12-21","eName":"The Bin Stompers","genre":null,"price":"$10.00","supports":["The Rartel"," Target Audience"," Sharehouse"],"ticketUrl":null,"time":" 2:30pm"},{"categories":["Music"],"eDate":"2024-12-21","eName":"Leatherman","genre":"Rock","price":"$19.40","supports":["Frenzee"," The States"," Elvis II"," Comedy"],"ticketUrl":null,"time":" 7:30pm"}],"vName":"The Last Chance Rock & Roll Bar"},"type":"Feature"},{"geometry":{"coordinates":[144.9708437,-37.7973184],"type":"Point"},"properties":{"events":[{"categories":["Free","Music"],"eDate":"2024-12-21","eName":"Jazz Arvos","genre":"Jazz","price":"Free","supports":[],"ticketUrl":null,"time":" 5pm"},{"categories":["Music","Dance","Other \"Cabaret\"","Other \"Food & Drink\""],"eDate":"2024-12-21","eName":"Yet Another Merry Motley Christmas","genre":"Pop","price":"$20.26 - 50.65","supports":[],"ticketUrl":null,"time":" 6pm"},{"categories":["Comedy"],"eDate":"2024-12-21","eName":"The Big HOO HAA!","genre":null,"price":"$30.39","supports":[],"ticketUrl":null,"time":" 8:30pm"}],"vName":"The Motley Bauhaus"},"type":"Feature"},{"geometry":{"coordinates":[144.9830837,-37.7988316],"type":"Point"},"properties":{"events":[{"categories":["Music"],"eDate":"2024-12-21","eName":"Last Nite: Indie Party","genre":"Indie","price":"$14.27 - 22.00","supports":[],"ticketUrl":null,"time":" 9pm"}],"vName":"The Night Cat"},"type":"Feature"},{"geometry":{"coordinates":[144.9846126,-37.7989941],"type":"Point"},"properties":{"events":[{"categories":["Music"],"eDate":"2024-12-21","eName":"Gesùnolike","genre":"Rock","price":"$11.25","supports":["Astral High"," Cooldad"," Anne's Lace"],"ticketUrl":null,"time":" 8pm"}],"vName":"The Tote Hotel"},"type":"Feature"},{"geometry":{"coordinates":[144.9769450659087,-37.8055776],"type":"Point"},"properties":{"events":[{"categories":["Music"],"eDate":"2024-12-21","eName":"Sadie Mustoe","genre":"Indie","price":"$23.50","supports":["Elkie Kershaw"," Sorcha"],"ticketUrl":null,"time":" 8pm"}],"vName":"The Workers Club"},"type":"Feature"}],"type":"FeatureCollection"}