{"features":[{"geometry":{"coordinates":[144.9982812,-37.7713296],"type":"Point"},"properties":{"events":[{"categories":["Music"],"eDate":"2026-05-29","eName":"Amelia Adler","genre":"Indie","price":"$22.49","supports":["Buckleys"," Gavin!"," Franky"],"ticketUrl":null,"time":" 7:30pm"}],"vName":"Bar 303"},"type":"Feature"},{"geometry":{"coordinates":[144.978682,-37.7981225],"type":"Point"},"properties":{"events":[{"categories":["Free","Music"],"eDate":"2026-05-29","eName":"Harrisen Hughes","genre":null,"price":"Free","supports":[],"ticketUrl":null,"time":" 9pm"}],"vName":"Baxter's Lot"},"type":"Feature"},{"geometry":{"coordinates":[144.9891167,-37.7996488],"type":"Point"},"properties":{"events":[{"categories":["Music"],"eDate":"2026-05-29","eName":"Fortnightly Fridays","genre":"Rock","price":"$14.80","supports":["Black Wattle Witches"," Zero City"," Aquaplane"],"ticketUrl":null,"time":" 8:30pm"}],"vName":"Bendigo Hotel"},"type":"Feature"},{"geometry":{"coordinates":[144.9607158,-37.776327],"type":"Point"},"properties":{"events":[{"categories":["Music"],"eDate":"2026-05-29","eName":"Latent Sense","genre":"Rock","price":"$22.95","supports":["Huskees"," Madams & The Misters"],"ticketUrl":null,"time":" 1:30pm"},{"categories":["Music"],"eDate":"2026-05-29","eName":"Earth Rot","genre":"Metal","price":"$28.05","supports":["Hybrid Nightmares"," Munitions"," Virulent Invocation"],"ticketUrl":null,"time":" 8pm"}],"vName":"Bergy Bandroom"},"type":"Feature"},{"geometry":{"coordinates":[144.9568039,-37.8111442],"type":"Point"},"properties":{"events":[{"categories":["Music"],"eDate":"2026-05-29","eName":"Feelin’ Groovy: The Simon & Garfunkel Project","genre":"Jazz","price":"$40.00","supports":[],"ticketUrl":null,"time":" 7:30pm"}],"vName":"Bird's Basement"},"type":"Feature"},{"geometry":{"coordinates":[145.0004166,-37.7612582],"type":"Point"},"properties":{"events":[{"categories":["Music"],"eDate":"2026-05-29","eName":"The Unknowns","genre":null,"price":"$18.90","supports":["Leatherman"," The Pearlies"],"ticketUrl":null,"time":" 8pm"}],"vName":"Cactus Room"},"type":"Feature"},{"geometry":{"coordinates":[144.9248037,-37.7656716],"type":"Point"},"properties":{"events":[{"categories":["Other \"Dance \""],"eDate":"2026-05-29","eName":"Don Quixote: Dream & Echoes","genre":null,"price":"$69.00","supports":[],"ticketUrl":null,"time":" 7pm"}],"vName":"Clocktower Centre"},"type":"Feature"},{"geometry":{"coordinates":[144.9926664,-37.8248893],"type":"Point"},"properties":{"events":[{"categories":["Music"],"eDate":"2026-05-29","eName":"Ensiferum","genre":null,"price":"$66.95","supports":[],"ticketUrl":null,"time":" 8pm"}],"vName":"Corner Hotel"},"type":"Feature"},{"geometry":{"coordinates":[144.9706211,-37.778276],"type":"Point"},"properties":{"events":[{"categories":["Music"],"eDate":"2026-05-29","eName":"ANGLERR + Dysfunction Junction","genre":null,"price":"$10.00","supports":[],"ticketUrl":null,"time":" 8pm"}],"vName":"Creature Bar"},"type":"Feature"},{"geometry":{"coordinates":[144.9627513,-37.760963],"type":"Point"},"properties":{"events":[{"categories":["Music"],"eDate":"2026-05-29","eName":"Georgia Rodgers","genre":"Blues","price":"Free","supports":[],"ticketUrl":null,"time":" 8pm"}],"vName":"Edinburgh Castle Hotel"},"type":"Feature"},{"geometry":{"coordinates":[144.9875792,-37.7963739],"type":"Point"},"properties":{"events":[{"categories":["Music"],"eDate":"2026-05-29","eName":"Stepmother","genre":"Punk","price":"$23.20","supports":["Boris Black"," Cujo"],"ticketUrl":null,"time":" 8pm"}],"vName":"Gem Bar"},"type":"Feature"},{"geometry":{"coordinates":[144.9787378,-37.7954205],"type":"Point"},"properties":{"events":[{"categories":["Music"],"eDate":"2026-05-29","eName":"Interval x Urchin: Emma Moon + Special Guests","genre":"Electronic","price":"$20.00 - 25.00","supports":[],"ticketUrl":null,"time":"10pm"}],"vName":"Glamorama"},"type":"Feature"},{"geometry":{"coordinates":[144.983442,-37.804851],"type":"Point"},"properties":{"events":[{"categories":["Music"],"eDate":"2026-05-29","eName":"Solder: Biography","genre":"Indie","price":"$15.00","supports":["Twine"," amanda"," Pretty Nervous System"],"ticketUrl":null,"time":" 7pm"},{"categories":["Music"],"eDate":"2026-05-29","eName":"Mark Churchill (Band)","genre":"Indie","price":"$15.00 - 20.00","supports":["Wriding"," Notch Cut"],"ticketUrl":null,"time":" 7:30pm"},{"categories":["Music"],"eDate":"2026-05-29","eName":"Mark Churchill (Band)","genre":null,"price":"$15.00","supports":["Wriding"," Notch Cut"],"ticketUrl":null,"time":" 7:30pm"}],"vName":"Grace Darling Hotel"},"type":"Feature"},{"geometry":{"coordinates":[144.9679835,-37.8201575],"type":"Point"},"properties":{"events":[{"categories":["Music","Comedy"],"eDate":"2026-05-29","eName":"Rob Anderson: Are You Afraid of the ‘90s?","genre":"Pop","price":"$79.90","supports":[],"ticketUrl":null,"time":" 7:30pm"}],"vName":"Hamer Hall (Arts Centre Melbourne)"},"type":"Feature"},{"geometry":{"coordinates":[144.973013,-37.8640582],"type":"Point"},"properties":{"events":[{"categories":["Music"],"eDate":"2026-05-29","eName":"RocKwiz LIVE","genre":"Rock","price":"Free","supports":[],"ticketUrl":null,"time":" 7pm"}],"vName":"Hotel Esplanade (aka The Espy)"},"type":"Feature"},{"geometry":{"coordinates":[144.9596527,-37.7720304],"type":"Point"},"properties":{"events":[{"categories":["Music"],"eDate":"2026-05-29","eName":"clipp.art presents Byron The Aquarius","genre":"Electronic","price":"$23.46 - 28.56","supports":[],"ticketUrl":null,"time":" 8pm"}],"vName":"Howler"},"type":"Feature"},{"geometry":{"coordinates":[144.9970761,-37.8766692],"type":"Point"},"properties":{"events":[{"categories":["Music"],"eDate":"2026-05-29","eName":"The Tonalists","genre":null,"price":"$10.00","supports":[],"ticketUrl":null,"time":"10pm"}],"vName":"Lyrebird Lounge"},"type":"Feature"},{"geometry":{"coordinates":[144.9833121,-37.8062477],"type":"Point"},"properties":{"events":[{"categories":["Music"],"eDate":"2026-05-29","eName":"CRIP RAVE THEORY // +1","genre":"Electronic","price":"$7.70 - 27.40","supports":[],"ticketUrl":null,"time":" 9pm"},{"categories":["Music"],"eDate":"2026-05-29","eName":"BBPMS","genre":"Electronic","price":"$16.45","supports":[],"ticketUrl":null,"time":"10pm"}],"vName":"New Guernica"},"type":"Feature"},{"geometry":{"coordinates":[144.998414,-37.771471],"type":"Point"},"properties":{"events":[{"categories":["Music"],"eDate":"2026-05-29","eName":"Kathleen Halloran","genre":"Indie","price":"$35.30","supports":[],"ticketUrl":null,"time":" 8pm"}],"vName":"Northcote Social Club"},"type":"Feature"},{"geometry":{"coordinates":[144.9982706,-37.7737068],"type":"Point"},"properties":{"events":[{"categories":["Music"],"eDate":"2026-05-29","eName":"Khamari","genre":"R&B","price":"Free","supports":[],"ticketUrl":null,"time":" 7:30pm"}],"vName":"Northcote Theatre"},"type":"Feature"},{"geometry":{"coordinates":[144.96084,-37.813514],"type":"Point"},"properties":{"events":[{"categories":["Music"],"eDate":"2026-05-29","eName":"Elly Poletti Sings The A List: Aretha-Adele-Alicia-Amy","genre":"Jazz","price":"$48.00","supports":[],"ticketUrl":null,"time":" 6pm"}],"vName":"Paris Cat Jazz Club"},"type":"Feature"},{"geometry":{"coordinates":[144.9615882,-37.7711432],"type":"Point"},"properties":{"events":[{"categories":["Music"],"eDate":"2026-05-29","eName":"Story Untold","genre":null,"price":"$59.90","supports":["Forever On High"," All Regards"," Only At The Movies"],"ticketUrl":null,"time":" 7:30pm"}],"vName":"Retreat Hotel"},"type":"Feature"},{"geometry":{"coordinates":[145.0013923,-37.7559265],"type":"Point"},"properties":{"events":[{"categories":["Music"],"eDate":"2026-05-29","eName":"NoTurns","genre":"Rock","price":"$20.00","supports":["The Antics"," Lalu"],"ticketUrl":null,"time":" 8pm"}],"vName":"Shotkickers"},"type":"Feature"},{"geometry":{"coordinates":[144.9782244,-37.8589249],"type":"Point"},"properties":{"events":[{"categories":["Music"],"eDate":"2026-05-29","eName":"The Tonalists","genre":null,"price":"Free","supports":[],"ticketUrl":null,"time":" 7:30pm"}],"vName":"St Kilda Sports Club"},"type":"Feature"},{"geometry":{"coordinates":[144.9655352,-37.8097696],"type":"Point"},"properties":{"events":[{"categories":["Music"],"eDate":"2026-05-29","eName":"Library Up Late x RISING","genre":null,"price":"$39.00","supports":["more"],"ticketUrl":null,"time":" 7:30pm"}],"vName":"State Library Victoria"},"type":"Feature"},{"geometry":{"coordinates":[144.9657057,-37.8061581],"type":"Point"},"properties":{"events":[{"categories":["Music"],"eDate":"2026-05-29","eName":"Sex Mask","genre":null,"price":"$20.00","supports":[],"ticketUrl":null,"time":" 8pm"}],"vName":"The Curtin"},"type":"Feature"},{"geometry":{"coordinates":[144.9708437,-37.7973184],"type":"Point"},"properties":{"events":[{"categories":["Music"],"eDate":"2026-05-29","eName":"The Voxxkats","genre":"Rock","price":"$20.76","supports":[],"ticketUrl":null,"time":" 8pm"},{"categories":["Comedy"],"eDate":"2026-05-29","eName":"The Big HOO-HAA!","genre":null,"price":"$30.00","supports":[],"ticketUrl":null,"time":" 8:30pm"}],"vName":"The Motley Bauhaus"},"type":"Feature"},{"geometry":{"coordinates":[144.9794553,-37.7982653],"type":"Point"},"properties":{"events":[{"categories":["Music"],"eDate":"2026-05-29","eName":"2charm","genre":"Electronic","price":"$44.90","supports":[],"ticketUrl":null,"time":" 7:30pm"}],"vName":"The Night Cat"},"type":"Feature"},{"geometry":{"coordinates":[145.1818891,-37.8163371],"type":"Point"},"properties":{"events":[{"categories":["Theatre"],"eDate":"2026-05-29","eName":"Is Shakespeare in this Movie? (Matinee Session)","genre":null,"price":"$45.00","supports":[],"ticketUrl":null,"time":" 1pm"},{"categories":["Theatre"],"eDate":"2026-05-29","eName":"Is Shakespeare in this Movie?","genre":null,"price":"$45.00","supports":[],"ticketUrl":null,"time":" 7pm"}],"vName":"The Round"},"type":"Feature"},{"geometry":{"coordinates":[144.9998797,-37.7616512],"type":"Point"},"properties":{"events":[{"categories":["Music"],"eDate":"2026-05-29","eName":"Timothy Franklin Trio","genre":"Acoustic","price":"Free","supports":[],"ticketUrl":null,"time":" 8pm"}],"vName":"The Thornbury Local"},"type":"Feature"},{"geometry":{"coordinates":[144.9212126,-37.8326711],"type":"Point"},"properties":{"events":[{"categories":["Music"],"eDate":"2026-05-29","eName":"Flying Lotus","genre":"Electronic","price":"$98.64","supports":[],"ticketUrl":null,"time":" 6pm"}],"vName":"The Timber Yard"},"type":"Feature"},{"geometry":{"coordinates":[144.9651425,-37.8119429],"type":"Point"},"properties":{"events":[{"categories":["Free","Music"],"eDate":"2026-05-29","eName":"Toff Club: FRESHXPRINCESS + Kali","genre":"Electronic","price":"Free","supports":[],"ticketUrl":null,"time":"11pm"}],"vName":"The Toff In Town"},"type":"Feature"},{"geometry":{"coordinates":[144.9769451,-37.8055776],"type":"Point"},"properties":{"events":[{"categories":["Music"],"eDate":"2026-05-29","eName":"DisKust","genre":"Metal","price":"$17.85 - 22.94","supports":["Grimlock"," Nightmarsh"," The Ascended"],"ticketUrl":null,"time":" 8pm"}],"vName":"The Workers Club"},"type":"Feature"},{"geometry":{"coordinates":[144.9985126,-37.7588241],"type":"Point"},"properties":{"events":[{"categories":["Music"],"eDate":"2026-05-29","eName":"Off The List Presents","genre":"Punk","price":"$20.00","supports":["Rhys Renwick"," Neighbourly"],"ticketUrl":null,"time":" 6:30pm"}],"vName":"Thornbury Bowls Club"},"type":"Feature"},{"geometry":{"coordinates":[144.9661635,-37.8176298],"type":"Point"},"properties":{"events":[{"categories":["Free","Music"],"eDate":"2026-05-29","eName":"Melbourne Soul Weekender","genre":"Soul/Funk","price":"Free","supports":[],"ticketUrl":null,"time":" 9pm"}],"vName":"Wax Music Lounge"},"type":"Feature"},{"geometry":{"coordinates":[144.9984324,-37.7729134],"type":"Point"},"properties":{"events":[{"categories":["Music"],"eDate":"2026-05-29","eName":"Tripside Life","genre":"Jazz","price":"Free","supports":[],"ticketUrl":null,"time":" 6pm"},{"categories":["Music"],"eDate":"2026-05-29","eName":"The Crystal Ship: Unplugged","genre":"Acoustic","price":"$25.00","supports":["Greg Allan"],"ticketUrl":null,"time":" 8pm"}],"vName":"Wesley Anne"},"type":"Feature"}],"type":"FeatureCollection"}