{"features":[{"geometry":{"coordinates":[144.9500257,-37.8032773],"type":"Point"},"properties":{"events":[{"categories":["Theatre"],"eDate":"2025-10-18","eName":"First Trimester","genre":null,"price":"Free","supports":[],"ticketUrl":null,"time":" 8pm"}],"vName":"Arts House"},"type":"Feature"},{"geometry":{"coordinates":[144.9982812,-37.7713296],"type":"Point"},"properties":{"events":[{"categories":["Music"],"eDate":"2025-10-18","eName":"Jawa Pitu Band","genre":"Jazz","price":"Free","supports":["Sanggar Lestari"," Sahul Sakti"],"ticketUrl":null,"time":" 7pm"}],"vName":"Bar 303"},"type":"Feature"},{"geometry":{"coordinates":[144.978682,-37.7981225],"type":"Point"},"properties":{"events":[{"categories":["Free","Music"],"eDate":"2025-10-18","eName":"Woody Samson","genre":null,"price":"Free","supports":[],"ticketUrl":null,"time":" 9pm"}],"vName":"Baxter's Lot"},"type":"Feature"},{"geometry":{"coordinates":[144.9891167,-37.7996488],"type":"Point"},"properties":{"events":[{"categories":["Music"],"eDate":"2025-10-18","eName":"Knife","genre":"Metal","price":"$14.30","supports":["Serene Ailment"," Fumigator"],"ticketUrl":null,"time":" 8:30pm"},{"categories":["Music"],"eDate":"2025-10-18","eName":"Vollie + No Questions","genre":"Rock","price":"$17.35","supports":["Cass Aware"," Laura & The HELL CUTZ"],"ticketUrl":null,"time":" 8:45pm"}],"vName":"Bendigo Hotel"},"type":"Feature"},{"geometry":{"coordinates":[144.9607158,-37.776327],"type":"Point"},"properties":{"events":[{"categories":["Music"],"eDate":"2025-10-18","eName":"Earth Cadet","genre":"Rock","price":"$11.75","supports":["So I Says to Mabel"," The Refuge"," Billy Cart"],"ticketUrl":null,"time":" 1pm"},{"categories":["Music"],"eDate":"2025-10-18","eName":"Liar","genre":"Metal","price":"$16.85","supports":["Earthbound"," Matahari"," Detestor"],"ticketUrl":null,"time":" 8pm"}],"vName":"Bergy Bandroom"},"type":"Feature"},{"geometry":{"coordinates":[144.9568039,-37.8111442],"type":"Point"},"properties":{"events":[{"categories":["Music"],"eDate":"2025-10-18","eName":"Rick Price","genre":"Pop","price":"$38.00","supports":[],"ticketUrl":null,"time":" 6pm"}],"vName":"Bird's Basement"},"type":"Feature"},{"geometry":{"coordinates":[144.9617083,-37.7704205],"type":"Point"},"properties":{"events":[{"categories":["Music"],"eDate":"2025-10-18","eName":"We Prefer To Swing","genre":"Jazz","price":"$28.15 - 39.88","supports":[],"ticketUrl":null,"time":" 1pm"},{"categories":["Music"],"eDate":"2025-10-18","eName":"Ceres: Live & Alone","genre":"Metal","price":"$49.06","supports":["Juice Webster"],"ticketUrl":null,"time":" 8pm"}],"vName":"Brunswick Ballroom"},"type":"Feature"},{"geometry":{"coordinates":[144.9713425,-37.8128595],"type":"Point"},"properties":{"events":[{"categories":["Music"],"eDate":"2025-10-18","eName":"British Rock Tribute: Iron Maiden / The Cult","genre":"Rock","price":"$15.43","supports":[],"ticketUrl":null,"time":" 8pm"},{"categories":["Free","Music"],"eDate":"2025-10-18","eName":"TRASH Indie Sleaze Party","genre":"Indie","price":"Free","supports":[],"ticketUrl":null,"time":"11pm"}],"vName":"Cherry Bar"},"type":"Feature"},{"geometry":{"coordinates":[145.0006883,-37.8838373],"type":"Point"},"properties":{"events":[{"categories":["Music","Other \"Film\""],"eDate":"2025-10-18","eName":"The Music of James Bond","genre":"Jazz","price":"$25.00 - 30.00","supports":[],"ticketUrl":null,"time":" 8pm"}],"vName":"Classic Southside"},"type":"Feature"},{"geometry":{"coordinates":[144.9248037,-37.7656716],"type":"Point"},"properties":{"events":[{"categories":["Music","Comedy","Other \"Cabaret\""],"eDate":"2025-10-18","eName":"From Figaro to Phantom","genre":"Jazz","price":"$40.00","supports":[],"ticketUrl":null,"time":" 2pm"},{"categories":["Music"],"eDate":"2025-10-18","eName":"A Night on Broadway","genre":"Jazz","price":"$40.00","supports":[],"ticketUrl":null,"time":" 8pm"},{"categories":["Music","Comedy"],"eDate":"2025-10-18","eName":"Lisztomania","genre":"Acoustic","price":"$28.00","supports":[],"ticketUrl":null,"time":" 8pm"}],"vName":"Clocktower Centre"},"type":"Feature"},{"geometry":{"coordinates":[144.9627513,-37.760963],"type":"Point"},"properties":{"events":[{"categories":["Music"],"eDate":"2025-10-18","eName":"Youthless","genre":"Jazz","price":"Free","supports":[],"ticketUrl":null,"time":" 8pm"}],"vName":"Edinburgh Castle Hotel"},"type":"Feature"},{"geometry":{"coordinates":[144.9489214,-37.8106039],"type":"Point"},"properties":{"events":[{"categories":["Music"],"eDate":"2025-10-18","eName":"BIBI","genre":null,"price":"$101.79","supports":[],"ticketUrl":null,"time":" 7pm"}],"vName":"Festival Hall"},"type":"Feature"},{"geometry":{"coordinates":[144.9693768,-37.8164414],"type":"Point"},"properties":{"events":[{"categories":["Music","Comedy","Other \"Cabaret\""],"eDate":"2025-10-18","eName":"Em Rusciano: Ballroom Sessions Encore","genre":"Indie","price":"$59.95","supports":["Michael Paynter"," Jemma Rix"],"ticketUrl":null,"time":" 7pm"}],"vName":"Forum Melbourne"},"type":"Feature"},{"geometry":{"coordinates":[144.9777885,-37.8597831],"type":"Point"},"properties":{"events":[{"categories":["Music"],"eDate":"2025-10-18","eName":"Tutor 22 Duo","genre":"Acoustic","price":"Free","supports":[],"ticketUrl":null,"time":" 8pm"},{"categories":["Music"],"eDate":"2025-10-18","eName":"Lyndon Mcgauchie","genre":"Acoustic","price":"Free","supports":[],"ticketUrl":null,"time":"11pm"}],"vName":"Freddie Wimpoles"},"type":"Feature"},{"geometry":{"coordinates":[144.9875792,-37.7963739],"type":"Point"},"properties":{"events":[{"categories":["Music"],"eDate":"2025-10-18","eName":"Entertainment Unit","genre":"Rock","price":"$18.10","supports":[],"ticketUrl":null,"time":" 8:30pm"}],"vName":"Gem Bar"},"type":"Feature"},{"geometry":{"coordinates":[144.9780305,-37.8599731],"type":"Point"},"properties":{"events":[{"categories":["Music"],"eDate":"2025-10-18","eName":"JOY Rainbow Sessions","genre":"R&B","price":"$18.44","supports":[],"ticketUrl":null,"time":" 7pm"}],"vName":"George Lane"},"type":"Feature"},{"geometry":{"coordinates":[144.9787378,-37.7954205],"type":"Point"},"properties":{"events":[{"categories":["Music"],"eDate":"2025-10-18","eName":"VOS X Glamorama present: BENNET","genre":"Electronic","price":"$30.00 - 40.00","supports":["Michaél Beaty"," Ruby Lou"],"ticketUrl":null,"time":" 6pm"},{"categories":["Music"],"eDate":"2025-10-18","eName":"Huncho & Friends at Glamorama by Traphouse","genre":"Electronic","price":"$18.11 - 27.68","supports":[],"ticketUrl":null,"time":" 6pm"},{"categories":["Music"],"eDate":"2025-10-18","eName":"VOS X Glamorama present Bennet","genre":"Electronic","price":"$30.00 - 40.00","supports":[],"ticketUrl":null,"time":" 6pm"}],"vName":"Glamorama"},"type":"Feature"},{"geometry":{"coordinates":[144.983442,-37.804851],"type":"Point"},"properties":{"events":[{"categories":["Music"],"eDate":"2025-10-18","eName":"Dream Flavour","genre":"Rock","price":"$10.00 - 15.00","supports":["Hot Piss"," Vertical Garden"],"ticketUrl":null,"time":" 8pm"},{"categories":["Music"],"eDate":"2025-10-18","eName":"The Colliflowers","genre":"Rock","price":"$15.00 - 30.00","supports":[],"ticketUrl":null,"time":" 8:30pm"}],"vName":"Grace Darling Hotel"},"type":"Feature"},{"geometry":{"coordinates":[144.973013,-37.8640582],"type":"Point"},"properties":{"events":[{"categories":["Music"],"eDate":"2025-10-18","eName":"Eliza & The Delusionals","genre":"Rock","price":"$33.15","supports":[],"ticketUrl":null,"time":" 5:30pm"}],"vName":"Hotel Esplanade (aka The Espy)"},"type":"Feature"},{"geometry":{"coordinates":[144.9596527,-37.7720304],"type":"Point"},"properties":{"events":[{"categories":["Music"],"eDate":"2025-10-18","eName":"Nu.Techno Presents… 3 Years of Nu.Techno","genre":"Electronic","price":"$31.62 - 46.41","supports":[],"ticketUrl":null,"time":" 5pm"}],"vName":"Howler"},"type":"Feature"},{"geometry":{"coordinates":[144.976354,-37.798248],"type":"Point"},"properties":{"events":[{"categories":["Music"],"eDate":"2025-10-18","eName":"Prolougue: The First Step","genre":"R&B","price":"$22.00","supports":["Quashani Bahd"," The Push Band"],"ticketUrl":null,"time":" 7pm"}],"vName":"Laundry Bar"},"type":"Feature"},{"geometry":{"coordinates":[145.0008148,-37.8107158],"type":"Point"},"properties":{"events":[{"categories":["Music"],"eDate":"2025-10-18","eName":"White Widdow","genre":"Rock","price":"$28.85","supports":["Ablaze"," The Chevaliers"],"ticketUrl":null,"time":" 8pm"}],"vName":"Leadbeater Hotel"},"type":"Feature"},{"geometry":{"coordinates":[145.0355738,-37.8205529],"type":"Point"},"properties":{"events":[{"categories":["Music"],"eDate":"2025-10-18","eName":"Bob Sedergreen & Friends","genre":"Jazz","price":"$27.00 - 32.00","supports":["Home Cookin"],"ticketUrl":null,"time":" 8pm"}],"vName":"Lido Jazz Room"},"type":"Feature"},{"geometry":{"coordinates":[144.9658499,-37.8147453],"type":"Point"},"properties":{"events":[{"categories":["Music"],"eDate":"2025-10-18","eName":"The Party of a Showgirl: Taylor Album Release Party","genre":"Pop","price":"$17.85 - 35.00","supports":[],"ticketUrl":null,"time":" 8pm"}],"vName":"Max Watt's (Melbourne)"},"type":"Feature"},{"geometry":{"coordinates":[144.9675876,-37.8240849],"type":"Point"},"properties":{"events":[{"categories":["Music"],"eDate":"2025-10-18","eName":"Danilo Pérez","genre":"Jazz","price":"$74.00 - 84.00","supports":[],"ticketUrl":null,"time":" 2:30pm"},{"categories":["Music"],"eDate":"2025-10-18","eName":"Julian Bailey: Bachonteur","genre":"Classical","price":"$80.00","supports":[],"ticketUrl":null,"time":" 4pm"}],"vName":"Melbourne Recital Centre"},"type":"Feature"},{"geometry":{"coordinates":[144.9790251,-37.8675008],"type":"Point"},"properties":{"events":[{"categories":["Music"],"eDate":"2025-10-18","eName":"Dallas Frasca Plays Led Zeppelin","genre":"Rock","price":"$40.00 - 50.00","supports":[],"ticketUrl":null,"time":" 7pm"}],"vName":"Memo Music Hall"},"type":"Feature"},{"geometry":{"coordinates":[144.9546069,-37.8211068],"type":"Point"},"properties":{"events":[{"categories":["Music","Other \"Art \""],"eDate":"2025-10-18","eName":"Bugskin Chapter 2: Metamorphosis – An Immersive Audio-Visual Descent","genre":"Electronic","price":"$30.00","supports":[],"ticketUrl":null,"time":" 4pm"}],"vName":"Mission to Seafarers"},"type":"Feature"},{"geometry":{"coordinates":[144.998414,-37.771471],"type":"Point"},"properties":{"events":[{"categories":["Music"],"eDate":"2025-10-18","eName":"Salt Tree","genre":"Country/Folk","price":"$35.30","supports":["Rod Coote"],"ticketUrl":null,"time":" 8:30pm"}],"vName":"Northcote Social Club"},"type":"Feature"},{"geometry":{"coordinates":[144.97711,-37.79833],"type":"Point"},"properties":{"events":[{"categories":["Music"],"eDate":"2025-10-18","eName":"S:Bahn","genre":"Electronic","price":"Free","supports":["Blood In The Champagne"],"ticketUrl":null,"time":" 6pm"},{"categories":["Music"],"eDate":"2025-10-18","eName":"Simona Castricum","genre":"Electronic","price":"$17.35","supports":["LXRP"," Maxine Gillon & The Blue Jeans"],"ticketUrl":null,"time":" 8pm"},{"categories":["Music"],"eDate":"2025-10-18","eName":"DJ Gracie","genre":"Electronic","price":"Free","supports":[],"ticketUrl":null,"time":"11:30pm"}],"vName":"Old Bar"},"type":"Feature"},{"geometry":{"coordinates":[144.96084,-37.813514],"type":"Point"},"properties":{"events":[{"categories":["Music"],"eDate":"2025-10-18","eName":"Elly Poletti presents: Heart Strings","genre":"Soul/Funk","price":"$48.00","supports":[],"ticketUrl":null,"time":" 6pm"},{"categories":["Music"],"eDate":"2025-10-18","eName":"Cameron Jones: Gypsy Swing Guitarist","genre":"Jazz","price":"$40.00","supports":[],"ticketUrl":null,"time":" 6:30pm"},{"categories":["Music"],"eDate":"2025-10-18","eName":"Cannonball with Chantal Mitvalsky","genre":"Jazz","price":"Free","supports":[],"ticketUrl":null,"time":" 9pm"},{"categories":["Music"],"eDate":"2025-10-18","eName":"Nadira and Eamon McNelis Present: The Magic of Jazz Duets","genre":"Jazz","price":"$45.00","supports":[],"ticketUrl":null,"time":" 9:30pm"}],"vName":"Paris Cat Jazz Club"},"type":"Feature"},{"geometry":{"coordinates":[144.9615882,-37.7711432],"type":"Point"},"properties":{"events":[{"categories":["Music"],"eDate":"2025-10-18","eName":"Kelsey Jean & The Bad Health","genre":"Rock","price":"$15.00 - 20.00","supports":[],"ticketUrl":null,"time":" 7:30pm"}],"vName":"Retreat Hotel"},"type":"Feature"},{"geometry":{"coordinates":[144.993413,-37.8506652],"type":"Point"},"properties":{"events":[{"categories":["Free","Music"],"eDate":"2025-10-18","eName":"Ignition x Rise & Shine","genre":"Electronic","price":"$26.52","supports":[],"ticketUrl":null,"time":" 7am"},{"categories":["Music"],"eDate":"2025-10-18","eName":"The Swells","genre":"Rock","price":"$12.50","supports":["The Clones"," B-Side"],"ticketUrl":null,"time":" 7:30pm"}],"vName":"Revolver Upstairs"},"type":"Feature"},{"geometry":{"coordinates":[144.9607404,-37.7743469],"type":"Point"},"properties":{"events":[{"categories":["Music"],"eDate":"2025-10-18","eName":"Jack Harlon & The Dead Crows","genre":"Rock","price":"$19.99","supports":["Malcura"," Neon Goblin"],"ticketUrl":null,"time":" 7pm"},{"categories":["Music"],"eDate":"2025-10-18","eName":"Club Twilight: 20 Year Anniversary Party","genre":"Rock","price":"$16.85 - 23.50","supports":[],"ticketUrl":null,"time":"11pm"}],"vName":"Stay Gold"},"type":"Feature"},{"geometry":{"coordinates":[144.9706211,-37.778276],"type":"Point"},"properties":{"events":[{"categories":["Music"],"eDate":"2025-10-18","eName":"House Therapy Vol. 10","genre":"Electronic","price":"Free","supports":[],"ticketUrl":null,"time":" 8pm"}],"vName":"The Beast"},"type":"Feature"},{"geometry":{"coordinates":[144.32141,-37.38866],"type":"Point"},"properties":{"events":[{"categories":["Free","Music"],"eDate":"2025-10-18","eName":"Justin Bernasconi","genre":"Acoustic","price":"Free","supports":[],"ticketUrl":null,"time":" 3pm"}],"vName":"The Cosmopolitan Hotel"},"type":"Feature"},{"geometry":{"coordinates":[144.9657057,-37.8061581],"type":"Point"},"properties":{"events":[{"categories":["Music"],"eDate":"2025-10-18","eName":"The Thing","genre":"Rock","price":"$49.90","supports":["The Mundaynes"],"ticketUrl":null,"time":" 8pm"}],"vName":"The Curtin"},"type":"Feature"},{"geometry":{"coordinates":[144.9770425,-37.8588717],"type":"Point"},"properties":{"events":[{"categories":["Music"],"eDate":"2025-10-18","eName":"Bonnie & Clyde Trio + DJ MCB","genre":"Acoustic","price":"Free","supports":[],"ticketUrl":null,"time":" 9pm"}],"vName":"The Fifth Province"},"type":"Feature"},{"geometry":{"coordinates":[144.9463641,-37.8047757],"type":"Point"},"properties":{"events":[{"categories":["Music"],"eDate":"2025-10-18","eName":"Bone Reaper","genre":"Metal","price":"$16.35","supports":["Bludger"," Inscryptions"," Shlaugg"],"ticketUrl":null,"time":" 8pm"}],"vName":"The Last Chance Rock & Roll Bar"},"type":"Feature"},{"geometry":{"coordinates":[144.9708437,-37.7973184],"type":"Point"},"properties":{"events":[{"categories":["Music"],"eDate":"2025-10-18","eName":"Motley Jazz Jam","genre":"Jazz","price":"Free","supports":[],"ticketUrl":null,"time":" 7:30pm"}],"vName":"The Motley Bauhaus"},"type":"Feature"},{"geometry":{"coordinates":[145.1818891,-37.8163371],"type":"Point"},"properties":{"events":[{"categories":["Music","Theatre"],"eDate":"2025-10-18","eName":"GREASE: BABIRRA Music Theatre (Matinee Session)","genre":"Pop","price":"$60.00","supports":[],"ticketUrl":null,"time":" 2pm"}],"vName":"The Round"},"type":"Feature"},{"geometry":{"coordinates":[144.9998797,-37.7616512],"type":"Point"},"properties":{"events":[{"categories":["Music"],"eDate":"2025-10-18","eName":"Jeremy Beggs","genre":"Acoustic","price":"Free","supports":[],"ticketUrl":null,"time":" 8pm"}],"vName":"The Thornbury Local"},"type":"Feature"},{"geometry":{"coordinates":[144.9651425,-37.8119429],"type":"Point"},"properties":{"events":[{"categories":["Free","Music"],"eDate":"2025-10-18","eName":"Decadance","genre":"Electronic","price":"Free","supports":[],"ticketUrl":null,"time":"11pm"}],"vName":"The Toff In Town"},"type":"Feature"},{"geometry":{"coordinates":[144.9870814,-37.799406],"type":"Point"},"properties":{"events":[{"categories":["Music"],"eDate":"2025-10-18","eName":"Our Carlson","genre":"Electronic","price":"$28.60","supports":["Sienna Thornton"," My Guardian Angel"," Kyoyoko"],"ticketUrl":null,"time":" 8pm"}],"vName":"The Tote Hotel"},"type":"Feature"},{"geometry":{"coordinates":[144.9769451,-37.8055776],"type":"Point"},"properties":{"events":[{"categories":["Music"],"eDate":"2025-10-18","eName":"Monoliyth","genre":"Metal","price":"$23.50","supports":["Munitions"," Kniver"," HOOF"],"ticketUrl":null,"time":" 8pm"}],"vName":"The Workers Club"},"type":"Feature"},{"geometry":{"coordinates":[144.9984324,-37.7729134],"type":"Point"},"properties":{"events":[{"categories":["Music"],"eDate":"2025-10-18","eName":"Tony Yang","genre":"Jazz","price":"Free","supports":[],"ticketUrl":null,"time":" 6pm"}],"vName":"Wesley Anne"},"type":"Feature"}],"type":"FeatureCollection"}