{"features":[{"geometry":{"coordinates":[144.9633148,-37.8055511],"type":"Point"},"properties":{"events":[{"categories":["Other \"Cabaret\""],"eDate":"2025-07-12","eName":"The Melbourne Magic Festival Presents: The Gallery","genre":null,"price":"$22.00","supports":["Aby Thomas"," Michael Wan"," Gehan Somanader"," Chris Morant"," Kayj Barbosa"," Anurag Yadav"," Joe Williams"],"ticketUrl":null,"time":" 7:45pm"}],"vName":"Arrow on Swanston"},"type":"Feature"},{"geometry":{"coordinates":[144.9982812,-37.7713296],"type":"Point"},"properties":{"events":[{"categories":["Music","Other \"Cabaret\""],"eDate":"2025-07-12","eName":"Trans Artist Fundraiser","genre":"Jazz","price":"Free","supports":[],"ticketUrl":null,"time":" 8pm"}],"vName":"Bar 303"},"type":"Feature"},{"geometry":{"coordinates":[144.978682,-37.7981225],"type":"Point"},"properties":{"events":[{"categories":["Free","Music"],"eDate":"2025-07-12","eName":"Harrisen Hughes","genre":null,"price":"Free","supports":[],"ticketUrl":null,"time":" 9pm"},{"categories":["Free","Music"],"eDate":"2025-07-12","eName":"DJ Rubisco","genre":null,"price":"Free","supports":[],"ticketUrl":null,"time":"10pm"}],"vName":"Baxter's Lot"},"type":"Feature"},{"geometry":{"coordinates":[144.9891167,-37.7996488],"type":"Point"},"properties":{"events":[{"categories":["Music"],"eDate":"2025-07-12","eName":"Checkpoint","genre":"Rock","price":"$22.95","supports":["Doll Talk"," Smooth Brains"],"ticketUrl":null,"time":" 8pm"},{"categories":["Music"],"eDate":"2025-07-12","eName":"New Candys","genre":"Rock","price":"$33.70","supports":["Grinding Eyes"," The Baudelaires"],"ticketUrl":null,"time":" 8pm"}],"vName":"Bendigo Hotel"},"type":"Feature"},{"geometry":{"coordinates":[144.9568039,-37.8111442],"type":"Point"},"properties":{"events":[{"categories":["Music"],"eDate":"2025-07-12","eName":"Soul Divas","genre":"Soul/Funk","price":"$38.00","supports":[],"ticketUrl":null,"time":" 7:30pm"}],"vName":"Bird's Basement"},"type":"Feature"},{"geometry":{"coordinates":[145.0004166,-37.7612582],"type":"Point"},"properties":{"events":[{"categories":["Music"],"eDate":"2025-07-12","eName":"misadventurer","genre":"Rock","price":"$15.00","supports":["Obscura Hail"," Norwood"],"ticketUrl":null,"time":" 8pm"}],"vName":"Cactus Room"},"type":"Feature"},{"geometry":{"coordinates":[145.0006883,-37.8838373],"type":"Point"},"properties":{"events":[{"categories":["Music"],"eDate":"2025-07-12","eName":"Bob Sedergreen & Friends presents Trumpet Talk","genre":"Jazz","price":"$25.00 - 30.00","supports":[],"ticketUrl":null,"time":" 8pm"}],"vName":"Classic Southside"},"type":"Feature"},{"geometry":{"coordinates":[144.9248037,-37.7656716],"type":"Point"},"properties":{"events":[{"categories":["Theatre"],"eDate":"2025-07-12","eName":"Imagine Live (Early Session)","genre":null,"price":"$30.00","supports":[],"ticketUrl":null,"time":"11am"},{"categories":["Theatre"],"eDate":"2025-07-12","eName":"Imagine Live","genre":null,"price":"$30.00","supports":[],"ticketUrl":null,"time":" 2pm"},{"categories":["Music"],"eDate":"2025-07-12","eName":"Battle of the Bands: Jamageddon","genre":"Rock","price":"$5.00","supports":[],"ticketUrl":null,"time":" 5:30pm"}],"vName":"Clocktower Centre"},"type":"Feature"},{"geometry":{"coordinates":[144.1430697,-37.3414953],"type":"Point"},"properties":{"events":[{"categories":["Free","Music"],"eDate":"2025-07-12","eName":"Oscar LaDell & Wilson Blackley","genre":"Soul/Funk","price":"Free","supports":[],"ticketUrl":null,"time":" 8:30pm"}],"vName":"Daylesford Hotel"},"type":"Feature"},{"geometry":{"coordinates":[144.9489214,-37.8106039],"type":"Point"},"properties":{"events":[{"categories":["Music"],"eDate":"2025-07-12","eName":"Tarsem Jassar","genre":"Pop","price":"$85.00","supports":[],"ticketUrl":null,"time":" 7pm"}],"vName":"Festival Hall"},"type":"Feature"},{"geometry":{"coordinates":[144.973013,-37.8640582],"type":"Point"},"properties":{"events":[{"categories":["Music"],"eDate":"2025-07-12","eName":"ixaras","genre":"Indie","price":"$28.05 - 38.25","supports":[],"ticketUrl":null,"time":" 1pm"},{"categories":["Music"],"eDate":"2025-07-12","eName":"ixaras (Second Show)","genre":"Indie","price":"$28.05 - 38.25","supports":[],"ticketUrl":null,"time":" 4pm"}],"vName":"Hotel Esplanade (aka The Espy)"},"type":"Feature"},{"geometry":{"coordinates":[145.0008148,-37.8107158],"type":"Point"},"properties":{"events":[{"categories":["Music"],"eDate":"2025-07-12","eName":"NTH RD","genre":"Metal","price":"$22.94","supports":["Broken Earth"," nightlight"," Everlyne"],"ticketUrl":null,"time":" 7pm"}],"vName":"Leadbeater Hotel"},"type":"Feature"},{"geometry":{"coordinates":[145.0355738,-37.8205529],"type":"Point"},"properties":{"events":[{"categories":["Music"],"eDate":"2025-07-12","eName":"Nishla Smith Quartet with Ben Hanlon","genre":"Jazz","price":"$25.00 - 30.00","supports":[],"ticketUrl":null,"time":" 8pm"}],"vName":"Lido Jazz Room"},"type":"Feature"},{"geometry":{"coordinates":[144.8975289,-37.8022392],"type":"Point"},"properties":{"events":[{"categories":["Music"],"eDate":"2025-07-12","eName":"The Seven Ups","genre":null,"price":"$25.00 - 30.00","supports":["LCO"],"ticketUrl":null,"time":" 8pm"}],"vName":"Mamma Chen's"},"type":"Feature"},{"geometry":{"coordinates":[145.0918914,-37.8764952],"type":"Point"},"properties":{"events":[{"categories":["Music","Other \"Dance \"","Other \"Food \""],"eDate":"2025-07-12","eName":"Busta Groove","genre":null,"price":"$15.00","supports":[],"ticketUrl":null,"time":" 8:30pm"}],"vName":"Matthew Flinders Hotel"},"type":"Feature"},{"geometry":{"coordinates":[144.9658499,-37.8147453],"type":"Point"},"properties":{"events":[{"categories":["Music"],"eDate":"2025-07-12","eName":"Absolute Bowie","genre":"Rock","price":"$64.90","supports":[],"ticketUrl":null,"time":" 8pm"}],"vName":"Max Watt's (Melbourne)"},"type":"Feature"},{"geometry":{"coordinates":[144.9675876,-37.8240849],"type":"Point"},"properties":{"events":[{"categories":["Music"],"eDate":"2025-07-12","eName":"Benaud Trio 20th Anniversary Concert (Early Session)","genre":"Classical","price":"$50.00","supports":[],"ticketUrl":null,"time":" 3pm"},{"categories":["Music"],"eDate":"2025-07-12","eName":"Benaud Trio 20th Anniversary Concert","genre":"Classical","price":"$50.00","supports":[],"ticketUrl":null,"time":" 6pm"}],"vName":"Melbourne Recital Centre"},"type":"Feature"},{"geometry":{"coordinates":[144.9790251,-37.8675008],"type":"Point"},"properties":{"events":[{"categories":["Music"],"eDate":"2025-07-12","eName":"Blues Guitar Roadshow","genre":"Blues","price":"$40.00 - 65.00","supports":[],"ticketUrl":null,"time":" 7pm"}],"vName":"Memo Music Hall"},"type":"Feature"},{"geometry":{"coordinates":[144.9982706,-37.7737068],"type":"Point"},"properties":{"events":[{"categories":["Music"],"eDate":"2025-07-12","eName":"Atreyu + Memphis May Fire","genre":"Metal","price":"Free","supports":["Future Static"],"ticketUrl":null,"time":" 7:30pm"}],"vName":"Northcote Theatre"},"type":"Feature"},{"geometry":{"coordinates":[145.0015248,-37.8258878],"type":"Point"},"properties":{"events":[{"categories":["Music"],"eDate":"2025-07-12","eName":"Suburban Spell","genre":"Pop","price":"$23.50","supports":["Double Happiness"],"ticketUrl":null,"time":" 7:30pm"}],"vName":"Odeon Richmond"},"type":"Feature"},{"geometry":{"coordinates":[144.97711,-37.79833],"type":"Point"},"properties":{"events":[{"categories":["Music"],"eDate":"2025-07-12","eName":"The Mundaynes","genre":"Rock","price":"Free","supports":["The Takes"," The Dandy Buzzkills"," Keyo Roses Flying Circus"],"ticketUrl":null,"time":" 8pm"},{"categories":["Music"],"eDate":"2025-07-12","eName":"DJ Danimal","genre":"Electronic","price":"Free","supports":[],"ticketUrl":null,"time":"11:30pm"}],"vName":"Old Bar"},"type":"Feature"},{"geometry":{"coordinates":[144.96084,-37.813514],"type":"Point"},"properties":{"events":[{"categories":["Music"],"eDate":"2025-07-12","eName":"Gregg Arthur: Jazz & Cocktails","genre":"Jazz","price":"$45.00","supports":[],"ticketUrl":null,"time":" 6pm"},{"categories":["Music"],"eDate":"2025-07-12","eName":"Emma Gilmartin Quartet with James Sherlock","genre":"Jazz","price":"$45.00","supports":[],"ticketUrl":null,"time":" 6:30pm"},{"categories":["Music"],"eDate":"2025-07-12","eName":"Nichaud Fitzgibbon presents Songs for Lovers","genre":"Jazz","price":"$45.00","supports":[],"ticketUrl":null,"time":" 9pm"},{"categories":["Music"],"eDate":"2025-07-12","eName":"Eamon Dilworth’s Crawfish Po’Boys","genre":"Jazz","price":"$45.00","supports":[],"ticketUrl":null,"time":" 9:30pm"}],"vName":"Paris Cat Jazz Club"},"type":"Feature"},{"geometry":{"coordinates":[144.9741326,-37.8619943],"type":"Point"},"properties":{"events":[{"categories":["Music"],"eDate":"2025-07-12","eName":"SveTec + Mahtal","genre":"Electronic","price":"$39.80 - 50.00","supports":[],"ticketUrl":null,"time":" 9pm"}],"vName":"Prince Bandroom"},"type":"Feature"},{"geometry":{"coordinates":[144.9615882,-37.7711432],"type":"Point"},"properties":{"events":[{"categories":["Free","Music"],"eDate":"2025-07-12","eName":"Anatreptix","genre":"Global","price":"Free","supports":[],"ticketUrl":null,"time":" 2pm"},{"categories":["Music"],"eDate":"2025-07-12","eName":"Badland Caravan","genre":null,"price":"$17.95","supports":["Astro Elevator"," The Pearlies"],"ticketUrl":null,"time":" 7:30pm"}],"vName":"Retreat Hotel"},"type":"Feature"},{"geometry":{"coordinates":[144.9862196,-37.9091087],"type":"Point"},"properties":{"events":[{"categories":["Music"],"eDate":"2025-07-12","eName":"Olivia & Karen: Jacqui Hamilton and Susie King","genre":"Pop","price":"$50.00","supports":[],"ticketUrl":null,"time":" 8pm"}],"vName":"Royal Brighton Yacht Club"},"type":"Feature"},{"geometry":{"coordinates":[144.965405,-37.8117457],"type":"Point"},"properties":{"events":[{"categories":["Music"],"eDate":"2025-07-12","eName":"Homies","genre":"Electronic","price":"Free","supports":[],"ticketUrl":null,"time":" 6pm"}],"vName":"Section 8"},"type":"Feature"},{"geometry":{"coordinates":[145.0013923,-37.7559265],"type":"Point"},"properties":{"events":[{"categories":["Music"],"eDate":"2025-07-12","eName":"Araminta","genre":null,"price":"$20.00","supports":["Aunty Blue"],"ticketUrl":null,"time":" 8pm"}],"vName":"Shotkickers"},"type":"Feature"},{"geometry":{"coordinates":[144.9607404,-37.7743469],"type":"Point"},"properties":{"events":[{"categories":["Music"],"eDate":"2025-07-12","eName":"Kadikoy Mixtape","genre":"Rock","price":"$25.00","supports":[],"ticketUrl":null,"time":" 7pm"},{"categories":["Music"],"eDate":"2025-07-12","eName":"Indie Sleaze: Trash Party","genre":"Indie","price":"$16.85 - 23.50","supports":[],"ticketUrl":null,"time":"11pm"}],"vName":"Stay Gold"},"type":"Feature"},{"geometry":{"coordinates":[144.32141,-37.38866],"type":"Point"},"properties":{"events":[{"categories":["Free","Music"],"eDate":"2025-07-12","eName":"Emmy Ryan","genre":"Country/Folk","price":"Free","supports":[],"ticketUrl":null,"time":" 3pm"}],"vName":"The Cosmopolitan Hotel"},"type":"Feature"},{"geometry":{"coordinates":[144.9463641,-37.8047757],"type":"Point"},"properties":{"events":[{"categories":["Music"],"eDate":"2025-07-12","eName":"Vicious Circle","genre":"Punk","price":"$11.25","supports":["Resolver"," Resistance"," Blowhole"],"ticketUrl":null,"time":" 8pm"}],"vName":"The Last Chance Rock & Roll Bar"},"type":"Feature"},{"geometry":{"coordinates":[144.9879283,-37.7505509],"type":"Point"},"properties":{"events":[{"categories":["Music"],"eDate":"2025-07-12","eName":"Brendon Siemsen Trio","genre":"Jazz","price":"Free","supports":[],"ticketUrl":null,"time":" 7pm"}],"vName":"The Merri Bar"},"type":"Feature"},{"geometry":{"coordinates":[144.9708437,-37.7973184],"type":"Point"},"properties":{"events":[{"categories":["Music"],"eDate":"2025-07-12","eName":"Motley Jazz Jam","genre":"Jazz","price":"Free","supports":[],"ticketUrl":null,"time":" 7:30pm"},{"categories":["Comedy","Theatre"],"eDate":"2025-07-12","eName":"The Big HOO-HAA!","genre":null,"price":"$32.00","supports":[],"ticketUrl":null,"time":" 8:30pm"}],"vName":"The Motley Bauhaus"},"type":"Feature"},{"geometry":{"coordinates":[145.1818891,-37.8163371],"type":"Point"},"properties":{"events":[{"categories":["Music","Theatre"],"eDate":"2025-07-12","eName":"Waltzing The Wilarra","genre":"Pop","price":"$58.00","supports":[],"ticketUrl":null,"time":" 1:30pm"}],"vName":"The Round"},"type":"Feature"},{"geometry":{"coordinates":[144.9651425,-37.8119429],"type":"Point"},"properties":{"events":[{"categories":["Free","Music"],"eDate":"2025-07-12","eName":"Joey Coco: Club Palisades","genre":"Electronic","price":"Free","supports":[],"ticketUrl":null,"time":"10pm"}],"vName":"The Toff In Town"},"type":"Feature"},{"geometry":{"coordinates":[144.9769451,-37.8055776],"type":"Point"},"properties":{"events":[{"categories":["Music"],"eDate":"2025-07-12","eName":"Fading Hour: The Return","genre":null,"price":"$20.00","supports":["Terrestrials"," Binary Pulse"],"ticketUrl":null,"time":" 8pm"}],"vName":"The Workers Club"},"type":"Feature"},{"geometry":{"coordinates":[144.9984324,-37.7729134],"type":"Point"},"properties":{"events":[{"categories":["Music"],"eDate":"2025-07-12","eName":"Max Bruten Trio","genre":"Jazz","price":"Free","supports":[],"ticketUrl":null,"time":" 6pm"},{"categories":["Music"],"eDate":"2025-07-12","eName":"Frank Sultana","genre":"Blues","price":"$33.70","supports":[],"ticketUrl":null,"time":" 8pm"},{"categories":["Music"],"eDate":"2025-07-12","eName":"Michael Griffen Trio","genre":"Jazz","price":"Free","supports":[],"ticketUrl":null,"time":" 8pm"}],"vName":"Wesley Anne"},"type":"Feature"}],"type":"FeatureCollection"}