{"features":[{"geometry":{"coordinates":[145.0048929,-37.8035316],"type":"Point"},"properties":{"events":[{"categories":["Music"],"eDate":"2025-11-08","eName":"Liquid Architecture presents MINYERRA with Thane Garvey-Gannaway","genre":null,"price":"$25.00","supports":[],"ticketUrl":null,"time":" 7:30pm"}],"vName":"Abbotsford Convent"},"type":"Feature"},{"geometry":{"coordinates":[144.978682,-37.7981225],"type":"Point"},"properties":{"events":[{"categories":["Free","Music"],"eDate":"2025-11-08","eName":"Lewis Toms","genre":null,"price":"Free","supports":[],"ticketUrl":null,"time":" 9pm"}],"vName":"Baxter's Lot"},"type":"Feature"},{"geometry":{"coordinates":[144.9607158,-37.776327],"type":"Point"},"properties":{"events":[{"categories":["Free","Music"],"eDate":"2025-11-08","eName":"Social Disco","genre":null,"price":"Free","supports":[],"ticketUrl":null,"time":" 6pm"},{"categories":["Music"],"eDate":"2025-11-08","eName":"Powder Blue","genre":"Rock","price":"$22.95","supports":["Strawbz"," Norfolk Island Pines"],"ticketUrl":null,"time":" 8pm"}],"vName":"Bergy Bandroom"},"type":"Feature"},{"geometry":{"coordinates":[144.9568039,-37.8111442],"type":"Point"},"properties":{"events":[{"categories":["Music"],"eDate":"2025-11-08","eName":"Dave Hole","genre":"Blues","price":"$50.00","supports":[],"ticketUrl":null,"time":" 6pm"}],"vName":"Bird's Basement"},"type":"Feature"},{"geometry":{"coordinates":[144.9713425,-37.8128595],"type":"Point"},"properties":{"events":[{"categories":["Music"],"eDate":"2025-11-08","eName":"Metallica Pre Drinks & Post Party","genre":"Metal","price":"$20.00","supports":[],"ticketUrl":null,"time":" 2pm"},{"categories":["Music"],"eDate":"2025-11-08","eName":"Louts","genre":"Punk","price":"$17.48","supports":["Crimson Caravan"," Envy Marshall"],"ticketUrl":null,"time":" 8pm"}],"vName":"Cherry Bar"},"type":"Feature"},{"geometry":{"coordinates":[144.9248037,-37.7656716],"type":"Point"},"properties":{"events":[{"categories":["Music","Theatre"],"eDate":"2025-11-08","eName":"ShowBiz Performing Arts Studios presents Night at the Museum (Matinee Session)","genre":"Classical","price":"$49.00","supports":[],"ticketUrl":null,"time":"12pm"},{"categories":["Music","Theatre"],"eDate":"2025-11-08","eName":"ShowBiz Performing Arts Studios presents Night at the Museum","genre":"Classical","price":"$49.00","supports":[],"ticketUrl":null,"time":" 6pm"}],"vName":"Clocktower Centre"},"type":"Feature"},{"geometry":{"coordinates":[144.9926664,-37.8248893],"type":"Point"},"properties":{"events":[{"categories":["Music"],"eDate":"2025-11-08","eName":"James Reyne","genre":"Rock","price":"$70.00","supports":["Taxiride"],"ticketUrl":null,"time":" 8:30pm"}],"vName":"Corner Hotel"},"type":"Feature"},{"geometry":{"coordinates":[144.9785611,-37.7965465],"type":"Point"},"properties":{"events":[{"categories":["Music"],"eDate":"2025-11-08","eName":"Dead Pretty Fest","genre":"Rock","price":"$25.00","supports":["The Mundaynes"," Blondehouse"," Convenience Store"," Laura & The HELL CUTZ"," C.W.A"," Emma Yue"," Tractor Beamz"],"ticketUrl":null,"time":" 4pm"}],"vName":"Evelyn Hotel"},"type":"Feature"},{"geometry":{"coordinates":[144.9693768,-37.8164414],"type":"Point"},"properties":{"events":[{"categories":["Music"],"eDate":"2025-11-08","eName":"The Church","genre":"Rock","price":"Free","supports":[],"ticketUrl":null,"time":" 8pm"}],"vName":"Forum Melbourne"},"type":"Feature"},{"geometry":{"coordinates":[144.9875792,-37.7963739],"type":"Point"},"properties":{"events":[{"categories":["Music"],"eDate":"2025-11-08","eName":"The Lulublues","genre":"Blues","price":"$18.10","supports":["Liam Wright"],"ticketUrl":null,"time":" 8:30pm"}],"vName":"Gem Bar"},"type":"Feature"},{"geometry":{"coordinates":[144.9780305,-37.8599731],"type":"Point"},"properties":{"events":[{"categories":["Music"],"eDate":"2025-11-08","eName":"JOY Rainbow Sessions","genre":"R&B","price":"$18.44","supports":["more"],"ticketUrl":null,"time":" 7pm"}],"vName":"George Lane"},"type":"Feature"},{"geometry":{"coordinates":[144.973013,-37.8640582],"type":"Point"},"properties":{"events":[{"categories":["Music"],"eDate":"2025-11-08","eName":"Lyric","genre":"Pop","price":"$44.40","supports":["Holly Hebe"],"ticketUrl":null,"time":" 3:30pm"},{"categories":["Music"],"eDate":"2025-11-08","eName":"Materia","genre":"Rock","price":"$22.95","supports":["Lucy's Disorder"," Bitch Eyes"],"ticketUrl":null,"time":" 6:30pm"}],"vName":"Hotel Esplanade (aka The Espy)"},"type":"Feature"},{"geometry":{"coordinates":[144.9596527,-37.7720304],"type":"Point"},"properties":{"events":[{"categories":["Music"],"eDate":"2025-11-08","eName":"Helluva Ride III","genre":"Punk","price":"$39.99 - 50.00","supports":["more"],"ticketUrl":null,"time":"12:30pm"}],"vName":"Howler"},"type":"Feature"},{"geometry":{"coordinates":[144.8984802,-37.8111559],"type":"Point"},"properties":{"events":[{"categories":["Music"],"eDate":"2025-11-08","eName":"Rhyme & Grill Block Party","genre":null,"price":"$43.00","supports":["Sista Itations"," DJ Amadeusx"," Sista Sara"," DJ Eyan"," Miss Fee"," Anitra"," more"],"ticketUrl":null,"time":"12pm"}],"vName":"Kindred Bandroom"},"type":"Feature"},{"geometry":{"coordinates":[145.0008148,-37.8107158],"type":"Point"},"properties":{"events":[{"categories":["Music"],"eDate":"2025-11-08","eName":"BreaknBread Battles","genre":"Hip Hop","price":"$23.75 - 37.25","supports":[],"ticketUrl":null,"time":" 7pm"}],"vName":"Leadbeater Hotel"},"type":"Feature"},{"geometry":{"coordinates":[144.9658499,-37.8147453],"type":"Point"},"properties":{"events":[{"categories":["Music"],"eDate":"2025-11-08","eName":"Mild Minds","genre":"Electronic","price":"$53.95","supports":[],"ticketUrl":null,"time":" 8pm"}],"vName":"Max Watt's (Melbourne)"},"type":"Feature"},{"geometry":{"coordinates":[144.9675876,-37.8240849],"type":"Point"},"properties":{"events":[{"categories":["Music"],"eDate":"2025-11-08","eName":"The Voice of the Viola: Fiona Sargeant","genre":"Classical","price":"$57.00 - 105.00","supports":[],"ticketUrl":null,"time":" 7:30pm"}],"vName":"Melbourne Recital Centre"},"type":"Feature"},{"geometry":{"coordinates":[144.9790251,-37.8675008],"type":"Point"},"properties":{"events":[{"categories":["Music"],"eDate":"2025-11-08","eName":"Karise Eden & Greg Gould: Lady & The Tramp","genre":"Jazz","price":"$39.00 - 55.00","supports":[],"ticketUrl":null,"time":" 7pm"}],"vName":"Memo Music Hall"},"type":"Feature"},{"geometry":{"coordinates":[144.998414,-37.771471],"type":"Point"},"properties":{"events":[{"categories":["Music"],"eDate":"2025-11-08","eName":"Youth Group","genre":"Rock","price":"$40.40","supports":["Hannah Cameron"," S-ft F-cus"],"ticketUrl":null,"time":" 8pm"}],"vName":"Northcote Social Club"},"type":"Feature"},{"geometry":{"coordinates":[144.9982706,-37.7737068],"type":"Point"},"properties":{"events":[{"categories":["Music"],"eDate":"2025-11-08","eName":"Blood Incantation + Secret Chiefs 3","genre":"Metal","price":"$87.60","supports":[],"ticketUrl":null,"time":" 7:30pm"}],"vName":"Northcote Theatre"},"type":"Feature"},{"geometry":{"coordinates":[144.97711,-37.79833],"type":"Point"},"properties":{"events":[{"categories":["Music"],"eDate":"2025-11-08","eName":"Tarcutta","genre":"Indie","price":"$17.00","supports":["Cam Butler"," Oceanique"],"ticketUrl":null,"time":" 8pm"}],"vName":"Old Bar"},"type":"Feature"},{"geometry":{"coordinates":[144.96084,-37.813514],"type":"Point"},"properties":{"events":[{"categories":["Music"],"eDate":"2025-11-08","eName":"We May Never Meet Again: The Music Of Amy Winehouse with Elly Poletti","genre":"Jazz","price":"$48.00","supports":[],"ticketUrl":null,"time":" 6pm"},{"categories":["Music"],"eDate":"2025-11-08","eName":"Angela Fabian & The Romans present: A Tribute to the Kings & Queens of Soul","genre":"Soul/Funk","price":"$48.00","supports":[],"ticketUrl":null,"time":" 6:30pm"},{"categories":["Music"],"eDate":"2025-11-08","eName":"Fabulous Diva: The Music of Dr Nina Simone","genre":"Jazz","price":"$45.00","supports":[],"ticketUrl":null,"time":" 9pm"},{"categories":["Music"],"eDate":"2025-11-08","eName":"Georgia Brooks Swingtet","genre":"Jazz","price":"$45.00","supports":[],"ticketUrl":null,"time":" 9:30pm"}],"vName":"Paris Cat Jazz Club"},"type":"Feature"},{"geometry":{"coordinates":[144.9615882,-37.7711432],"type":"Point"},"properties":{"events":[{"categories":["Free","Music"],"eDate":"2025-11-08","eName":"Amy & The Rectifiers","genre":"R&B","price":"Free","supports":[],"ticketUrl":null,"time":" 7pm"}],"vName":"Retreat Hotel"},"type":"Feature"},{"geometry":{"coordinates":[144.9862196,-37.9091087],"type":"Point"},"properties":{"events":[{"categories":["Music"],"eDate":"2025-11-08","eName":"Etta James Meets Eva Cassidy with Nardia Brancatisano","genre":"Soul/Funk","price":"$55.00","supports":[],"ticketUrl":null,"time":" 8pm"}],"vName":"Royal Brighton Yacht Club"},"type":"Feature"},{"geometry":{"coordinates":[145.0013923,-37.7559265],"type":"Point"},"properties":{"events":[{"categories":["Music"],"eDate":"2025-11-08","eName":"Moler","genre":"Punk","price":"$23.45","supports":["KTV"," The Lips"],"ticketUrl":null,"time":" 8pm"}],"vName":"Shotkickers"},"type":"Feature"},{"geometry":{"coordinates":[144.9607404,-37.7743469],"type":"Point"},"properties":{"events":[{"categories":["Music"],"eDate":"2025-11-08","eName":"Coffin Club","genre":"Metal","price":"$17.48","supports":["more"],"ticketUrl":null,"time":" 6pm"},{"categories":["Music"],"eDate":"2025-11-08","eName":"Club 1975: The 1975 Appreciation Night","genre":"Rock","price":"$16.85 - 23.50","supports":[],"ticketUrl":null,"time":"11pm"}],"vName":"Stay Gold"},"type":"Feature"},{"geometry":{"coordinates":[144.32141,-37.38866],"type":"Point"},"properties":{"events":[{"categories":["Free","Music"],"eDate":"2025-11-08","eName":"Marlee Grace","genre":"Acoustic","price":"Free","supports":[],"ticketUrl":null,"time":" 3pm"}],"vName":"The Cosmopolitan Hotel"},"type":"Feature"},{"geometry":{"coordinates":[144.9657057,-37.8061581],"type":"Point"},"properties":{"events":[{"categories":["Music"],"eDate":"2025-11-08","eName":"Glenn Richards","genre":"Indie","price":"$38.70","supports":["Marcus Teague"],"ticketUrl":null,"time":" 8pm"}],"vName":"The Curtin"},"type":"Feature"},{"geometry":{"coordinates":[144.9463641,-37.8047757],"type":"Point"},"properties":{"events":[{"categories":["Music"],"eDate":"2025-11-08","eName":"Lean In","genre":"Metal","price":"$22.44","supports":["Variant"," Atriox"],"ticketUrl":null,"time":" 8:30pm"}],"vName":"The Last Chance Rock & Roll Bar"},"type":"Feature"},{"geometry":{"coordinates":[144.9998797,-37.7616512],"type":"Point"},"properties":{"events":[{"categories":["Music"],"eDate":"2025-11-08","eName":"Josh Light & The Unfurling","genre":"Country/Folk","price":"Free","supports":[],"ticketUrl":null,"time":" 8pm"}],"vName":"The Thornbury Local"},"type":"Feature"},{"geometry":{"coordinates":[144.9769451,-37.8055776],"type":"Point"},"properties":{"events":[{"categories":["Music"],"eDate":"2025-11-08","eName":"Amalia","genre":"Rock","price":"$23.50","supports":["SCâ˜†RLET"," Zoe Koul"],"ticketUrl":null,"time":" 1pm"},{"categories":["Music"],"eDate":"2025-11-08","eName":"Wetwork + Stressed","genre":"Metal","price":"$23.50","supports":["Gravitate"," Ends in Tragedy"," Out Of Spite"],"ticketUrl":null,"time":" 8pm"}],"vName":"The Workers Club"},"type":"Feature"},{"geometry":{"coordinates":[144.9661635,-37.8176298],"type":"Point"},"properties":{"events":[{"categories":["Music"],"eDate":"2025-11-08","eName":"Overdrive Mag Presents Mirasia & Stev Zar","genre":"Electronic","price":"$16.45 - 31.25","supports":["Blinky"," Love Jess"],"ticketUrl":null,"time":" 9pm"}],"vName":"Wax Music Lounge"},"type":"Feature"}],"type":"FeatureCollection"}