{"features":[{"geometry":{"coordinates":[144.9500257,-37.8032773],"type":"Point"},"properties":{"events":[{"categories":["Music","Theatre","Other \"Art \""],"eDate":"2025-07-26","eName":"The Blowout","genre":"Electronic","price":"$40.00","supports":[],"ticketUrl":null,"time":" 4pm"}],"vName":"Arts House"},"type":"Feature"},{"geometry":{"coordinates":[144.978682,-37.7981225],"type":"Point"},"properties":{"events":[{"categories":["Free","Music"],"eDate":"2025-07-26","eName":"Lewis Ciavarella","genre":null,"price":"Free","supports":[],"ticketUrl":null,"time":" 9pm"}],"vName":"Baxter's Lot"},"type":"Feature"},{"geometry":{"coordinates":[144.9891167,-37.7996488],"type":"Point"},"properties":{"events":[{"categories":["Music"],"eDate":"2025-07-26","eName":"Eclipse: Metal Club Night at The Bendi","genre":"Metal","price":"$12.25 - 17.35","supports":[],"ticketUrl":null,"time":" 9pm"}],"vName":"Bendigo Hotel"},"type":"Feature"},{"geometry":{"coordinates":[144.9568039,-37.8111442],"type":"Point"},"properties":{"events":[{"categories":["Music"],"eDate":"2025-07-26","eName":"Grand Wazoo","genre":"Soul/Funk","price":"$55.00","supports":[],"ticketUrl":null,"time":" 7:30pm"}],"vName":"Bird's Basement"},"type":"Feature"},{"geometry":{"coordinates":[144.9617083,-37.7704205],"type":"Point"},"properties":{"events":[{"categories":["Music"],"eDate":"2025-07-26","eName":"Love Électrique: The Singles Winter Ball","genre":"Soul/Funk","price":"$126.07","supports":[],"ticketUrl":null,"time":" 7pm"}],"vName":"Brunswick Ballroom"},"type":"Feature"},{"geometry":{"coordinates":[145.0006883,-37.8838373],"type":"Point"},"properties":{"events":[{"categories":["Music"],"eDate":"2025-07-26","eName":"The Jackie Bornstein Quartet","genre":"Jazz","price":"$25.00 - 30.00","supports":[],"ticketUrl":null,"time":" 8pm"}],"vName":"Classic Southside"},"type":"Feature"},{"geometry":{"coordinates":[144.9248037,-37.7656716],"type":"Point"},"properties":{"events":[{"categories":["Music"],"eDate":"2025-07-26","eName":"Melbourne 2025 International Elvis Festival (Early Session)","genre":"Rock","price":"$59.90","supports":[],"ticketUrl":null,"time":" 2pm"}],"vName":"Clocktower Centre"},"type":"Feature"},{"geometry":{"coordinates":[144.9875792,-37.7963739],"type":"Point"},"properties":{"events":[{"categories":["Music"],"eDate":"2025-07-26","eName":"Charlie Lane","genre":null,"price":"$18.00","supports":["Ethan Conway"],"ticketUrl":null,"time":" 8:30pm"}],"vName":"Gem Bar"},"type":"Feature"},{"geometry":{"coordinates":[144.9780305,-37.8599731],"type":"Point"},"properties":{"events":[{"categories":["Music"],"eDate":"2025-07-26","eName":"The Tonalists","genre":"Rock","price":"$10.00","supports":[],"ticketUrl":null,"time":" 7pm"}],"vName":"George Lane"},"type":"Feature"},{"geometry":{"coordinates":[144.983442,-37.804851],"type":"Point"},"properties":{"events":[{"categories":["Music"],"eDate":"2025-07-26","eName":"Scorched Axis & The Grace Darling present: A Night Outside the Frame","genre":"Experimental","price":"$20.00 - 30.00","supports":["more"],"ticketUrl":null,"time":" 6pm"}],"vName":"Grace Darling Hotel"},"type":"Feature"},{"geometry":{"coordinates":[144.973013,-37.8640582],"type":"Point"},"properties":{"events":[{"categories":["Music"],"eDate":"2025-07-26","eName":"British & Irish Lions Vs. Wallabies Rugby Pre-Game Party","genre":"Rock","price":"$22.95","supports":[],"ticketUrl":null,"time":" 3pm"},{"categories":["Music"],"eDate":"2025-07-26","eName":"Them & I","genre":"Indie","price":"Free","supports":[],"ticketUrl":null,"time":" 3:30pm"}],"vName":"Hotel Esplanade (aka The Espy)"},"type":"Feature"},{"geometry":{"coordinates":[145.0008148,-37.8107158],"type":"Point"},"properties":{"events":[{"categories":["Music"],"eDate":"2025-07-26","eName":"Black Majesty","genre":"Metal","price":"$28.85","supports":[],"ticketUrl":null,"time":" 8pm"}],"vName":"Leadbeater Hotel"},"type":"Feature"},{"geometry":{"coordinates":[145.0355738,-37.8205529],"type":"Point"},"properties":{"events":[{"categories":["Music"],"eDate":"2025-07-26","eName":"Jennifer Salisbury sings Doris Day","genre":"Jazz","price":"$25.00 - 30.00","supports":[],"ticketUrl":null,"time":" 8pm"}],"vName":"Lido Jazz Room"},"type":"Feature"},{"geometry":{"coordinates":[144.998414,-37.771471],"type":"Point"},"properties":{"events":[{"categories":["Music"],"eDate":"2025-07-26","eName":"The Deans of Soul","genre":"Soul/Funk","price":"$24.00","supports":["Candice Lorrae"," Pirrutu & Band"],"ticketUrl":null,"time":" 8pm"}],"vName":"Northcote Social Club"},"type":"Feature"},{"geometry":{"coordinates":[145.0015248,-37.8258878],"type":"Point"},"properties":{"events":[{"categories":["Music"],"eDate":"2025-07-26","eName":"EORTI (Celebration) Greek Festival: Day 2, Live Band","genre":"Global","price":"$44.90","supports":[],"ticketUrl":null,"time":" 7pm"}],"vName":"Odeon Richmond"},"type":"Feature"},{"geometry":{"coordinates":[144.97711,-37.79833],"type":"Point"},"properties":{"events":[{"categories":["Music"],"eDate":"2025-07-26","eName":"Hyla","genre":"Rock","price":"Free","supports":[],"ticketUrl":null,"time":" 8pm"}],"vName":"Old Bar"},"type":"Feature"},{"geometry":{"coordinates":[144.96084,-37.813514],"type":"Point"},"properties":{"events":[{"categories":["Music"],"eDate":"2025-07-26","eName":"Not So Big Band: A New Take on Disney","genre":"Jazz","price":"$45.00","supports":[],"ticketUrl":null,"time":" 6pm"},{"categories":["Music"],"eDate":"2025-07-26","eName":"The Aretha Franklin Project with Joys Njambi","genre":"Jazz","price":"$45.00","supports":[],"ticketUrl":null,"time":" 6:30pm"},{"categories":["Music"],"eDate":"2025-07-26","eName":"All I Ask: Elly Poletti Sings Adele","genre":"Soul/Funk","price":"$48.00","supports":[],"ticketUrl":null,"time":" 9pm"},{"categories":["Music"],"eDate":"2025-07-26","eName":"Richard Pavlidis Quartet","genre":"Jazz","price":"$45.00","supports":[],"ticketUrl":null,"time":" 9:30pm"}],"vName":"Paris Cat Jazz Club"},"type":"Feature"},{"geometry":{"coordinates":[144.993413,-37.8506652],"type":"Point"},"properties":{"events":[{"categories":["Music"],"eDate":"2025-07-26","eName":"The Late Show","genre":"Electronic","price":"$26.52","supports":[],"ticketUrl":null,"time":"10pm"}],"vName":"Revolver Upstairs"},"type":"Feature"},{"geometry":{"coordinates":[144.9862196,-37.9091087],"type":"Point"},"properties":{"events":[{"categories":["Music"],"eDate":"2025-07-26","eName":"A Night in Italy: Bella Italia","genre":"Jazz","price":"$50.00","supports":[],"ticketUrl":null,"time":" 8pm"}],"vName":"Royal Brighton Yacht Club"},"type":"Feature"},{"geometry":{"coordinates":[145.0013923,-37.7559265],"type":"Point"},"properties":{"events":[{"categories":["Music"],"eDate":"2025-07-26","eName":"mumfighter","genre":"Hip Hop","price":"$23.45","supports":[],"ticketUrl":null,"time":" 8pm"}],"vName":"Shotkickers"},"type":"Feature"},{"geometry":{"coordinates":[144.9607404,-37.7743469],"type":"Point"},"properties":{"events":[{"categories":["Music"],"eDate":"2025-07-26","eName":"Legends Never Die: Juice WRLD Appreciation Night","genre":"Hip Hop","price":"$16.85 - 23.50","supports":[],"ticketUrl":null,"time":"11pm"}],"vName":"Stay Gold"},"type":"Feature"},{"geometry":{"coordinates":[144.9751557,-37.8057885],"type":"Point"},"properties":{"events":[{"categories":["Music"],"eDate":"2025-07-26","eName":"Dead Pretty presents “Make It Cheap” Launch Party","genre":"Rock","price":"$15.00","supports":["Special Guest"," Convenience Store"],"ticketUrl":null,"time":" 8pm"}],"vName":"The Catfish"},"type":"Feature"},{"geometry":{"coordinates":[144.32141,-37.38866],"type":"Point"},"properties":{"events":[{"categories":["Free","Music"],"eDate":"2025-07-26","eName":"Pete Daly","genre":"Country/Folk","price":"Free","supports":[],"ticketUrl":null,"time":" 3pm"}],"vName":"The Cosmopolitan Hotel"},"type":"Feature"},{"geometry":{"coordinates":[144.9657057,-37.8061581],"type":"Point"},"properties":{"events":[{"categories":["Music"],"eDate":"2025-07-26","eName":"Karl Frog","genre":"Indie","price":"Free","supports":["Sleeper & Snake"],"ticketUrl":null,"time":" 2:30pm"},{"categories":["Music"],"eDate":"2025-07-26","eName":"Birdsnake","genre":null,"price":"$22.00","supports":["Komang"," Banksia"," Jon Jones"],"ticketUrl":null,"time":" 8pm"}],"vName":"The Curtin"},"type":"Feature"},{"geometry":{"coordinates":[144.9463641,-37.8047757],"type":"Point"},"properties":{"events":[{"categories":["Music"],"eDate":"2025-07-26","eName":"A.U.D.I.O","genre":"Experimental","price":"$16.35","supports":["Blyss"," Morningbirds"],"ticketUrl":null,"time":" 3pm"}],"vName":"The Last Chance Rock & Roll Bar"},"type":"Feature"},{"geometry":{"coordinates":[144.9879283,-37.7505509],"type":"Point"},"properties":{"events":[{"categories":["Music"],"eDate":"2025-07-26","eName":"Fawkner Walking Society","genre":"Acoustic","price":"Free","supports":[],"ticketUrl":null,"time":" 7pm"}],"vName":"The Merri Bar"},"type":"Feature"},{"geometry":{"coordinates":[144.9708437,-37.7973184],"type":"Point"},"properties":{"events":[{"categories":["Music"],"eDate":"2025-07-26","eName":"Motley Jazz Jam","genre":"Jazz","price":"Free","supports":[],"ticketUrl":null,"time":" 7:30pm"},{"categories":["Comedy","Theatre"],"eDate":"2025-07-26","eName":"The Big HOO-HAA!","genre":null,"price":"$32.00","supports":[],"ticketUrl":null,"time":" 8:30pm"}],"vName":"The Motley Bauhaus"},"type":"Feature"},{"geometry":{"coordinates":[144.9531861,-37.7734411],"type":"Point"},"properties":{"events":[{"categories":["Free","Music"],"eDate":"2025-07-26","eName":"Rich Webb & The Liars","genre":"Country/Folk","price":"Free","supports":[],"ticketUrl":null,"time":" 5pm"}],"vName":"Union Hotel Brunswick"},"type":"Feature"},{"geometry":{"coordinates":[144.9984324,-37.7729134],"type":"Point"},"properties":{"events":[{"categories":["Music"],"eDate":"2025-07-26","eName":"Wes 22: Indie Sleaze","genre":"Indie","price":"Free","supports":[],"ticketUrl":null,"time":" 2pm"}],"vName":"Wesley Anne"},"type":"Feature"}],"type":"FeatureCollection"}