{"features":[{"geometry":{"coordinates":[144.9982812,-37.7713296],"type":"Point"},"properties":{"events":[{"categories":["Music"],"eDate":"2025-05-24","eName":"Disgruntled Civil Servant","genre":"Punk","price":"$15.00","supports":["Foley"," The Crop Tops"," No Body No Spirit"],"ticketUrl":null,"time":" 8pm"}],"vName":"Bar 303"},"type":"Feature"},{"geometry":{"coordinates":[144.978682,-37.7981225],"type":"Point"},"properties":{"events":[{"categories":["Free","Music"],"eDate":"2025-05-24","eName":"Lewis Toms","genre":null,"price":"Free","supports":[],"ticketUrl":null,"time":" 9pm"},{"categories":["Free","Music"],"eDate":"2025-05-24","eName":"DJ Nomar Jr","genre":null,"price":"Free","supports":[],"ticketUrl":null,"time":"10pm"}],"vName":"Baxter's Lot"},"type":"Feature"},{"geometry":{"coordinates":[144.9891167,-37.7996488],"type":"Point"},"properties":{"events":[{"categories":["Music"],"eDate":"2025-05-24","eName":"Thraxas!","genre":"Metal","price":"$17.35","supports":["Alarum"," Katana Cartel"," Firing Squad"],"ticketUrl":null,"time":" 8pm"}],"vName":"Bendigo Hotel"},"type":"Feature"},{"geometry":{"coordinates":[144.9607158,-37.776327],"type":"Point"},"properties":{"events":[{"categories":["Music"],"eDate":"2025-05-24","eName":"Mid Drift","genre":"Rock","price":"Free","supports":[],"ticketUrl":null,"time":" 8pm"}],"vName":"Bergy Bandroom"},"type":"Feature"},{"geometry":{"coordinates":[144.9568039,-37.8111442],"type":"Point"},"properties":{"events":[{"categories":["Music"],"eDate":"2025-05-24","eName":"Deborah Conway & Willy Zygier","genre":"Jazz","price":"$50.00","supports":[],"ticketUrl":null,"time":" 6pm"}],"vName":"Bird's Basement"},"type":"Feature"},{"geometry":{"coordinates":[144.9617083,-37.7704205],"type":"Point"},"properties":{"events":[{"categories":["Music"],"eDate":"2025-05-24","eName":"The Melbourne Soul Weekender","genre":"Soul/Funk","price":"$28.15","supports":[],"ticketUrl":null,"time":" 8pm"}],"vName":"Brunswick Ballroom"},"type":"Feature"},{"geometry":{"coordinates":[144.9248037,-37.7656716],"type":"Point"},"properties":{"events":[{"categories":["Music","Theatre"],"eDate":"2025-05-24","eName":"The Addams Family (Matinee Session)","genre":"Pop","price":"$55.00","supports":[],"ticketUrl":null,"time":" 1pm"}],"vName":"Clocktower Centre"},"type":"Feature"},{"geometry":{"coordinates":[144.9668096,-37.8133834],"type":"Point"},"properties":{"events":[{"categories":["Comedy"],"eDate":"2025-05-24","eName":"Michael Shafar: Inappropriate","genre":null,"price":"$30.00","supports":[],"ticketUrl":null,"time":" 6:30pm"}],"vName":"Comedy Republic"},"type":"Feature"},{"geometry":{"coordinates":[144.9693768,-37.8164414],"type":"Point"},"properties":{"events":[{"categories":["Music"],"eDate":"2025-05-24","eName":"Floodlights","genre":"Rock","price":"$57.50","supports":[],"ticketUrl":null,"time":" 7pm"}],"vName":"Forum Melbourne"},"type":"Feature"},{"geometry":{"coordinates":[144.9875792,-37.7963739],"type":"Point"},"properties":{"events":[{"categories":["Free","Music"],"eDate":"2025-05-24","eName":"Assteroid + The Pearlies","genre":"Rock","price":"Free","supports":[],"ticketUrl":null,"time":" 4pm"},{"categories":["Music"],"eDate":"2025-05-24","eName":"Tape/Off","genre":"Rock","price":"$19.65","supports":[],"ticketUrl":null,"time":" 8pm"}],"vName":"Gem Bar"},"type":"Feature"},{"geometry":{"coordinates":[144.9679835,-37.8201575],"type":"Point"},"properties":{"events":[{"categories":["Music"],"eDate":"2025-05-24","eName":"Star Wars: The Force Awakens in Concert","genre":"Classical","price":"$86.00 - 150.00","supports":[],"ticketUrl":null,"time":" 1pm"}],"vName":"Hamer Hall (Arts Centre Melbourne)"},"type":"Feature"},{"geometry":{"coordinates":[144.973013,-37.8640582],"type":"Point"},"properties":{"events":[{"categories":["Music"],"eDate":"2025-05-24","eName":"Jad Pinnone","genre":null,"price":"$22.95","supports":["Luke Kosza≈Ñski"," Huich Goh"],"ticketUrl":null,"time":" 7pm"}],"vName":"Hotel Esplanade (aka The Espy)"},"type":"Feature"},{"geometry":{"coordinates":[145.0008148,-37.8107158],"type":"Point"},"properties":{"events":[{"categories":["Music"],"eDate":"2025-05-24","eName":"Austere","genre":"Metal","price":"$41.85","supports":["Skuggor"," Paroxysmal Descent"],"ticketUrl":null,"time":" 7:30pm"}],"vName":"Leadbeater Hotel"},"type":"Feature"},{"geometry":{"coordinates":[144.8975289,-37.8022392],"type":"Point"},"properties":{"events":[{"categories":["Music"],"eDate":"2025-05-24","eName":"Veronica Greene","genre":null,"price":"$15.00 - 20.00","supports":["Mac & The Steeze"," Kaiyah Mercedes"],"ticketUrl":null,"time":" 7:30pm"}],"vName":"Mamma Chen's"},"type":"Feature"},{"geometry":{"coordinates":[144.9658499,-37.8147453],"type":"Point"},"properties":{"events":[{"categories":["Music"],"eDate":"2025-05-24","eName":"DISCO CLUB: Melbourne","genre":"Electronic","price":"Free","supports":[],"ticketUrl":null,"time":" 6pm"}],"vName":"Max Watt's (Melbourne)"},"type":"Feature"},{"geometry":{"coordinates":[144.9675876,-37.8240849],"type":"Point"},"properties":{"events":[{"categories":["Music"],"eDate":"2025-05-24","eName":"Joan As Police Woman","genre":"Rock","price":"$99.00","supports":[],"ticketUrl":null,"time":" 8pm"}],"vName":"Melbourne Recital Centre"},"type":"Feature"},{"geometry":{"coordinates":[144.9712356,-37.812902],"type":"Point"},"properties":{"events":[{"categories":["Comedy"],"eDate":"2025-05-24","eName":"Basement Comedy Club","genre":null,"price":"$25.00","supports":[],"ticketUrl":null,"time":" 8pm"}],"vName":"Morris House"},"type":"Feature"},{"geometry":{"coordinates":[144.9982706,-37.7737068],"type":"Point"},"properties":{"events":[{"categories":["Music"],"eDate":"2025-05-24","eName":"D-A-D","genre":"Rock","price":"$89.90","supports":[],"ticketUrl":null,"time":" 8pm"}],"vName":"Northcote Theatre"},"type":"Feature"},{"geometry":{"coordinates":[145.0015248,-37.8258878],"type":"Point"},"properties":{"events":[{"categories":["Music"],"eDate":"2025-05-24","eName":"Opelousas","genre":"Blues","price":"$23.50","supports":["Anna Scionti"],"ticketUrl":null,"time":" 7pm"}],"vName":"Odeon Richmond"},"type":"Feature"},{"geometry":{"coordinates":[144.97711,-37.79833],"type":"Point"},"properties":{"events":[{"categories":["Music"],"eDate":"2025-05-24","eName":"Field Monuments","genre":"Rock","price":"Free","supports":["Ben Birchall"],"ticketUrl":null,"time":" 4pm"}],"vName":"Old Bar"},"type":"Feature"},{"geometry":{"coordinates":[144.96084,-37.813514],"type":"Point"},"properties":{"events":[{"categories":["Music"],"eDate":"2025-05-24","eName":"Elly Poletti Sings Motown","genre":"Jazz","price":"$45.00","supports":[],"ticketUrl":null,"time":" 6pm"},{"categories":["Music"],"eDate":"2025-05-24","eName":"Alanna & Old Hat","genre":"Jazz","price":"$45.00","supports":[],"ticketUrl":null,"time":" 6:30pm"},{"categories":["Music"],"eDate":"2025-05-24","eName":"Groove Congress: Snarky Puppy","genre":"Jazz","price":"$45.00","supports":[],"ticketUrl":null,"time":" 9pm"},{"categories":["Music"],"eDate":"2025-05-24","eName":"Andrew Swann sings The Ray Charles Songbook","genre":"Blues","price":"$45.00","supports":[],"ticketUrl":null,"time":" 9:30pm"}],"vName":"Paris Cat Jazz Club"},"type":"Feature"},{"geometry":{"coordinates":[144.9661336,-37.7358243],"type":"Point"},"properties":{"events":[{"categories":["Music"],"eDate":"2025-05-24","eName":"Spoonful","genre":"Rock","price":"Free","supports":[],"ticketUrl":null,"time":" 9pm"}],"vName":"Post Office Hotel"},"type":"Feature"},{"geometry":{"coordinates":[145.4746034,-37.6844552],"type":"Point"},"properties":{"events":[{"categories":["Free","Music"],"eDate":"2025-05-24","eName":"Live Music at Il Vigneto: Archer","genre":"Country/Folk","price":"Free","supports":[],"ticketUrl":null,"time":" 6pm"}],"vName":"Rochford Concert Lounge"},"type":"Feature"},{"geometry":{"coordinates":[144.9862196,-37.9091087],"type":"Point"},"properties":{"events":[{"categories":["Music"],"eDate":"2025-05-24","eName":"Kylie Minogue & Robbie Williams: The Abbey Rd. Sessions","genre":"Pop","price":"$55.00","supports":[],"ticketUrl":null,"time":" 8:30pm"}],"vName":"Royal Brighton Yacht Club"},"type":"Feature"},{"geometry":{"coordinates":[145.3534507,-37.9100746],"type":"Point"},"properties":{"events":[{"categories":["Music"],"eDate":"2025-05-24","eName":"Mind to Mulch","genre":"Metal","price":"$18.40","supports":["Spoof Maggots"],"ticketUrl":null,"time":" 4:30pm"},{"categories":["Music"],"eDate":"2025-05-24","eName":"HDC with Charlie Shells","genre":"Electronic","price":"$20.00","supports":[],"ticketUrl":null,"time":" 9pm"}],"vName":"Sooki Lounge"},"type":"Feature"},{"geometry":{"coordinates":[144.9607404,-37.7743469],"type":"Point"},"properties":{"events":[{"categories":["Music"],"eDate":"2025-05-24","eName":"Cherry Bomb X Smut X Bonez","genre":"Punk","price":"$23.50 - 28.60","supports":[],"ticketUrl":null,"time":" 7pm"}],"vName":"Stay Gold"},"type":"Feature"},{"geometry":{"coordinates":[144.9586498,-37.766903],"type":"Point"},"properties":{"events":[{"categories":["Music"],"eDate":"2025-05-24","eName":"Lucy Gale","genre":"Jazz","price":"$35.00 - 40.00","supports":[],"ticketUrl":null,"time":" 8pm"}],"vName":"The Jazzlab"},"type":"Feature"},{"geometry":{"coordinates":[144.9879283,-37.7505509],"type":"Point"},"properties":{"events":[{"categories":["Music"],"eDate":"2025-05-24","eName":"Kier Stevens","genre":"Acoustic","price":"Free","supports":[],"ticketUrl":null,"time":" 7pm"}],"vName":"The Merri Bar"},"type":"Feature"},{"geometry":{"coordinates":[144.9708437,-37.7973184],"type":"Point"},"properties":{"events":[{"categories":["Music"],"eDate":"2025-05-24","eName":"Motley Jazz Jam","genre":"Jazz","price":"Free","supports":[],"ticketUrl":null,"time":" 7:30pm"},{"categories":["Comedy","Theatre"],"eDate":"2025-05-24","eName":"The Big HOO-HAA!","genre":null,"price":"$32.00","supports":[],"ticketUrl":null,"time":" 8:30pm"}],"vName":"The Motley Bauhaus"},"type":"Feature"},{"geometry":{"coordinates":[144.9794553,-37.7982653],"type":"Point"},"properties":{"events":[{"categories":["Music"],"eDate":"2025-05-24","eName":"Vaudeville Smash","genre":"Soul/Funk","price":"$36.70","supports":[],"ticketUrl":null,"time":" 7:30pm"}],"vName":"The Night Cat"},"type":"Feature"},{"geometry":{"coordinates":[145.1818891,-37.8163371],"type":"Point"},"properties":{"events":[{"categories":["Theatre"],"eDate":"2025-05-24","eName":"Scenes From The Climate Era","genre":null,"price":"$52.00","supports":[],"ticketUrl":null,"time":" 1:30pm"}],"vName":"The Round"},"type":"Feature"},{"geometry":{"coordinates":[144.9651425,-37.8119429],"type":"Point"},"properties":{"events":[{"categories":["Music"],"eDate":"2025-05-24","eName":"Lucas Boston & Friends","genre":"Electronic","price":"$26.01","supports":["Bones"," Charlotte Rooney"],"ticketUrl":null,"time":"10pm"}],"vName":"The Toff In Town"},"type":"Feature"},{"geometry":{"coordinates":[144.9870814,-37.799406],"type":"Point"},"properties":{"events":[{"categories":["Free","Music"],"eDate":"2025-05-24","eName":"Localles","genre":"Rock","price":"Free","supports":["The Hybernators"," Lava Fangs"],"ticketUrl":null,"time":" 3pm"},{"categories":["Music"],"eDate":"2025-05-24","eName":"Couch Wizard","genre":"Punk","price":"$23.50","supports":["Return to Nagoya"," more"],"ticketUrl":null,"time":" 7pm"}],"vName":"The Tote Hotel"},"type":"Feature"},{"geometry":{"coordinates":[144.9769451,-37.8055776],"type":"Point"},"properties":{"events":[{"categories":["Music"],"eDate":"2025-05-24","eName":"Barbarion","genre":"Rock","price":"$23.50","supports":["Toga Rock"],"ticketUrl":null,"time":" 1pm"}],"vName":"The Workers Club"},"type":"Feature"}],"type":"FeatureCollection"}