{"features":[{"geometry":{"coordinates":[145.0049159,-37.8035366],"type":"Point"},"properties":{"events":[{"categories":["Art"],"eDate":"2024-05-17","eName":"The Word by St Martins","genre":null,"price":"$0.00 - 60.00","supports":[],"ticketUrl":null,"time":" 7:30pm"}],"vName":"Abbotsford Convent"},"type":"Feature"},{"geometry":{"coordinates":[144.9763781,-37.7983136],"type":"Point"},"properties":{"events":[{"categories":["Music"],"eDate":"2024-05-17","eName":"GetJaxxed","genre":null,"price":"$16.53","supports":["Emma Yue"," Danger Den"," Orphix"],"ticketUrl":null,"time":" 7:30pm"}],"vName":"Bad Decisions Bar"},"type":"Feature"},{"geometry":{"coordinates":[144.9713425,-37.8128595],"type":"Point"},"properties":{"events":[{"categories":["Free","Music"],"eDate":"2024-05-17","eName":"British India DJ / Set After Party","genre":"Rock","price":"Free","supports":[],"ticketUrl":null,"time":" 9pm"}],"vName":"Cherry Bar"},"type":"Feature"},{"geometry":{"coordinates":[144.99266639479475,-37.82488935],"type":"Point"},"properties":{"events":[{"categories":["Music"],"eDate":"2024-05-17","eName":"British India","genre":"Rock","price":"$46.00","supports":[],"ticketUrl":null,"time":" 8:30pm"}],"vName":"Corner Hotel"},"type":"Feature"},{"geometry":{"coordinates":[144.9764962,-37.7983139],"type":"Point"},"properties":{"events":[{"categories":["Music"],"eDate":"2024-05-17","eName":"East Coast Kings","genre":"Hip Hop","price":"$35.00","supports":[],"ticketUrl":null,"time":" 9pm"},{"categories":["Music"],"eDate":"2024-05-17","eName":"CLASSIX Fridays","genre":"Hip Hop","price":"$11.36","supports":[],"ticketUrl":null,"time":"10pm"},{"categories":["Music"],"eDate":"2024-05-17","eName":"I Love It - Aussie Hip Hop Party","genre":"Hip Hop","price":"$11.36","supports":[],"ticketUrl":null,"time":"10pm"}],"vName":"Laundry Bar"},"type":"Feature"},{"geometry":{"coordinates":[144.8971518,-37.8054274],"type":"Point"},"properties":{"events":[{"categories":["Free","Music"],"eDate":"2024-05-17","eName":"Heavy In Heart & Sound: Fundraiser For Olive Kids","genre":null,"price":"$15.00 - 20.00","supports":["PROKOP"," Genevieve Fry"," Theyhem"," Lilly Of The Valley"],"ticketUrl":null,"time":" 7pm"}],"vName":"Mamma Chen's"},"type":"Feature"},{"geometry":{"coordinates":[144.96741062735794,-37.82454855],"type":"Point"},"properties":{"events":[{"categories":["Music"],"eDate":"2024-05-17","eName":"Nat Bartsch Quartet","genre":"Acoustic","price":"$37.00","supports":[],"ticketUrl":null,"time":" 7pm"},{"categories":["Music"],"eDate":"2024-05-17","eName":"Martha Wainwright","genre":"Country/Folk","price":"$90.00","supports":[],"ticketUrl":null,"time":" 8pm"}],"vName":"Melbourne Recital Centre"},"type":"Feature"},{"geometry":{"coordinates":[145.3553553,-37.9078552],"type":"Point"},"properties":{"events":[{"categories":["Free","Music"],"eDate":"2024-05-17","eName":"Zak Shepherd","genre":"Acoustic","price":"Free","supports":[],"ticketUrl":null,"time":" 7pm"}],"vName":"Micawber Tavern"},"type":"Feature"},{"geometry":{"coordinates":[144.998414,-37.771471],"type":"Point"},"properties":{"events":[{"categories":["Music"],"eDate":"2024-05-17","eName":"Cats & The Canary","genre":"Jazz","price":"$25.00","supports":["Heirs of Apollo"],"ticketUrl":null,"time":" 8:30pm"}],"vName":"Northcote Social Club"},"type":"Feature"},{"geometry":{"coordinates":[144.9605705,-37.8132486],"type":"Point"},"properties":{"events":[{"categories":["Music"],"eDate":"2024-05-17","eName":"Annemarie Sharry's BOSSARACH with Bob Sedergreen","genre":"Jazz","price":"$35.00","supports":[],"ticketUrl":null,"time":" 5:30pm"},{"categories":["Music"],"eDate":"2024-05-17","eName":"Dany Maia Presents: A Tribute to Elis Regina","genre":"Jazz","price":"$45.00","supports":[],"ticketUrl":null,"time":" 6pm"},{"categories":["Music"],"eDate":"2024-05-17","eName":"The Russ Spiegel Quintet","genre":"Jazz","price":"$40.00","supports":[],"ticketUrl":null,"time":" 8:30pm"},{"categories":["Music"],"eDate":"2024-05-17","eName":"Tamara Kuldin's To Ella with Love","genre":"Jazz","price":"$45.00","supports":[],"ticketUrl":null,"time":" 9pm"}],"vName":"Paris Cat Jazz Club"},"type":"Feature"},{"geometry":{"coordinates":[144.993413,-37.8506652],"type":"Point"},"properties":{"events":[{"categories":["Music"],"eDate":"2024-05-17","eName":"Such A Daze","genre":"Rock","price":"$16.32","supports":["Malibu Spacey"," Fight The Sun"],"ticketUrl":null,"time":" 7pm"}],"vName":"Revolver Upstairs"},"type":"Feature"},{"geometry":{"coordinates":[144.9631913,-37.7617818],"type":"Point"},"properties":{"events":[{"categories":["Free","Music"],"eDate":"2024-05-17","eName":"Blue Mode + Propane Trio","genre":"Jazz","price":"Free","supports":[],"ticketUrl":null,"time":" 8pm"}],"vName":"Ringo Barr"},"type":"Feature"},{"geometry":{"coordinates":[144.9706095,-37.7783326],"type":"Point"},"properties":{"events":[{"categories":["Music"],"eDate":"2024-05-17","eName":"Munted Chunts","genre":null,"price":"Free","supports":["The Rartel"],"ticketUrl":null,"time":" 6pm"}],"vName":"The Beast"},"type":"Feature"},{"geometry":{"coordinates":[144.9657057,-37.8061581],"type":"Point"},"properties":{"events":[{"categories":["Music"],"eDate":"2024-05-17","eName":"The Groundswell","genre":"Rock","price":"$14.80","supports":["Erica Avenue Band"," Vollie"],"ticketUrl":null,"time":" 8pm"}],"vName":"The Curtin"},"type":"Feature"},{"geometry":{"coordinates":[144.9585654,-37.8059962],"type":"Point"},"properties":{"events":[{"categories":["Music"],"eDate":"2024-05-17","eName":"Buzz & The Pickups","genre":"Rock","price":"$11.25","supports":["Petraveshky Circle"," Derrotonin"," Scuff"],"ticketUrl":null,"time":" 7pm"}],"vName":"The Last Chance Rock & Roll Bar"},"type":"Feature"},{"geometry":{"coordinates":[144.9830837,-37.7988316],"type":"Point"},"properties":{"events":[{"categories":["Music"],"eDate":"2024-05-17","eName":"Sugar Fed Leopards","genre":"Soul/Funk","price":"$25.00","supports":["The Huxley's"," Charlie Needs Braces"],"ticketUrl":null,"time":" 7:30pm"}],"vName":"The Night Cat"},"type":"Feature"},{"geometry":{"coordinates":[144.9651425,-37.8119429],"type":"Point"},"properties":{"events":[{"categories":["Music"],"eDate":"2024-05-17","eName":"Hit Me Hard & Soft: Billie Eilish Release Party","genre":"Pop","price":"$28.56","supports":["DJ Gaydad"," Ego"," Krayola"],"ticketUrl":null,"time":" 7pm"}],"vName":"The Toff In Town"},"type":"Feature"}],"type":"FeatureCollection"}