{"features":[{"geometry":{"coordinates":[144.978682,-37.7981225],"type":"Point"},"properties":{"events":[{"categories":["Free","Music"],"eDate":"2026-06-21","eName":"MUKI","genre":null,"price":"Free","supports":[],"ticketUrl":null,"time":" 9pm"}],"vName":"Baxter's Lot"},"type":"Feature"},{"geometry":{"coordinates":[144.9617083,-37.7704205],"type":"Point"},"properties":{"events":[{"categories":["Music","Other \"Dance \"","Markets"],"eDate":"2026-06-21","eName":"Jungle City Talent Show","genre":null,"price":"$29.58","supports":["Culture Queenz"," Mixtape Allstars"," La Calle Crew"," Layali Raqs"," Shake It Crew"," The Vivid Sisters & Friends"," Pasika"," DHQ Leitesha"," Adam & Isa"," Moz"," KayB"],"ticketUrl":null,"time":"12:30pm"}],"vName":"Brunswick Ballroom"},"type":"Feature"},{"geometry":{"coordinates":[144.9501312,-37.8042459],"type":"Point"},"properties":{"events":[{"categories":["Comedy"],"eDate":"2026-06-21","eName":"Sunday Night Comedy","genre":null,"price":"$10.00","supports":[],"ticketUrl":null,"time":" 7:30pm"}],"vName":"Club Voltaire"},"type":"Feature"},{"geometry":{"coordinates":[144.9675876,-37.8240849],"type":"Point"},"properties":{"events":[{"categories":["Music"],"eDate":"2026-06-21","eName":"Australian Brandenburg Orchestra: Italian Serenatas","genre":"Classical","price":"$40.00 - 186.00","supports":[],"ticketUrl":null,"time":" 5pm"}],"vName":"Melbourne Recital Centre"},"type":"Feature"},{"geometry":{"coordinates":[145.0142411,-37.7310367],"type":"Point"},"properties":{"events":[{"categories":["Music"],"eDate":"2026-06-21","eName":"High Rotation Festival","genre":"Jazz","price":"Free","supports":[],"ticketUrl":null,"time":" 2pm"},{"categories":["Music"],"eDate":"2026-06-21","eName":"The Merri Band","genre":"Jazz","price":"Free","supports":[],"ticketUrl":null,"time":" 5pm"}],"vName":"Ragtime Tavern"},"type":"Feature"},{"geometry":{"coordinates":[144.9607404,-37.7743469],"type":"Point"},"properties":{"events":[{"categories":["Music"],"eDate":"2026-06-21","eName":"Stay Gold Final Night: Stay Gold All Stars play The Black Parade + Greatest Hits","genre":"Punk","price":"$28.60 - 39.80","supports":["Aurateque"," Some Heard Trouble"],"ticketUrl":null,"time":" 4pm"}],"vName":"Stay Gold"},"type":"Feature"},{"geometry":{"coordinates":[144.9751557,-37.8057885],"type":"Point"},"properties":{"events":[{"categories":["Music"],"eDate":"2026-06-21","eName":"Lune Ranger","genre":null,"price":"Free","supports":[],"ticketUrl":null,"time":" 4pm"}],"vName":"The Catfish"},"type":"Feature"},{"geometry":{"coordinates":[144.9879283,-37.7505509],"type":"Point"},"properties":{"events":[{"categories":["Music"],"eDate":"2026-06-21","eName":"Strugs to Funk","genre":"Soul/Funk","price":"Free","supports":[],"ticketUrl":null,"time":" 4pm"}],"vName":"The Merri Bar"},"type":"Feature"},{"geometry":{"coordinates":[144.9730268,-37.8148148],"type":"Point"},"properties":{"events":[{"categories":["Theatre"],"eDate":"2026-06-21","eName":"Between The Lines: The James Joyce/Groucho Marx Letter","genre":null,"price":"$48.00","supports":[],"ticketUrl":null,"time":" 3:30pm"}],"vName":"fortyfivedownstairs"},"type":"Feature"}],"type":"FeatureCollection"}