{"features":[{"geometry":{"coordinates":[144.9628753,-37.7618155],"type":"Point"},"properties":{"events":[{"categories":["Free","Music"],"eDate":"2026-03-07","eName":"Lomalux","genre":null,"price":"Free","supports":[],"ticketUrl":null,"time":" 7pm"}],"vName":"Bar Oussou"},"type":"Feature"},{"geometry":{"coordinates":[144.9617083,-37.7704205],"type":"Point"},"properties":{"events":[{"categories":["Free","Music"],"eDate":"2026-03-07","eName":"Liam Higgins","genre":"Indie","price":"Free","supports":[],"ticketUrl":null,"time":" 4:30pm"}],"vName":"Brunswick Artists' Bar"},"type":"Feature"},{"geometry":{"coordinates":[145.0004166,-37.7612582],"type":"Point"},"properties":{"events":[{"categories":["Music"],"eDate":"2026-03-07","eName":"Second Idol","genre":null,"price":"$15.00","supports":[],"ticketUrl":null,"time":" 8pm"}],"vName":"Cactus Room"},"type":"Feature"},{"geometry":{"coordinates":[144.9713425,-37.8128595],"type":"Point"},"properties":{"events":[{"categories":["Free","Music"],"eDate":"2026-03-07","eName":"TRASH Indie Sleaze Party","genre":null,"price":"Free","supports":[],"ticketUrl":null,"time":"11pm"}],"vName":"Cherry Bar"},"type":"Feature"},{"geometry":{"coordinates":[144.9780305,-37.8599731],"type":"Point"},"properties":{"events":[{"categories":["Music"],"eDate":"2026-03-07","eName":"Horizon","genre":"Rock","price":"$48.00","supports":["The Sonettes"," Peter Freebairn with Radio Vertigo"],"ticketUrl":null,"time":" 7pm"}],"vName":"George Lane"},"type":"Feature"},{"geometry":{"coordinates":[144.9679835,-37.8201575],"type":"Point"},"properties":{"events":[{"categories":["Music"],"eDate":"2026-03-07","eName":"2026 Season Opening Gala featuring Jean-Yves Thibaudet","genre":"Classical","price":"$76.00 - 139.00","supports":[],"ticketUrl":null,"time":" 7:30pm"}],"vName":"Hamer Hall (Arts Centre Melbourne)"},"type":"Feature"},{"geometry":{"coordinates":[144.973013,-37.8640582],"type":"Point"},"properties":{"events":[{"categories":["Free","Music"],"eDate":"2026-03-07","eName":"Jack’s Garage: Anna Lunoe","genre":"Electronic","price":"Free","supports":[],"ticketUrl":null,"time":" 7:30pm"}],"vName":"Hotel Esplanade (aka The Espy)"},"type":"Feature"},{"geometry":{"coordinates":[145.0358258,-37.9334203],"type":"Point"},"properties":{"events":[{"categories":["Music","Theatre"],"eDate":"2026-03-07","eName":"Ireland: The Voyage","genre":"Global","price":"$69.90","supports":[],"ticketUrl":null,"time":" 7:30pm"}],"vName":"Kingston City Hall"},"type":"Feature"},{"geometry":{"coordinates":[144.9761619,-37.8230506],"type":"Point"},"properties":{"events":[{"categories":["Music"],"eDate":"2026-03-07","eName":"G Flip","genre":"Rock","price":"Free","supports":["The Beaches"," Ayesha Madon"],"ticketUrl":null,"time":" 7pm"}],"vName":"Margaret Court Arena"},"type":"Feature"},{"geometry":{"coordinates":[144.9837213,-37.8048409],"type":"Point"},"properties":{"events":[{"categories":["Music"],"eDate":"2026-03-07","eName":"Bass&Techno Fundraiser for Ukraine","genre":"Electronic","price":"$20.00","supports":[],"ticketUrl":null,"time":" 7pm"}],"vName":"QQQ ST. Park"},"type":"Feature"},{"geometry":{"coordinates":[144.9879283,-37.7505509],"type":"Point"},"properties":{"events":[{"categories":["Music"],"eDate":"2026-03-07","eName":"Rosario De Marco","genre":"Acoustic","price":"Free","supports":[],"ticketUrl":null,"time":" 7pm"}],"vName":"The Merri Bar"},"type":"Feature"},{"geometry":{"coordinates":[144.9794553,-37.7982653],"type":"Point"},"properties":{"events":[{"categories":["Music"],"eDate":"2026-03-07","eName":"Kylie Auldist","genre":"Soul/Funk","price":"$40.00","supports":[],"ticketUrl":null,"time":" 7:30pm"}],"vName":"The Night Cat"},"type":"Feature"}],"type":"FeatureCollection"}