{"features":[{"geometry":{"coordinates":[144.9982812,-37.7713296],"type":"Point"},"properties":{"events":[{"categories":["Music"],"eDate":"2026-02-19","eName":"Three Base Hit","genre":"Jazz","price":"Free","supports":[],"ticketUrl":null,"time":" 8pm"}],"vName":"Bar 303"},"type":"Feature"},{"geometry":{"coordinates":[144.978682,-37.7981225],"type":"Point"},"properties":{"events":[{"categories":["Music","Free"],"eDate":"2026-02-19","eName":"Lily Hallawell","genre":null,"price":"Free","supports":[],"ticketUrl":null,"time":" 9pm"}],"vName":"Baxter's Lot"},"type":"Feature"},{"geometry":{"coordinates":[144.9568039,-37.8111442],"type":"Point"},"properties":{"events":[{"categories":["Music"],"eDate":"2026-02-19","eName":"The Jazz Alchemists","genre":"Jazz","price":"$35.00","supports":[],"ticketUrl":null,"time":" 7:30pm"}],"vName":"Bird's Basement"},"type":"Feature"},{"geometry":{"coordinates":[144.9945274,-37.8001115],"type":"Point"},"properties":{"events":[{"categories":["Other \"Food \"","Comedy"],"eDate":"2026-02-19","eName":"On The Gags Comedy","genre":null,"price":"$15.00","supports":["Firdi"],"ticketUrl":null,"time":" 8pm"}],"vName":"Bodriggy Brewing Company"},"type":"Feature"},{"geometry":{"coordinates":[144.96084,-37.813514],"type":"Point"},"properties":{"events":[{"categories":["Music"],"eDate":"2026-02-19","eName":"King Blakey: The Jazz Messengers","genre":"Jazz","price":"$45.00","supports":[],"ticketUrl":null,"time":" 7pm"},{"categories":["Music"],"eDate":"2026-02-19","eName":"Dawn Ho Quartet","genre":"Jazz","price":"$40.00","supports":[],"ticketUrl":null,"time":" 8pm"}],"vName":"Paris Cat Jazz Club"},"type":"Feature"},{"geometry":{"coordinates":[144.9023908,-37.7999086],"type":"Point"},"properties":{"events":[{"categories":["Music"],"eDate":"2026-02-19","eName":"SILK ROAD NEW YEAR VOCALS (2026 Lunar New Year Live Music)","genre":"Pop","price":"$22.00","supports":["JC The Guy"],"ticketUrl":null,"time":" 7:30pm"}],"vName":"Pride Of Our Footscray Community Bar"},"type":"Feature"},{"geometry":{"coordinates":[144.9794553,-37.7982653],"type":"Point"},"properties":{"events":[{"categories":["Music"],"eDate":"2026-02-19","eName":"TOPS","genre":"Indie","price":"$65.17","supports":[],"ticketUrl":null,"time":" 7pm"}],"vName":"The Night Cat"},"type":"Feature"},{"geometry":{"coordinates":[144.9870814,-37.799406],"type":"Point"},"properties":{"events":[{"categories":["Music"],"eDate":"2026-02-19","eName":"Lunar Lagoon","genre":"Rock","price":"$10.00","supports":["Babyccino"," Idle Flowers"],"ticketUrl":null,"time":" 7pm"}],"vName":"The Tote Hotel"},"type":"Feature"}],"type":"FeatureCollection"}