{"features":[{"geometry":{"coordinates":[144.9679369,-37.8120109],"type":"Point"},"properties":{"events":[{"categories":["Music"],"eDate":"2025-06-13","eName":"Ne Obliviscaris","genre":"Metal","price":"$79.90","supports":["Psycroptic"],"ticketUrl":null,"time":" 7pm"}],"vName":"170 Russell"},"type":"Feature"},{"geometry":{"coordinates":[144.9982812,-37.7713296],"type":"Point"},"properties":{"events":[{"categories":["Music"],"eDate":"2025-06-13","eName":"Kristie Glab & Celebrity Skin: 90’s Party","genre":"Rock","price":"$30.00","supports":["DJ Annie Apple"],"ticketUrl":null,"time":" 7pm"}],"vName":"Bar 303"},"type":"Feature"},{"geometry":{"coordinates":[144.978682,-37.7981225],"type":"Point"},"properties":{"events":[{"categories":["Free","Music"],"eDate":"2025-06-13","eName":"Lewis Toms","genre":null,"price":"Free","supports":[],"ticketUrl":null,"time":" 9pm"},{"categories":["Free","Music"],"eDate":"2025-06-13","eName":"DJ Papi","genre":null,"price":"Free","supports":[],"ticketUrl":null,"time":"10pm"}],"vName":"Baxter's Lot"},"type":"Feature"},{"geometry":{"coordinates":[144.609835,-38.1379811],"type":"Point"},"properties":{"events":[{"categories":["Free","Music"],"eDate":"2025-06-13","eName":"The Blue Jays","genre":"Blues","price":"Free","supports":[],"ticketUrl":null,"time":" 7pm"}],"vName":"Bellarine Estate"},"type":"Feature"},{"geometry":{"coordinates":[144.9891167,-37.7996488],"type":"Point"},"properties":{"events":[{"categories":["Music"],"eDate":"2025-06-13","eName":"Where’s Jimmy","genre":"Punk","price":"$17.35","supports":["W.O.M.B.A.T"," Handgrenade Hearts"],"ticketUrl":null,"time":" 9pm"}],"vName":"Bendigo Hotel"},"type":"Feature"},{"geometry":{"coordinates":[145.0004166,-37.7612582],"type":"Point"},"properties":{"events":[{"categories":["Music"],"eDate":"2025-06-13","eName":"Relays","genre":"Rock","price":"$15.85","supports":["Tench"," Sugargum"],"ticketUrl":null,"time":" 8pm"}],"vName":"Cactus Room"},"type":"Feature"},{"geometry":{"coordinates":[144.9713425,-37.8128595],"type":"Point"},"properties":{"events":[{"categories":["Music"],"eDate":"2025-06-13","eName":"Truckers For Christ","genre":"Rock","price":"Free","supports":[],"ticketUrl":null,"time":" 8:30pm"}],"vName":"Cherry Bar"},"type":"Feature"},{"geometry":{"coordinates":[144.9693768,-37.8164414],"type":"Point"},"properties":{"events":[{"categories":["Music"],"eDate":"2025-06-13","eName":"Soccer Mommy","genre":"Rock","price":"$79.00","supports":[],"ticketUrl":null,"time":" 8pm"}],"vName":"Forum Melbourne"},"type":"Feature"},{"geometry":{"coordinates":[144.9679835,-37.8201575],"type":"Point"},"properties":{"events":[{"categories":["Music"],"eDate":"2025-06-13","eName":"A Reflection in Time (Relaxed)","genre":"Classical","price":"$35.00","supports":[],"ticketUrl":null,"time":" 7:30pm"}],"vName":"Hamer Hall (Arts Centre Melbourne)"},"type":"Feature"},{"geometry":{"coordinates":[145.0314658,-37.8067273],"type":"Point"},"properties":{"events":[{"categories":["Music"],"eDate":"2025-06-13","eName":"Kew Court House Live: Pat Jaffe’s LUNSEN","genre":"Jazz","price":"$20.00","supports":[],"ticketUrl":null,"time":" 7:30pm"}],"vName":"Kew Court House"},"type":"Feature"},{"geometry":{"coordinates":[144.8975289,-37.8022392],"type":"Point"},"properties":{"events":[{"categories":["Music"],"eDate":"2025-06-13","eName":"Malicy","genre":null,"price":"$15.00 - 20.00","supports":["Unscored"," Mancrave"],"ticketUrl":null,"time":" 7:45pm"}],"vName":"Mamma Chen's"},"type":"Feature"},{"geometry":{"coordinates":[144.9790251,-37.8675008],"type":"Point"},"properties":{"events":[{"categories":["Music"],"eDate":"2025-06-13","eName":"RIFF RAFF: 70s Bon Scott Era AC/DC Live Show","genre":"Rock","price":"$25.00 - 40.00","supports":[],"ticketUrl":null,"time":" 7pm"}],"vName":"Memo Music Hall"},"type":"Feature"},{"geometry":{"coordinates":[144.96084,-37.813514],"type":"Point"},"properties":{"events":[{"categories":["Music"],"eDate":"2025-06-13","eName":"Bob Sedergreen’s Tribute to Jazz Pianists","genre":"Jazz","price":"$45.00","supports":[],"ticketUrl":null,"time":" 6pm"},{"categories":["Music"],"eDate":"2025-06-13","eName":"TRY!: John Mayer Played By The Bailey Judd Trio","genre":"Blues","price":"$45.00","supports":[],"ticketUrl":null,"time":" 6:30pm"},{"categories":["Music"],"eDate":"2025-06-13","eName":"Rhys Tolhurst: A Swing Affair Live","genre":"Jazz","price":"$45.00","supports":[],"ticketUrl":null,"time":" 9pm"},{"categories":["Music"],"eDate":"2025-06-13","eName":"Mel Searle: An Ella Fitzgerald Tribute Featuring Louis & Ella Duets","genre":"Jazz","price":"$45.00","supports":[],"ticketUrl":null,"time":" 9:30pm"}],"vName":"Paris Cat Jazz Club"},"type":"Feature"},{"geometry":{"coordinates":[144.9615882,-37.7711432],"type":"Point"},"properties":{"events":[{"categories":["Free","Music"],"eDate":"2025-06-13","eName":"Melbourne Karaoke Big Band","genre":"Jazz","price":"Free","supports":[],"ticketUrl":null,"time":" 7:30pm"}],"vName":"Retreat Hotel"},"type":"Feature"},{"geometry":{"coordinates":[144.993413,-37.8506652],"type":"Point"},"properties":{"events":[{"categories":["Music"],"eDate":"2025-06-13","eName":"RSPCA Fundraising at Revs","genre":"Rock","price":"$13.26","supports":["Magpie"," Dysmetria"," Speedbumps"],"ticketUrl":null,"time":" 7pm"},{"categories":["Music"],"eDate":"2025-06-13","eName":"FOURA Presents: Flava D","genre":"Electronic","price":"$21.42 - 31.62","supports":["MiMi"," hotbabe93"," Savage The Girl"],"ticketUrl":null,"time":"11:45pm"}],"vName":"Revolver Upstairs"},"type":"Feature"},{"geometry":{"coordinates":[145.0013923,-37.7559265],"type":"Point"},"properties":{"events":[{"categories":["Music"],"eDate":"2025-06-13","eName":"The Offtopics","genre":"Soul/Funk","price":"$23.45","supports":["Pirritu"],"ticketUrl":null,"time":" 8pm"}],"vName":"Shotkickers"},"type":"Feature"},{"geometry":{"coordinates":[144.9657057,-37.8061581],"type":"Point"},"properties":{"events":[{"categories":["Music"],"eDate":"2025-06-13","eName":"The Maggie Pills","genre":"Punk","price":"$22.85","supports":["Screensaver"," Zombeaches"," Ding Ding Ding"],"ticketUrl":null,"time":" 8pm"}],"vName":"The Curtin"},"type":"Feature"},{"geometry":{"coordinates":[144.9586498,-37.766903],"type":"Point"},"properties":{"events":[{"categories":["Music"],"eDate":"2025-06-13","eName":"Checkerboard Lounge with JoJo Smith","genre":"Jazz","price":"$35.00 - 40.00","supports":[],"ticketUrl":null,"time":" 8pm"}],"vName":"The Jazzlab"},"type":"Feature"},{"geometry":{"coordinates":[144.9870814,-37.799406],"type":"Point"},"properties":{"events":[{"categories":["Music"],"eDate":"2025-06-13","eName":"Tehehe Marci","genre":"Acoustic","price":"Free","supports":[],"ticketUrl":null,"time":" 6pm"},{"categories":["Music"],"eDate":"2025-06-13","eName":"Divide & Dissolve","genre":"Metal","price":"$34.20","supports":[],"ticketUrl":null,"time":" 8pm"},{"categories":["Music"],"eDate":"2025-06-13","eName":"Self Talk","genre":"Rock","price":"$11.25","supports":["Sick Visor"," Grass Stains"],"ticketUrl":null,"time":" 8pm"}],"vName":"The Tote Hotel"},"type":"Feature"},{"geometry":{"coordinates":[144.9984324,-37.7729134],"type":"Point"},"properties":{"events":[{"categories":["Music"],"eDate":"2025-06-13","eName":"Tripside Life","genre":"Jazz","price":"Free","supports":[],"ticketUrl":null,"time":" 6pm"},{"categories":["Music"],"eDate":"2025-06-13","eName":"Rory Newman","genre":"Acoustic","price":"$17.35","supports":["Maeve Grieve"],"ticketUrl":null,"time":" 8pm"}],"vName":"Wesley Anne"},"type":"Feature"}],"type":"FeatureCollection"}