{"features":[{"geometry":{"coordinates":[144.99828116650363,-37.7713296],"type":"Point"},"properties":{"events":[{"categories":["Music"],"eDate":"2024-12-18","eName":"Julien Wilson STOCK","genre":"Jazz","price":"$20.00","supports":[],"ticketUrl":null,"time":" 8:30pm"}],"vName":"Bar 303"},"type":"Feature"},{"geometry":{"coordinates":[144.978425,-37.79773],"type":"Point"},"properties":{"events":[{"categories":["Music","Trivia"],"eDate":"2024-12-18","eName":"Obdurate","genre":"Jazz","price":"$20.00","supports":["Magneck"," The Black Hand Initiative"],"ticketUrl":null,"time":" 8pm"}],"vName":"Bar Open"},"type":"Feature"},{"geometry":{"coordinates":[144.978682,-37.7981225],"type":"Point"},"properties":{"events":[{"categories":["Free","Music"],"eDate":"2024-12-18","eName":"Mukul Jiwnani","genre":null,"price":"Free","supports":[],"ticketUrl":null,"time":" 9pm"}],"vName":"Baxter's Lot"},"type":"Feature"},{"geometry":{"coordinates":[144.9945274,-37.8001115],"type":"Point"},"properties":{"events":[{"categories":["Free","Music","Other \"Food & Drink\""],"eDate":"2024-12-18","eName":"Uncomfortable Science!","genre":null,"price":"Free","supports":["DJ Cas"],"ticketUrl":null,"time":" 6pm"},{"categories":["Free","Music","Other \"Food & Drink\""],"eDate":"2024-12-18","eName":"Uncomfortable Science!","genre":null,"price":"Free","supports":["DJ Cas"],"ticketUrl":null,"time":" 7pm"}],"vName":"Bodriggy Brewing Company"},"type":"Feature"},{"geometry":{"coordinates":[144.9617018,-37.7704566],"type":"Point"},"properties":{"events":[{"categories":["Music"],"eDate":"2024-12-18","eName":"A Swingin' Bella Christmas with The Bella All-Star Band","genre":"Soul/Funk","price":"$64.87","supports":[],"ticketUrl":null,"time":" 8pm"}],"vName":"Brunswick Ballroom"},"type":"Feature"},{"geometry":{"coordinates":[144.97711,-37.79833],"type":"Point"},"properties":{"events":[{"categories":["Free","Music"],"eDate":"2024-12-18","eName":"Free Entry Karaoke","genre":"Acoustic","price":"Free","supports":[],"ticketUrl":null,"time":" 8:30pm"}],"vName":"Old Bar"},"type":"Feature"},{"geometry":{"coordinates":[144.9615882,-37.7711432],"type":"Point"},"properties":{"events":[{"categories":["Music"],"eDate":"2024-12-18","eName":"Potluck","genre":"Rock","price":"$20.00","supports":["The Sprouts"," Cat Scratch"],"ticketUrl":null,"time":" 7pm"}],"vName":"Retreat Hotel"},"type":"Feature"},{"geometry":{"coordinates":[144.9968036,-37.7794807],"type":"Point"},"properties":{"events":[{"categories":["Free","Music"],"eDate":"2024-12-18","eName":"MJ Halloran + Simone","genre":"Indie","price":"Free","supports":[],"ticketUrl":null,"time":" 7:30pm"}],"vName":"The Merri Creek Tavern"},"type":"Feature"},{"geometry":{"coordinates":[144.9708437,-37.7973184],"type":"Point"},"properties":{"events":[{"categories":["Comedy"],"eDate":"2024-12-18","eName":"Trying Times","genre":null,"price":"$15.20","supports":[],"ticketUrl":null,"time":" 8:30pm"}],"vName":"The Motley Bauhaus"},"type":"Feature"},{"geometry":{"coordinates":[144.9983987,-37.7729204],"type":"Point"},"properties":{"events":[{"categories":["Trivia"],"eDate":"2024-12-18","eName":"Trivia With Sparx","genre":null,"price":"Free","supports":[],"ticketUrl":null,"time":" 7:30pm"}],"vName":"Wesley Anne"},"type":"Feature"}],"type":"FeatureCollection"}