{"features":[{"geometry":{"coordinates":[144.99828116650363,-37.7713296],"type":"Point"},"properties":{"events":[{"categories":["Free","Music"],"eDate":"2024-09-06","eName":"The Calabrians + Blown Cones","genre":"Rock","price":"Free","supports":[],"ticketUrl":null,"time":" 5pm"},{"categories":["Music"],"eDate":"2024-09-06","eName":"The Sam Curtis Collective","genre":"Blues","price":"$10.00","supports":["Charlotte Bridie"," Hamish Bloom"],"ticketUrl":null,"time":" 8pm"}],"vName":"Bar 303"},"type":"Feature"},{"geometry":{"coordinates":[144.978682,-37.7981225],"type":"Point"},"properties":{"events":[{"categories":["Free","Music"],"eDate":"2024-09-06","eName":"Lewis Toms","genre":"Blues","price":"Free","supports":[],"ticketUrl":null,"time":" 8:30pm"},{"categories":["Free","Music"],"eDate":"2024-09-06","eName":"Lewis Toms: Vol 1 EP Launch","genre":null,"price":"Free","supports":[],"ticketUrl":null,"time":" 9:30pm"},{"categories":["Music"],"eDate":"2024-09-06","eName":"DJ Saatana Lee Rose","genre":"Indie","price":"Free","supports":[],"ticketUrl":null,"time":"10pm"}],"vName":"Baxter's Lot"},"type":"Feature"},{"geometry":{"coordinates":[144.98911674151407,-37.79964875],"type":"Point"},"properties":{"events":[{"categories":["Music"],"eDate":"2024-09-06","eName":"Dune Rats x Fidlar: Official After-Party","genre":"Punk","price":"$22.95","supports":[],"ticketUrl":null,"time":"11:30pm"}],"vName":"Bendigo Hotel"},"type":"Feature"},{"geometry":{"coordinates":[144.9607158,-37.776327],"type":"Point"},"properties":{"events":[{"categories":["Music"],"eDate":"2024-09-06","eName":"Great Australian Bank","genre":null,"price":"$15.00","supports":["Adored"," Close In"," No Hoper"],"ticketUrl":null,"time":" 8pm"}],"vName":"Bergy Bandroom"},"type":"Feature"},{"geometry":{"coordinates":[144.9567859,-37.8111049],"type":"Point"},"properties":{"events":[{"categories":["Music"],"eDate":"2024-09-06","eName":"Claymore","genre":null,"price":"$38.00","supports":[],"ticketUrl":null,"time":" 6pm"}],"vName":"Bird's Basement"},"type":"Feature"},{"geometry":{"coordinates":[144.9617018,-37.7704566],"type":"Point"},"properties":{"events":[{"categories":["Music"],"eDate":"2024-09-06","eName":"Bad Bangs","genre":"Punk","price":"$28.15","supports":["Hooper Crescent"," The Fillmores"," Back Pocket"],"ticketUrl":null,"time":" 7pm"}],"vName":"Brunswick Ballroom"},"type":"Feature"},{"geometry":{"coordinates":[144.99266639479475,-37.82488935],"type":"Point"},"properties":{"events":[{"categories":["Music"],"eDate":"2024-09-06","eName":"Prateek Kuhad","genre":"Pop","price":"$81.50","supports":[],"ticketUrl":null,"time":" 8:30pm"}],"vName":"Corner Hotel"},"type":"Feature"},{"geometry":{"coordinates":[144.950359,-37.8100202],"type":"Point"},"properties":{"events":[{"categories":["Music"],"eDate":"2024-09-06","eName":"Catfish & The Bottlemen","genre":"Rock","price":"$119.90","supports":[],"ticketUrl":null,"time":" 7pm"}],"vName":"Festival Hall"},"type":"Feature"},{"geometry":{"coordinates":[144.96947,-37.816565],"type":"Point"},"properties":{"events":[{"categories":["Music"],"eDate":"2024-09-06","eName":"Dune Rats + FIDLAR","genre":"Punk","price":"$70.00","supports":["Dartz"," The Pingers"],"ticketUrl":null,"time":" 7:30pm"}],"vName":"Forum Melbourne"},"type":"Feature"},{"geometry":{"coordinates":[144.9875917,-37.7963837],"type":"Point"},"properties":{"events":[{"categories":["Free","Music"],"eDate":"2024-09-06","eName":"Licklash","genre":"Punk","price":"Free","supports":["Scud"," Glen"],"ticketUrl":null,"time":" 8pm"}],"vName":"Gem Bar"},"type":"Feature"},{"geometry":{"coordinates":[144.9787445,-37.7967357],"type":"Point"},"properties":{"events":[{"categories":["Music"],"eDate":"2024-09-06","eName":"Interval: Osmosis Jones","genre":"Electronic","price":"$15.00 - 25.00","supports":["DJ Optimism"," Caska"," KJONES"," Sasha Milani"],"ticketUrl":null,"time":"10pm"}],"vName":"Glamorama"},"type":"Feature"},{"geometry":{"coordinates":[144.9679835243618,-37.8201575],"type":"Point"},"properties":{"events":[{"categories":["Music"],"eDate":"2024-09-06","eName":"ECLIPSE: Pink Floyd Orchestrated","genre":"Rock","price":"$79.00 - 159.00","supports":[],"ticketUrl":null,"time":" 8pm"}],"vName":"Hamer Hall (Arts Centre Melbourne)"},"type":"Feature"},{"geometry":{"coordinates":[144.973013,-37.8640582],"type":"Point"},"properties":{"events":[{"categories":["Music"],"eDate":"2024-09-06","eName":"Better Than Sex","genre":"Punk","price":"$15.85","supports":["Street Fighter II"," The Ians"],"ticketUrl":null,"time":" 7pm"},{"categories":["Music"],"eDate":"2024-09-06","eName":"Fred Again.. Appreciation Night","genre":"Electronic","price":"$11.75 - 22.95","supports":[],"ticketUrl":null,"time":" 9pm"}],"vName":"Hotel Esplanade (aka The Espy)"},"type":"Feature"},{"geometry":{"coordinates":[144.9596527,-37.7720304],"type":"Point"},"properties":{"events":[{"categories":["Music"],"eDate":"2024-09-06","eName":"William Crighton","genre":null,"price":"$39.00","supports":["Sordid Ordeal"],"ticketUrl":null,"time":" 8pm"}],"vName":"Howler"},"type":"Feature"},{"geometry":{"coordinates":[145.0008148,-37.8107158],"type":"Point"},"properties":{"events":[{"categories":["Music"],"eDate":"2024-09-06","eName":"Jess Chalmers","genre":null,"price":"$35.00","supports":["Waliens"],"ticketUrl":null,"time":" 7:30pm"}],"vName":"Leadbeater Hotel"},"type":"Feature"},{"geometry":{"coordinates":[144.9936498,-37.8000264],"type":"Point"},"properties":{"events":[{"categories":["Free","Music"],"eDate":"2024-09-06","eName":"Good Pash","genre":"Rock","price":"Free","supports":[],"ticketUrl":null,"time":" 9pm"}],"vName":"Lulie Tavern"},"type":"Feature"},{"geometry":{"coordinates":[144.8971518,-37.8054274],"type":"Point"},"properties":{"events":[{"categories":["Music"],"eDate":"2024-09-06","eName":"Insectoid Witch","genre":"Rock","price":"$10.00 - 15.00","supports":["Daddy Issues"," Soup People"],"ticketUrl":null,"time":" 7:30pm"}],"vName":"Mamma Chen's"},"type":"Feature"},{"geometry":{"coordinates":[145.3553553,-37.9078552],"type":"Point"},"properties":{"events":[{"categories":["Free","Music"],"eDate":"2024-09-06","eName":"Music with Harry & Wendy","genre":null,"price":"Free","supports":[],"ticketUrl":null,"time":" 7pm"}],"vName":"Micawber Tavern"},"type":"Feature"},{"geometry":{"coordinates":[144.9712356,-37.812902],"type":"Point"},"properties":{"events":[{"categories":["Comedy"],"eDate":"2024-09-06","eName":"Basement Comedy Club","genre":null,"price":"$24.00","supports":["more"],"ticketUrl":null,"time":" 8pm"}],"vName":"Morris House"},"type":"Feature"},{"geometry":{"coordinates":[144.96892412239615,-37.82266345],"type":"Point"},"properties":{"events":[{"categories":["Music"],"eDate":"2024-09-06","eName":"NGV Friday Nights: Tempo Rubato curates Sophia Kirsanova & Melbourne Strings","genre":"Classical","price":"$45.00","supports":[],"ticketUrl":null,"time":" 6pm"}],"vName":"NGV - National Gallery of Victoria"},"type":"Feature"},{"geometry":{"coordinates":[144.998414,-37.771471],"type":"Point"},"properties":{"events":[{"categories":["Free","Other \"Film\""],"eDate":"2024-09-06","eName":"Overboard (Film Screening)","genre":null,"price":"Free","supports":[],"ticketUrl":null,"time":" 8pm"}],"vName":"Northcote Social Club"},"type":"Feature"},{"geometry":{"coordinates":[144.9977626,-37.7755001],"type":"Point"},"properties":{"events":[{"categories":["Music"],"eDate":"2024-09-06","eName":"Old Mervs","genre":"Rock","price":"$46.40","supports":[],"ticketUrl":null,"time":" 7:30pm"}],"vName":"Northcote Theatre"},"type":"Feature"},{"geometry":{"coordinates":[144.9605705,-37.8132486],"type":"Point"},"properties":{"events":[{"categories":["Music"],"eDate":"2024-09-06","eName":"Piaf: A Tribute with Noria Letts","genre":"Jazz","price":"$45.00","supports":[],"ticketUrl":null,"time":" 6pm"},{"categories":["Music"],"eDate":"2024-09-06","eName":"Janelle Stowe, Brendon Siemsen & Friends present: Something Blue","genre":"Jazz","price":"$40.00","supports":[],"ticketUrl":null,"time":" 6:30pm"},{"categories":["Music"],"eDate":"2024-09-06","eName":"The Wildest Show: Music of Louis Prima with Justin Fermino","genre":"Jazz","price":"$45.00","supports":[],"ticketUrl":null,"time":" 9pm"},{"categories":["Music"],"eDate":"2024-09-06","eName":"The Royal Motown Review with Nardia + Paul Slattery","genre":"Jazz","price":"$45.00","supports":[],"ticketUrl":null,"time":" 9:30pm"}],"vName":"Paris Cat Jazz Club"},"type":"Feature"},{"geometry":{"coordinates":[144.9408908,-37.8402429],"type":"Point"},"properties":{"events":[{"categories":["Free","Music"],"eDate":"2024-09-06","eName":"Steamboat Whistlers","genre":null,"price":"Free","supports":[],"ticketUrl":null,"time":" 9pm"}],"vName":"Prince Alfred Hotel"},"type":"Feature"},{"geometry":{"coordinates":[144.9631913,-37.7617818],"type":"Point"},"properties":{"events":[{"categories":["Free","Music"],"eDate":"2024-09-06","eName":"Red Liquorice + Nicholas Ellerby","genre":"Indie","price":"Free","supports":[],"ticketUrl":null,"time":" 8pm"}],"vName":"Ringo Barr"},"type":"Feature"},{"geometry":{"coordinates":[144.9607404,-37.7743469],"type":"Point"},"properties":{"events":[{"categories":["Music"],"eDate":"2024-09-06","eName":"sugarush: Charli xcx Brat Party","genre":"Pop","price":"$17.00 - 23.00","supports":[],"ticketUrl":null,"time":"11pm"}],"vName":"Stay Gold"},"type":"Feature"},{"geometry":{"coordinates":[144.9585654,-37.8059962],"type":"Point"},"properties":{"events":[{"categories":["Music"],"eDate":"2024-09-06","eName":"VOIID","genre":"Rock","price":"$23.50","supports":["Tamara & The Dreams"," The Breakaways"],"ticketUrl":null,"time":" 8:30pm"}],"vName":"The Last Chance Rock & Roll Bar"},"type":"Feature"},{"geometry":{"coordinates":[144.9708437,-37.7973184],"type":"Point"},"properties":{"events":[{"categories":["Other \"Spoken Word\"","Other \"Poetry & Forums\"","Other \"Film\""],"eDate":"2024-09-06","eName":"QueersInSciFi 2","genre":null,"price":"$15.20","supports":[],"ticketUrl":null,"time":" 7pm"},{"categories":["Other \"Cabaret\""],"eDate":"2024-09-06","eName":"Queer Cabaret","genre":null,"price":"$15.20","supports":[],"ticketUrl":null,"time":" 9:30pm"}],"vName":"The Motley Bauhaus"},"type":"Feature"},{"geometry":{"coordinates":[144.9830837,-37.7988316],"type":"Point"},"properties":{"events":[{"categories":["Music"],"eDate":"2024-09-06","eName":"Emma Volard + Ruby Jackson","genre":"R&B","price":"$35.00","supports":[],"ticketUrl":null,"time":" 8pm"}],"vName":"The Night Cat"},"type":"Feature"},{"geometry":{"coordinates":[144.9846126,-37.7989941],"type":"Point"},"properties":{"events":[{"categories":["Music"],"eDate":"2024-09-06","eName":"Thrills","genre":"Rock","price":"Free","supports":["Phil & The Tiles"," Billiam"," Solder"," Elvis 2"," more"],"ticketUrl":null,"time":" 7pm"},{"categories":["Music"],"eDate":"2024-09-06","eName":"The Volcanics","genre":"Rock","price":"$23.50","supports":["Yabby"," JJ Mccann Transmission"],"ticketUrl":null,"time":" 8:30pm"}],"vName":"The Tote Hotel"},"type":"Feature"},{"geometry":{"coordinates":[144.9983987,-37.7729204],"type":"Point"},"properties":{"events":[{"categories":["Music"],"eDate":"2024-09-06","eName":"Emily Burke: Undercover","genre":"Classical","price":"$38.80","supports":[],"ticketUrl":null,"time":" 8pm"}],"vName":"Wesley Anne"},"type":"Feature"},{"geometry":{"coordinates":[144.9618426,-37.8125531],"type":"Point"},"properties":{"events":[{"categories":["Free","Music","Other \"Food & Drink\""],"eDate":"2024-09-06","eName":"Fridays With Mike Gurrieri: The Choobs","genre":"Electronic","price":"Free","supports":["Ben Emes"],"ticketUrl":null,"time":" 5pm"}],"vName":"Whitehart Bar"},"type":"Feature"}],"type":"FeatureCollection"}