{"features":[{"geometry":{"coordinates":[144.99828116650363,-37.7713296],"type":"Point"},"properties":{"events":[{"categories":["Music"],"eDate":"2024-09-14","eName":"Loz Irwin-Ray + Chev Person","genre":"Indie","price":"$15.00 - 20.00","supports":[],"ticketUrl":null,"time":" 4pm"},{"categories":["Music"],"eDate":"2024-09-14","eName":"Rudi Sound System: Jah Carlos + Tea Money","genre":"R&B","price":"Free","supports":[],"ticketUrl":null,"time":" 8pm"}],"vName":"Bar 303"},"type":"Feature"},{"geometry":{"coordinates":[144.978682,-37.7981225],"type":"Point"},"properties":{"events":[{"categories":["Free","Music"],"eDate":"2024-09-14","eName":"Lewis C","genre":null,"price":"Free","supports":[],"ticketUrl":null,"time":" 9:30pm"},{"categories":["Music"],"eDate":"2024-09-14","eName":"Gerry Murphy","genre":"Indie","price":"Free","supports":[],"ticketUrl":null,"time":"10pm"}],"vName":"Baxter's Lot"},"type":"Feature"},{"geometry":{"coordinates":[144.9607158,-37.776327],"type":"Point"},"properties":{"events":[{"categories":["Music"],"eDate":"2024-09-14","eName":"Majak Door","genre":"Rock","price":"$29.99","supports":["Hassall"," Harriet Wraith"],"ticketUrl":null,"time":" 1pm"},{"categories":["Music"],"eDate":"2024-09-14","eName":"Osaka Punch","genre":"Metal","price":"$35.00","supports":["Sentia"," Trubug"],"ticketUrl":null,"time":" 8pm"}],"vName":"Bergy Bandroom"},"type":"Feature"},{"geometry":{"coordinates":[144.9617018,-37.7704566],"type":"Point"},"properties":{"events":[{"categories":["Music","Other \"Film\""],"eDate":"2024-09-14","eName":"Dustyesky: Performs Music to the Screening of 'Earth'","genre":"Acoustic","price":"$60.79","supports":[],"ticketUrl":null,"time":" 2:30pm"},{"categories":["Music"],"eDate":"2024-09-14","eName":"Monique Brumby: Retrospective","genre":"Indie","price":"$43.96","supports":["Opelousas"," Hannah May"],"ticketUrl":null,"time":" 7:30pm"}],"vName":"Brunswick Ballroom"},"type":"Feature"},{"geometry":{"coordinates":[144.9713425,-37.8128595],"type":"Point"},"properties":{"events":[{"categories":["Music"],"eDate":"2024-09-14","eName":"Murray Cook’s Soul Movers","genre":"Soul/Funk","price":"$22.59","supports":["Barefoot Spacemen"],"ticketUrl":null,"time":" 8pm"}],"vName":"Cherry Bar"},"type":"Feature"},{"geometry":{"coordinates":[144.9248037207342,-37.7656716],"type":"Point"},"properties":{"events":[{"categories":["Festival"],"eDate":"2024-09-14","eName":"Natural Bodybuilding Asia Pacific: Victorian State Titles","genre":null,"price":"$50.00","supports":[],"ticketUrl":null,"time":" 9am"}],"vName":"Clocktower Centre"},"type":"Feature"},{"geometry":{"coordinates":[144.99266639479475,-37.82488935],"type":"Point"},"properties":{"events":[{"categories":["Music"],"eDate":"2024-09-14","eName":"Dane Blacklock & The Preacher's Daughter","genre":"Blues","price":"$35.30","supports":[],"ticketUrl":null,"time":" 8:30pm"}],"vName":"Corner Hotel"},"type":"Feature"},{"geometry":{"coordinates":[144.96947,-37.816565],"type":"Point"},"properties":{"events":[{"categories":["Music"],"eDate":"2024-09-14","eName":"Teenage Dads","genre":"Punk","price":"$67.05","supports":["Phoebe Go"," Aleksiah"],"ticketUrl":null,"time":" 7pm"}],"vName":"Forum Melbourne"},"type":"Feature"},{"geometry":{"coordinates":[144.9875917,-37.7963837],"type":"Point"},"properties":{"events":[{"categories":["Free","Music"],"eDate":"2024-09-14","eName":"Louts + Arabella & The Heist","genre":"Punk","price":"Free","supports":["Scud"," Glen"],"ticketUrl":null,"time":" 4pm"},{"categories":["Free","Music"],"eDate":"2024-09-14","eName":"Helen Townsend & The Wayward Hearts","genre":"Country/Folk","price":"Free","supports":[],"ticketUrl":null,"time":" 8pm"}],"vName":"Gem Bar"},"type":"Feature"},{"geometry":{"coordinates":[144.9778169,-37.8600967],"type":"Point"},"properties":{"events":[{"categories":["Music"],"eDate":"2024-09-14","eName":"Folk on the South Side","genre":null,"price":"$20.00","supports":[],"ticketUrl":null,"time":" 7pm"}],"vName":"George Lane"},"type":"Feature"},{"geometry":{"coordinates":[144.9787445,-37.7967357],"type":"Point"},"properties":{"events":[{"categories":["Music"],"eDate":"2024-09-14","eName":"Nu Techno Day Party","genre":"Electronic","price":"$22.49","supports":[],"ticketUrl":null,"time":" 4pm"}],"vName":"Glamorama"},"type":"Feature"},{"geometry":{"coordinates":[144.9679835243618,-37.8201575],"type":"Point"},"properties":{"events":[{"categories":["Music"],"eDate":"2024-09-14","eName":"Tan Dun: Nine","genre":"Classical","price":"$75.00 - 125.00","supports":[],"ticketUrl":null,"time":" 7:30pm"}],"vName":"Hamer Hall (Arts Centre Melbourne)"},"type":"Feature"},{"geometry":{"coordinates":[144.9596527,-37.7720304],"type":"Point"},"properties":{"events":[{"categories":["Free","Music"],"eDate":"2024-09-14","eName":"Soirée","genre":"Electronic","price":"Free","supports":[],"ticketUrl":null,"time":" 7pm"},{"categories":["Music"],"eDate":"2024-09-14","eName":"Conrad Sewell","genre":"Pop","price":"$50.00","supports":[],"ticketUrl":null,"time":" 8pm"}],"vName":"Howler"},"type":"Feature"},{"geometry":{"coordinates":[145.0008148,-37.8107158],"type":"Point"},"properties":{"events":[{"categories":["Music"],"eDate":"2024-09-14","eName":"Pink Lady","genre":"Rock","price":"$20.00","supports":["Calling George"," Sledgehammer Honey"],"ticketUrl":null,"time":" 8pm"}],"vName":"Leadbeater Hotel"},"type":"Feature"},{"geometry":{"coordinates":[144.8971518,-37.8054274],"type":"Point"},"properties":{"events":[{"categories":["Free","Music"],"eDate":"2024-09-14","eName":"Midnight Violet","genre":null,"price":"Free","supports":["Complainer"," The Kick Heavy"],"ticketUrl":null,"time":" 7:30pm"}],"vName":"Mamma Chen's"},"type":"Feature"},{"geometry":{"coordinates":[144.96741062735794,-37.82454855],"type":"Point"},"properties":{"events":[{"categories":["Music"],"eDate":"2024-09-14","eName":"Vardos: Women of Eastern European Music","genre":"Global","price":"$37.00","supports":[],"ticketUrl":null,"time":" 7pm"},{"categories":["Music"],"eDate":"2024-09-14","eName":"Brandenburg: Handel's House","genre":"Classical","price":"$30.00","supports":[],"ticketUrl":null,"time":" 7pm"}],"vName":"Melbourne Recital Centre"},"type":"Feature"},{"geometry":{"coordinates":[144.9786817,-37.8671902],"type":"Point"},"properties":{"events":[{"categories":["Music"],"eDate":"2024-09-14","eName":"Grand Wazoo: Springtime Soul Spectacular","genre":"Soul/Funk","price":"$55.00 - 60.00","supports":[],"ticketUrl":null,"time":" 7pm"}],"vName":"Memo Music Hall"},"type":"Feature"},{"geometry":{"coordinates":[144.9712356,-37.812902],"type":"Point"},"properties":{"events":[{"categories":["Comedy"],"eDate":"2024-09-14","eName":"Basement Comedy Club","genre":null,"price":"$25.00","supports":[],"ticketUrl":null,"time":" 8pm"}],"vName":"Morris House"},"type":"Feature"},{"geometry":{"coordinates":[144.998414,-37.771471],"type":"Point"},"properties":{"events":[{"categories":["Music"],"eDate":"2024-09-14","eName":"The Omnific","genre":"Rock","price":"$29.90","supports":["Lune"],"ticketUrl":null,"time":" 8:30pm"}],"vName":"Northcote Social Club"},"type":"Feature"},{"geometry":{"coordinates":[144.97711,-37.79833],"type":"Point"},"properties":{"events":[{"categories":["Music"],"eDate":"2024-09-14","eName":"Eyes Ninety","genre":"Rock","price":"$17.35","supports":["Digger & The Pussycats"," The Misanthropes"," The Salmon Sisters"],"ticketUrl":null,"time":" 8pm"}],"vName":"Old Bar"},"type":"Feature"},{"geometry":{"coordinates":[144.9605705,-37.8132486],"type":"Point"},"properties":{"events":[{"categories":["Music"],"eDate":"2024-09-14","eName":"Not So Big Band: A Tribute To Kind of Blue (with Gianni Marinucci)","genre":"Jazz","price":"$45.00","supports":[],"ticketUrl":null,"time":" 6pm"},{"categories":["Music"],"eDate":"2024-09-14","eName":"Jessie Gordon & Mark Turner","genre":"Jazz","price":"$45.00","supports":[],"ticketUrl":null,"time":" 6:30pm"},{"categories":["Music"],"eDate":"2024-09-14","eName":"Cannonball with Chantal Mitvalsky","genre":"Jazz","price":"$45.00","supports":[],"ticketUrl":null,"time":" 9pm"},{"categories":["Music"],"eDate":"2024-09-14","eName":"Richard Pavlidis Quartet","genre":"Jazz","price":"$45.00","supports":[],"ticketUrl":null,"time":" 9:30pm"}],"vName":"Paris Cat Jazz Club"},"type":"Feature"},{"geometry":{"coordinates":[144.9615882,-37.7711432],"type":"Point"},"properties":{"events":[{"categories":["Music"],"eDate":"2024-09-14","eName":"Tha Unktion","genre":null,"price":"$30.00 - 40.00","supports":["Borringal"," Mr. Congo"," ACP"," Yambra"," RAP"," Jak"," dappah"," Smirk"," PKG"," Olive Yaah"," Leo"," Nobuki"," MpathSoul"," Culture Evolves"," Nnamdi"," Wrong Ways"," Shiralee Hood"," Alchemy Orange"],"ticketUrl":null,"time":" 2pm"}],"vName":"Retreat Hotel"},"type":"Feature"},{"geometry":{"coordinates":[144.9631913,-37.7617818],"type":"Point"},"properties":{"events":[{"categories":["Free","Music"],"eDate":"2024-09-14","eName":"Social Street + Public Leisure","genre":"Rock","price":"Free","supports":[],"ticketUrl":null,"time":" 8pm"}],"vName":"Ringo Barr"},"type":"Feature"},{"geometry":{"coordinates":[145.001392343033,-37.75592655],"type":"Point"},"properties":{"events":[{"categories":["Music"],"eDate":"2024-09-14","eName":"Fridge","genre":"Rock","price":"$28.80","supports":["Grytt"," The Dive Bombs"],"ticketUrl":null,"time":" 8pm"}],"vName":"Shotkickers"},"type":"Feature"},{"geometry":{"coordinates":[144.9607404,-37.7743469],"type":"Point"},"properties":{"events":[{"categories":["Music"],"eDate":"2024-09-14","eName":"Lil Peep vs $uicideboy$","genre":"Hip Hop","price":"$14.30 - 22.00","supports":[],"ticketUrl":null,"time":"11pm"}],"vName":"Stay Gold"},"type":"Feature"},{"geometry":{"coordinates":[144.97515565,-37.805788500000006],"type":"Point"},"properties":{"events":[{"categories":["Music"],"eDate":"2024-09-14","eName":"Pet Therapy","genre":"Rock","price":"$15.00","supports":["Planet Bitchy"," Chloe Booth"],"ticketUrl":null,"time":" 7:30pm"}],"vName":"The Catfish"},"type":"Feature"},{"geometry":{"coordinates":[144.9657057,-37.8061581],"type":"Point"},"properties":{"events":[{"categories":["Music"],"eDate":"2024-09-14","eName":"Dr Sure's Unusual Practice","genre":"Punk","price":"$22.85","supports":[],"ticketUrl":null,"time":" 8pm"}],"vName":"The Curtin"},"type":"Feature"},{"geometry":{"coordinates":[144.9585654,-37.8059962],"type":"Point"},"properties":{"events":[{"categories":["Music"],"eDate":"2024-09-14","eName":"Arse","genre":"Punk","price":"$16.35","supports":[],"ticketUrl":null,"time":" 8:30pm"}],"vName":"The Last Chance Rock & Roll Bar"},"type":"Feature"},{"geometry":{"coordinates":[144.9708437,-37.7973184],"type":"Point"},"properties":{"events":[{"categories":["Free","Music"],"eDate":"2024-09-14","eName":"Jazz Arvos","genre":"Jazz","price":"Free","supports":[],"ticketUrl":null,"time":" 5pm"},{"categories":["Music"],"eDate":"2024-09-14","eName":"Simone Spittle: Drama Queen Launch","genre":"Indie","price":"$20.26","supports":[],"ticketUrl":null,"time":" 7pm"},{"categories":["Comedy"],"eDate":"2024-09-14","eName":"The Big HOO HAA!","genre":null,"price":"$30.39","supports":[],"ticketUrl":null,"time":" 8:30pm"}],"vName":"The Motley Bauhaus"},"type":"Feature"},{"geometry":{"coordinates":[144.9651425,-37.8119429],"type":"Point"},"properties":{"events":[{"categories":["Music"],"eDate":"2024-09-14","eName":"Dosa Dopa Naarm Vol. 02","genre":"Electronic","price":"$23.46 - 28.56","supports":[],"ticketUrl":null,"time":" 8pm"}],"vName":"The Toff In Town"},"type":"Feature"},{"geometry":{"coordinates":[144.9846126,-37.7989941],"type":"Point"},"properties":{"events":[{"categories":["Music"],"eDate":"2024-09-14","eName":"27Fest","genre":"Punk","price":"$35.00","supports":[],"ticketUrl":null,"time":" 6pm"},{"categories":["Music"],"eDate":"2024-09-14","eName":"Sun Run","genre":null,"price":"$11.25","supports":["Sunk Cost"," Foley"],"ticketUrl":null,"time":" 8pm"}],"vName":"The Tote Hotel"},"type":"Feature"},{"geometry":{"coordinates":[144.94904484115614,-37.80420155],"type":"Point"},"properties":{"events":[{"categories":["Music"],"eDate":"2024-09-14","eName":"The Tommys","genre":"Rock","price":"Free","supports":["The Interceptors"],"ticketUrl":null,"time":" 8pm"}],"vName":"Town Hall Hotel"},"type":"Feature"},{"geometry":{"coordinates":[144.9618426,-37.8125531],"type":"Point"},"properties":{"events":[{"categories":["Free","Music"],"eDate":"2024-09-14","eName":"Uncut Rhythm","genre":"Electronic","price":"Free","supports":["binofski"," Skyyy"," Charles-Eddy"],"ticketUrl":null,"time":" 5pm"}],"vName":"Whitehart Bar"},"type":"Feature"}],"type":"FeatureCollection"}