{"features":[{"geometry":{"coordinates":[144.9679835243618,-37.8201575],"type":"Point"},"properties":{"events":[{"categories":["Comedy","Other \"Cabaret\""],"eDate":"2025-04-17","eName":"Adults Only Magic Show","genre":null,"price":"$39.00 - 49.00","supports":[],"ticketUrl":null,"time":" 9:45pm"}],"vName":"Arts Centre Melbourne"},"type":"Feature"},{"geometry":{"coordinates":[144.978425,-37.79773],"type":"Point"},"properties":{"events":[{"categories":["Free","Music"],"eDate":"2025-04-17","eName":"Monty Shnier Quartet","genre":"Jazz","price":"Free","supports":[],"ticketUrl":null,"time":" 6:30pm"}],"vName":"Bar Open"},"type":"Feature"},{"geometry":{"coordinates":[144.978682,-37.7981225],"type":"Point"},"properties":{"events":[{"categories":["Free","Music"],"eDate":"2025-04-17","eName":"Woody Samson","genre":null,"price":"Free","supports":[],"ticketUrl":null,"time":" 9pm"}],"vName":"Baxter's Lot"},"type":"Feature"},{"geometry":{"coordinates":[144.98911674151407,-37.79964875],"type":"Point"},"properties":{"events":[{"categories":["Music"],"eDate":"2025-04-17","eName":"Skull Draught Can Launch","genre":"Metal","price":"$17.35","supports":[],"ticketUrl":null,"time":" 9pm"}],"vName":"Bendigo Hotel"},"type":"Feature"},{"geometry":{"coordinates":[144.9607158,-37.776327],"type":"Point"},"properties":{"events":[{"categories":["Music"],"eDate":"2025-04-17","eName":"Sleepazoid","genre":"Rock","price":"$16.85 - 22.95","supports":["Mr Industry"," Resenter"],"ticketUrl":null,"time":" 7:30pm"}],"vName":"Bergy Bandroom"},"type":"Feature"},{"geometry":{"coordinates":[144.99266639479475,-37.82488935],"type":"Point"},"properties":{"events":[{"categories":["Music"],"eDate":"2025-04-17","eName":"The Pretty Littles","genre":"Rock","price":"$40.40","supports":[],"ticketUrl":null,"time":" 8pm"}],"vName":"Corner Hotel"},"type":"Feature"},{"geometry":{"coordinates":[144.9679835243618,-37.8201575],"type":"Point"},"properties":{"events":[{"categories":["Comedy"],"eDate":"2025-04-17","eName":"My Cousin Vlad: Life's A Joke","genre":null,"price":"$49.90 - 59.90","supports":[],"ticketUrl":null,"time":" 8pm"}],"vName":"Hamer Hall (Arts Centre Melbourne)"},"type":"Feature"},{"geometry":{"coordinates":[145.0008148,-37.8107158],"type":"Point"},"properties":{"events":[{"categories":["Music"],"eDate":"2025-04-17","eName":"Anoxia","genre":"Metal","price":"$23.75","supports":[],"ticketUrl":null,"time":" 8pm"}],"vName":"Leadbeater Hotel"},"type":"Feature"},{"geometry":{"coordinates":[144.96741062735794,-37.82454855],"type":"Point"},"properties":{"events":[{"categories":["Music"],"eDate":"2025-04-17","eName":"Metropolis: Composing Australia Two","genre":"Classical","price":"$55.00","supports":[],"ticketUrl":null,"time":" 7:30pm"}],"vName":"Melbourne Recital Centre"},"type":"Feature"},{"geometry":{"coordinates":[144.998414,-37.771471],"type":"Point"},"properties":{"events":[{"categories":["Music"],"eDate":"2025-04-17","eName":"Ruby Gill","genre":"Indie","price":"$30.00 - 40.40","supports":["Hannah Cameron"," more"],"ticketUrl":null,"time":" 7:30pm"}],"vName":"Northcote Social Club"},"type":"Feature"},{"geometry":{"coordinates":[144.9988348,-37.8525949],"type":"Point"},"properties":{"events":[{"categories":["Music"],"eDate":"2025-04-17","eName":"The Journey (Test Match): Good Friday Eve","genre":"Electronic","price":"$15.00","supports":["Jay Ramon"," Cara Murphy"," Yanni Arsenakis"," Wunderkind"," Ben Lawrence"," Klasev"],"ticketUrl":null,"time":" 8pm"}],"vName":"OneSixOne"},"type":"Feature"},{"geometry":{"coordinates":[144.9605705,-37.8132486],"type":"Point"},"properties":{"events":[{"categories":["Music"],"eDate":"2025-04-17","eName":"Gianni Marinucci's Nonet with Emma Gilmartin","genre":"Jazz","price":"$45.00","supports":[],"ticketUrl":null,"time":" 7:30pm"},{"categories":["Music"],"eDate":"2025-04-17","eName":"Georgia Brooks Swingtet","genre":"Jazz","price":"$45.00","supports":[],"ticketUrl":null,"time":" 8pm"}],"vName":"Paris Cat Jazz Club"},"type":"Feature"},{"geometry":{"coordinates":[144.90239079583333,-37.79990865],"type":"Point"},"properties":{"events":[{"categories":["Music"],"eDate":"2025-04-17","eName":"(Pride's Version 2.0) The Taylor Swift Drag Concert","genre":"Pop","price":"$26.00","supports":[],"ticketUrl":null,"time":" 8:30pm"}],"vName":"Pride Of Our Footscray Community Bar"},"type":"Feature"},{"geometry":{"coordinates":[145.0142411,-37.7310367],"type":"Point"},"properties":{"events":[{"categories":["Free","Music"],"eDate":"2025-04-17","eName":"Open Mic @ Ragtime Tavern","genre":"Acoustic","price":"Free","supports":[],"ticketUrl":null,"time":" 7pm"}],"vName":"Ragtime Tavern"},"type":"Feature"},{"geometry":{"coordinates":[144.9615882,-37.7711432],"type":"Point"},"properties":{"events":[{"categories":["Free","Music"],"eDate":"2025-04-17","eName":"The Great Divides","genre":"Indie","price":"Free","supports":["Gavin!"],"ticketUrl":null,"time":" 6pm"},{"categories":["Free","Music"],"eDate":"2025-04-17","eName":"Al Otro Lado Del Mundo Band: Pal Mar","genre":null,"price":"Free","supports":[],"ticketUrl":null,"time":" 7pm"}],"vName":"Retreat Hotel"},"type":"Feature"},{"geometry":{"coordinates":[144.993413,-37.8506652],"type":"Point"},"properties":{"events":[{"categories":["Music"],"eDate":"2025-04-17","eName":"Optimal presents DJ Spit","genre":"Electronic","price":"$26.52 - 36.72","supports":["DJ Wise"," DJ Gracey"," Jessy"," Séarlait"],"ticketUrl":null,"time":"11:55pm"}],"vName":"Revolver Upstairs"},"type":"Feature"},{"geometry":{"coordinates":[145.001392343033,-37.75592655],"type":"Point"},"properties":{"events":[{"categories":["Free","Music"],"eDate":"2025-04-17","eName":"The Seven Ups","genre":"Rock","price":"Free","supports":["Boggle"],"ticketUrl":null,"time":" 8pm"}],"vName":"Shotkickers"},"type":"Feature"},{"geometry":{"coordinates":[144.9555612,-37.8066759],"type":"Point"},"properties":{"events":[{"categories":["Free","Music"],"eDate":"2025-04-17","eName":"Moosejaw Rifle Club","genre":"Country/Folk","price":"Free","supports":[],"ticketUrl":null,"time":" 4pm"},{"categories":["Free","Music"],"eDate":"2025-04-17","eName":"Open Mic Night @ The Drunken Poet","genre":"Acoustic","price":"Free","supports":[],"ticketUrl":null,"time":" 5pm"}],"vName":"The Drunken Poet"},"type":"Feature"},{"geometry":{"coordinates":[144.958676,-37.7669571],"type":"Point"},"properties":{"events":[{"categories":["Music"],"eDate":"2025-04-17","eName":"Luoda","genre":"Jazz","price":"$25.00 - 30.00","supports":[],"ticketUrl":null,"time":" 7:30pm"}],"vName":"The Jazzlab"},"type":"Feature"},{"geometry":{"coordinates":[144.9585654,-37.8059962],"type":"Point"},"properties":{"events":[{"categories":["Music"],"eDate":"2025-04-17","eName":"Fungas","genre":"Rock","price":"$11.25","supports":["The Antics"," The Med Heads"],"ticketUrl":null,"time":" 8pm"}],"vName":"The Last Chance Rock & Roll Bar"},"type":"Feature"},{"geometry":{"coordinates":[144.98000674626056,-37.76711995],"type":"Point"},"properties":{"events":[{"categories":["Music"],"eDate":"2025-04-17","eName":"Buttered Loaf","genre":"Soul/Funk","price":"$15.00","supports":[],"ticketUrl":null,"time":" 8pm"}],"vName":"The Lomond Hotel"},"type":"Feature"},{"geometry":{"coordinates":[144.9968036,-37.7794807],"type":"Point"},"properties":{"events":[{"categories":["Music"],"eDate":"2025-04-17","eName":"Malibu Spacey","genre":"Rock","price":"$12.50","supports":["Ellen James & The Waning Crescents"],"ticketUrl":null,"time":" 8pm"}],"vName":"The Merri Creek Tavern"},"type":"Feature"},{"geometry":{"coordinates":[144.9708437,-37.7973184],"type":"Point"},"properties":{"events":[{"categories":["Comedy"],"eDate":"2025-04-17","eName":"Nathan Hugh: Robért Tiny King","genre":null,"price":"$20.26 - 25.33","supports":[],"ticketUrl":null,"time":" 7:15pm"}],"vName":"The Motley Bauhaus"},"type":"Feature"},{"geometry":{"coordinates":[144.9830837,-37.7988316],"type":"Point"},"properties":{"events":[{"categories":["Music"],"eDate":"2025-04-17","eName":"Norman Jay presents Good Times Melbourne","genre":"Electronic","price":"$34.66 - 44.86","supports":[],"ticketUrl":null,"time":" 9pm"}],"vName":"The Night Cat"},"type":"Feature"},{"geometry":{"coordinates":[144.9846126,-37.7989941],"type":"Point"},"properties":{"events":[{"categories":["Music"],"eDate":"2025-04-17","eName":"Sundreamer","genre":"Rock","price":"$20.40","supports":["Reckon"," Matahari"],"ticketUrl":null,"time":" 7:30pm"},{"categories":["Music"],"eDate":"2025-04-17","eName":"Delivery","genre":"Rock","price":"$28.60","supports":["The Native Cats"," Big Farmer"," Equal Parts"],"ticketUrl":null,"time":" 8pm"}],"vName":"The Tote Hotel"},"type":"Feature"},{"geometry":{"coordinates":[144.9769450659087,-37.8055776],"type":"Point"},"properties":{"events":[{"categories":["Music"],"eDate":"2025-04-17","eName":"daezy EP Launch","genre":"Pop","price":"$23.50","supports":["Strawbz"," Hannah Donnelly"],"ticketUrl":null,"time":" 7pm"}],"vName":"The Workers Club"},"type":"Feature"},{"geometry":{"coordinates":[144.9618426,-37.8125531],"type":"Point"},"properties":{"events":[{"categories":["Free","Music"],"eDate":"2025-04-17","eName":"Inner Sanctuary FEAT: DJ JNETT + Jimmy James","genre":null,"price":"Free","supports":[],"ticketUrl":null,"time":" 3pm"}],"vName":"Whitehart Bar"},"type":"Feature"},{"geometry":{"coordinates":[144.8946587,-37.8151254],"type":"Point"},"properties":{"events":[{"categories":["Music"],"eDate":"2025-04-17","eName":"Pseudo Echo","genre":null,"price":"$45.00","supports":["Jaron & Chris Natoli"],"ticketUrl":null,"time":" 6:45pm"}],"vName":"Yarraville Club"},"type":"Feature"}],"type":"FeatureCollection"}