{"features":[{"geometry":{"coordinates":[144.98911674151407,-37.79964875],"type":"Point"},"properties":{"events":[{"categories":["Music"],"eDate":"2024-03-22","eName":"MORTIIS","genre":"Metal","price":"$49.66","supports":[],"ticketUrl":null,"time":" 8:30pm"}],"vName":"Bendigo Hotel"},"type":"Feature"},{"geometry":{"coordinates":[144.9713425,-37.8128595],"type":"Point"},"properties":{"events":[{"categories":["Music"],"eDate":"2024-03-22","eName":"La Furia","genre":"Rock","price":"$27.70","supports":[],"ticketUrl":null,"time":" 8pm"}],"vName":"Cherry Bar"},"type":"Feature"},{"geometry":{"coordinates":[144.9745581,-37.7694446],"type":"Point"},"properties":{"events":[{"categories":["Music"],"eDate":"2024-03-22","eName":"Fridays @ Crossstreet: Lisa Salvo & Lounge Room Present","genre":null,"price":"$20.00","supports":[],"ticketUrl":null,"time":" 7:30pm"}],"vName":"Cross Street Music Hall"},"type":"Feature"},{"geometry":{"coordinates":[144.9628440552175,-37.76100605],"type":"Point"},"properties":{"events":[{"categories":["Free","Music","Trivia"],"eDate":"2024-03-22","eName":"Bingo & Disco","genre":"Electronic","price":"Free","supports":[],"ticketUrl":null,"time":" 8pm"}],"vName":"Edinburgh Castle Hotel"},"type":"Feature"},{"geometry":{"coordinates":[144.9875917,-37.7963837],"type":"Point"},"properties":{"events":[{"categories":["Free","Music"],"eDate":"2024-03-22","eName":"The Breadmakers + Plastic Section + DJ Owen Penglis","genre":"Rock","price":"Free","supports":[],"ticketUrl":null,"time":" 8pm"}],"vName":"Gem Bar"},"type":"Feature"},{"geometry":{"coordinates":[145.03588565533943,-37.8230335],"type":"Point"},"properties":{"events":[{"categories":["Music"],"eDate":"2024-03-22","eName":"Black Jesus Experience","genre":null,"price":"$30.00 - 38.00","supports":[],"ticketUrl":null,"time":" 8pm"}],"vName":"Hawthorn Arts Centre"},"type":"Feature"},{"geometry":{"coordinates":[144.973013,-37.8640582],"type":"Point"},"properties":{"events":[{"categories":["Music"],"eDate":"2024-03-22","eName":"Mulalo","genre":"Hip Hop","price":"$28.05","supports":[],"ticketUrl":null,"time":" 9pm"}],"vName":"Hotel Esplanade (aka The Espy)"},"type":"Feature"},{"geometry":{"coordinates":[144.9764962,-37.7983139],"type":"Point"},"properties":{"events":[{"categories":["Music"],"eDate":"2024-03-22","eName":"BANNED FROM NSW Feat. Huskii","genre":"Hip Hop","price":"$66.06","supports":["ROPS1"," NTER"," That Kid Kearve"," Fortay"],"ticketUrl":null,"time":" 8:30pm"}],"vName":"Laundry Bar"},"type":"Feature"},{"geometry":{"coordinates":[144.96741062735794,-37.82454855],"type":"Point"},"properties":{"events":[{"categories":["Music"],"eDate":"2024-03-22","eName":"J&Y Piano Duo","genre":"Classical","price":"$39.00","supports":[],"ticketUrl":null,"time":" 7:30pm"},{"categories":["Other \"Film\""],"eDate":"2024-03-22","eName":"Ryuichi Sakamoto: Opus (Screening)","genre":null,"price":"$45.00","supports":[],"ticketUrl":null,"time":" 7:30pm"}],"vName":"Melbourne Recital Centre"},"type":"Feature"},{"geometry":{"coordinates":[145.3553553,-37.9078552],"type":"Point"},"properties":{"events":[{"categories":["Free","Music"],"eDate":"2024-03-22","eName":"Henry Ballard","genre":"Acoustic","price":"Free","supports":[],"ticketUrl":null,"time":" 7pm"}],"vName":"Micawber Tavern"},"type":"Feature"},{"geometry":{"coordinates":[144.97711,-37.79833],"type":"Point"},"properties":{"events":[{"categories":["Music"],"eDate":"2024-03-22","eName":"Eggy","genre":"Rock","price":"$10.00 - 20.00","supports":["Bad Bangs"," Program"],"ticketUrl":null,"time":" 8pm"}],"vName":"Old Bar"},"type":"Feature"},{"geometry":{"coordinates":[144.9706095,-37.7783326],"type":"Point"},"properties":{"events":[{"categories":["Free","Music"],"eDate":"2024-03-22","eName":"The Dead Amigos + JAG","genre":"Rock","price":"Free","supports":[],"ticketUrl":null,"time":" 8pm"}],"vName":"The Beast"},"type":"Feature"},{"geometry":{"coordinates":[144.9657057,-37.8061581],"type":"Point"},"properties":{"events":[{"categories":["Music"],"eDate":"2024-03-22","eName":"The Minneapolis Uranium Club","genre":"Rock","price":"$38.70","supports":["Dumb Punts"," Dragnet"],"ticketUrl":null,"time":" 8:30pm"}],"vName":"The Curtin"},"type":"Feature"},{"geometry":{"coordinates":[145.0010957,-37.7546577],"type":"Point"},"properties":{"events":[{"categories":["Music"],"eDate":"2024-03-22","eName":"Joe Camilleri & The Black Sorrows","genre":"Soul/Funk","price":"$59.90","supports":[],"ticketUrl":null,"time":" 7pm"}],"vName":"The Thornbury Theatre"},"type":"Feature"},{"geometry":{"coordinates":[144.9769450659087,-37.8055776],"type":"Point"},"properties":{"events":[{"categories":["Music"],"eDate":"2024-03-22","eName":"Little Green","genre":"Indie","price":"$23.20","supports":["EUCA"," Amy Pollock"],"ticketUrl":null,"time":" 8pm"}],"vName":"The Workers Club"},"type":"Feature"}],"type":"FeatureCollection"}