{"features":[{"geometry":{"coordinates":[144.9763781,-37.7983136],"type":"Point"},"properties":{"events":[{"categories":["Music"],"eDate":"2023-12-22","eName":"Club Riot: LGBTQ Alt Christmas Party","genre":"Punk","price":"$15.00","supports":["Don't Text Your Ex"],"ticketUrl":null,"time":" 8pm"}],"vName":"Bad Decisions Bar"},"type":"Feature"},{"geometry":{"coordinates":[144.978425,-37.79773],"type":"Point"},"properties":{"events":[{"categories":["Free","Music"],"eDate":"2023-12-22","eName":"The Four Scoops","genre":"Jazz","price":"Free","supports":[],"ticketUrl":null,"time":" 6pm"},{"categories":["Music"],"eDate":"2023-12-22","eName":"Zero City","genre":"Rock","price":"$17.35","supports":["The Noise"," The Subordinates"],"ticketUrl":null,"time":" 8:30pm"}],"vName":"Bar Open"},"type":"Feature"},{"geometry":{"coordinates":[144.9607158,-37.776327],"type":"Point"},"properties":{"events":[{"categories":["Music"],"eDate":"2023-12-22","eName":"No Hard Feelings: Xmas Celebration Show","genre":"Rock","price":"$16.85","supports":["Fennec"," Moth"],"ticketUrl":null,"time":" 8pm"}],"vName":"Bergy Bandroom"},"type":"Feature"},{"geometry":{"coordinates":[145.00041662186553,-37.76125825],"type":"Point"},"properties":{"events":[{"categories":["Music"],"eDate":"2023-12-22","eName":"The Cactus Before Christmas!","genre":"Punk","price":"$15.00","supports":[],"ticketUrl":null,"time":" 6pm"}],"vName":"Cactus Room"},"type":"Feature"},{"geometry":{"coordinates":[144.9787445,-37.7967357],"type":"Point"},"properties":{"events":[{"categories":["Music"],"eDate":"2023-12-22","eName":"Mammal","genre":"Rock","price":"$44.90","supports":[],"ticketUrl":null,"time":" 7:30pm"}],"vName":"Evelyn Hotel"},"type":"Feature"},{"geometry":{"coordinates":[144.9875917,-37.7963837],"type":"Point"},"properties":{"events":[{"categories":["Free","Music"],"eDate":"2023-12-22","eName":"Spunk + Mousse Cannon","genre":"Rock","price":"Free","supports":["DJ Al Matcott"],"ticketUrl":null,"time":" 8pm"}],"vName":"Gem Bar"},"type":"Feature"},{"geometry":{"coordinates":[144.9596527,-37.7720304],"type":"Point"},"properties":{"events":[{"categories":["Music"],"eDate":"2023-12-22","eName":"Grace Cummings","genre":"Country/Folk","price":"$28.56","supports":["Hannah McKittrick"],"ticketUrl":null,"time":" 8pm"}],"vName":"Howler"},"type":"Feature"},{"geometry":{"coordinates":[144.9764962,-37.7983139],"type":"Point"},"properties":{"events":[{"categories":["Music"],"eDate":"2023-12-22","eName":"Girls Club presents U NAUGHTY OR NICE?","genre":null,"price":"$10.00","supports":[],"ticketUrl":null,"time":"10pm"}],"vName":"Laundry Bar"},"type":"Feature"},{"geometry":{"coordinates":[145.0008148,-37.8107158],"type":"Point"},"properties":{"events":[{"categories":["Music"],"eDate":"2023-12-22","eName":"Christmas With Albert Salt","genre":"Indie","price":"$20.00","supports":["Harris"],"ticketUrl":null,"time":" 8pm"}],"vName":"Leadbeater Hotel"},"type":"Feature"},{"geometry":{"coordinates":[144.9936498,-37.8000264],"type":"Point"},"properties":{"events":[{"categories":["Free","Music"],"eDate":"2023-12-22","eName":"A MacQueenie Christmas","genre":"Rock","price":"Free","supports":[],"ticketUrl":null,"time":" 8pm"}],"vName":"Lulie Tavern"},"type":"Feature"},{"geometry":{"coordinates":[144.8971518,-37.8054274],"type":"Point"},"properties":{"events":[{"categories":["Music"],"eDate":"2023-12-22","eName":"Bordeaux Band","genre":null,"price":"$15.00 - 20.00","supports":["Blank Face"," Crushed Lavendar"],"ticketUrl":null,"time":" 7:45pm"}],"vName":"Mamma Chen's"},"type":"Feature"},{"geometry":{"coordinates":[145.3553553,-37.9078552],"type":"Point"},"properties":{"events":[{"categories":["Free","Music","Other \"Food & Drink\""],"eDate":"2023-12-22","eName":"Jon Collins","genre":"Acoustic","price":"Free","supports":[],"ticketUrl":null,"time":" 7pm"}],"vName":"Micawber Tavern"},"type":"Feature"},{"geometry":{"coordinates":[144.9712356,-37.812902],"type":"Point"},"properties":{"events":[{"categories":["Comedy"],"eDate":"2023-12-22","eName":"Basement Comedy Club Fridays","genre":null,"price":"$22.00","supports":["more"],"ticketUrl":null,"time":" 8pm"}],"vName":"Morris House"},"type":"Feature"},{"geometry":{"coordinates":[144.998414,-37.771471],"type":"Point"},"properties":{"events":[{"categories":["Music","Other \"Cabaret\""],"eDate":"2023-12-22","eName":"Dane Blacklock & The Preacher's Daughter","genre":"Jazz","price":"$46.00","supports":["Fribby & the Femmes"," Cyclo Timik"],"ticketUrl":null,"time":" 8:30pm"}],"vName":"Northcote Social Club"},"type":"Feature"},{"geometry":{"coordinates":[144.97711,-37.79833],"type":"Point"},"properties":{"events":[{"categories":["Music"],"eDate":"2023-12-22","eName":"Riffmas","genre":null,"price":"$11.25","supports":[],"ticketUrl":null,"time":" 8pm"}],"vName":"Old Bar"},"type":"Feature"},{"geometry":{"coordinates":[144.90239079583333,-37.79990865],"type":"Point"},"properties":{"events":[{"categories":["Other \"Cabaret\""],"eDate":"2023-12-22","eName":"Aubrey Haive Yourself A Merry Christmas","genre":null,"price":"$20.00","supports":[],"ticketUrl":null,"time":" 8pm"}],"vName":"Pride Of Our Footscray Community Bar"},"type":"Feature"},{"geometry":{"coordinates":[145.0142411,-37.7310367],"type":"Point"},"properties":{"events":[{"categories":["Free","Music"],"eDate":"2023-12-22","eName":"Staff Extravaganza","genre":"Jazz","price":"Free","supports":[],"ticketUrl":null,"time":" 8pm"}],"vName":"Ragtime Tavern"},"type":"Feature"},{"geometry":{"coordinates":[144.9706095,-37.7783326],"type":"Point"},"properties":{"events":[{"categories":["Free","Other \"Cabaret\""],"eDate":"2023-12-22","eName":"Homo Alono 2: Lost In Brunswick East","genre":null,"price":"Free","supports":[],"ticketUrl":null,"time":" 8pm"}],"vName":"The Beast"},"type":"Feature"},{"geometry":{"coordinates":[144.9657057,-37.8061581],"type":"Point"},"properties":{"events":[{"categories":["Free","Music"],"eDate":"2023-12-22","eName":"Sophisticated Dingo + The Velvet Club: Xmas Eve Eve Eve Show","genre":"Rock","price":"Free","supports":[],"ticketUrl":null,"time":" 8pm"}],"vName":"The Curtin"},"type":"Feature"},{"geometry":{"coordinates":[144.9830837,-37.7988316],"type":"Point"},"properties":{"events":[{"categories":["Music"],"eDate":"2023-12-22","eName":"Milo Eastwood","genre":"Electronic","price":"$30.00","supports":[],"ticketUrl":null,"time":" 9:30pm"}],"vName":"The Night Cat"},"type":"Feature"},{"geometry":{"coordinates":[144.9846126,-37.7989941],"type":"Point"},"properties":{"events":[{"categories":["Music"],"eDate":"2023-12-22","eName":"Fairtrade Narcotics","genre":"Soul/Funk","price":"$11.25","supports":["In Xira"," Sapphire Street"],"ticketUrl":null,"time":" 7pm"},{"categories":["Music"],"eDate":"2023-12-22","eName":"Matesmas At The Tote: Our Carlson + Porpoise Spit","genre":null,"price":"$34.20","supports":[],"ticketUrl":null,"time":" 8pm"}],"vName":"The Tote Hotel"},"type":"Feature"},{"geometry":{"coordinates":[144.9618426,-37.8125531],"type":"Point"},"properties":{"events":[{"categories":["Free","Music","Other \"Food & Drink\""],"eDate":"2023-12-22","eName":"Kgomotso","genre":"Electronic","price":"Free","supports":[],"ticketUrl":null,"time":" 7pm"}],"vName":"Whitehart Bar"},"type":"Feature"}],"type":"FeatureCollection"}