{"features":[{"geometry":{"coordinates":[144.9982812,-37.7713296],"type":"Point"},"properties":{"events":[{"categories":["Music"],"eDate":"2025-07-04","eName":"The Calabrians","genre":"Rock","price":"Free","supports":[],"ticketUrl":null,"time":" 8pm"},{"categories":["Music"],"eDate":"2025-07-04","eName":"Max Bruten","genre":"Jazz","price":"Free","supports":[],"ticketUrl":null,"time":" 8pm"}],"vName":"Bar 303"},"type":"Feature"},{"geometry":{"coordinates":[144.978682,-37.7981225],"type":"Point"},"properties":{"events":[{"categories":["Free","Music"],"eDate":"2025-07-04","eName":"Harrisen Hughes","genre":null,"price":"Free","supports":[],"ticketUrl":null,"time":" 9pm"},{"categories":["Free","Music"],"eDate":"2025-07-04","eName":"DJ Overtime","genre":null,"price":"Free","supports":[],"ticketUrl":null,"time":"10pm"}],"vName":"Baxter's Lot"},"type":"Feature"},{"geometry":{"coordinates":[144.9891167,-37.7996488],"type":"Point"},"properties":{"events":[{"categories":["Music"],"eDate":"2025-07-04","eName":"Forklift Assassins","genre":"Punk","price":"$10.00","supports":["Eat City"," Dedway"," In The Esky"],"ticketUrl":null,"time":" 8:30pm"},{"categories":["Music"],"eDate":"2025-07-04","eName":"Fawk Off: Fawkner’s Last Show","genre":"Punk","price":"$17.35","supports":["Bitch Eyes"," Howling Mountain"," Cat Crawl"],"ticketUrl":null,"time":" 8:30pm"}],"vName":"Bendigo Hotel"},"type":"Feature"},{"geometry":{"coordinates":[144.9568039,-37.8111442],"type":"Point"},"properties":{"events":[{"categories":["Music"],"eDate":"2025-07-04","eName":"In honour of Jeff Beck by Paul Mason with Brett Garsed","genre":"Rock","price":"$40.00","supports":[],"ticketUrl":null,"time":" 7:30pm"}],"vName":"Bird's Basement"},"type":"Feature"},{"geometry":{"coordinates":[144.9617083,-37.7704205],"type":"Point"},"properties":{"events":[{"categories":["Music"],"eDate":"2025-07-04","eName":"George Michael & Whitney Houston: Keep The Faith","genre":"Pop","price":"$49.06","supports":[],"ticketUrl":null,"time":" 8:30pm"}],"vName":"Brunswick Ballroom"},"type":"Feature"},{"geometry":{"coordinates":[144.9713425,-37.8128595],"type":"Point"},"properties":{"events":[{"categories":["Music"],"eDate":"2025-07-04","eName":"Echo Social Club","genre":"Rock","price":"$17.48","supports":["Marionette"," Necko"],"ticketUrl":null,"time":" 8pm"}],"vName":"Cherry Bar"},"type":"Feature"},{"geometry":{"coordinates":[144.9926664,-37.8248893],"type":"Point"},"properties":{"events":[{"categories":["Music"],"eDate":"2025-07-04","eName":"Little Birdy","genre":"Rock","price":"Free","supports":[],"ticketUrl":null,"time":" 8pm"}],"vName":"Corner Hotel"},"type":"Feature"},{"geometry":{"coordinates":[144.973013,-37.8640582],"type":"Point"},"properties":{"events":[{"categories":["Music"],"eDate":"2025-07-04","eName":"“Its Whatevers”: Sharp Edges Live","genre":"Rock","price":"$22.95","supports":["Scarlet Whine"," Chloe Booth"],"ticketUrl":null,"time":" 7:30pm"},{"categories":["Music"],"eDate":"2025-07-04","eName":"Clash of the 90s: 3 Iconic Albums of the 90s","genre":"Rock","price":"$28.05","supports":[],"ticketUrl":null,"time":" 7:30pm"}],"vName":"Hotel Esplanade (aka The Espy)"},"type":"Feature"},{"geometry":{"coordinates":[144.8975289,-37.8022392],"type":"Point"},"properties":{"events":[{"categories":["Free","Music"],"eDate":"2025-07-04","eName":"Your Mothers Disgusting Window","genre":null,"price":"Free","supports":["Teeth Dreams"," Colostomy Baguette?"," False Animal"],"ticketUrl":null,"time":" 7pm"}],"vName":"Mamma Chen's"},"type":"Feature"},{"geometry":{"coordinates":[144.9675876,-37.8240849],"type":"Point"},"properties":{"events":[{"categories":["Music"],"eDate":"2025-07-04","eName":"ZÖJ","genre":"Global","price":"$45.00","supports":[],"ticketUrl":null,"time":" 7pm"}],"vName":"Melbourne Recital Centre"},"type":"Feature"},{"geometry":{"coordinates":[144.9790251,-37.8675008],"type":"Point"},"properties":{"events":[{"categories":["Music"],"eDate":"2025-07-04","eName":"Freya Josephine Hollick, Allison Ferrier & Ange Boxall","genre":"Country/Folk","price":"$25.00 - 40.00","supports":[],"ticketUrl":null,"time":" 7:30pm"}],"vName":"Memo Music Hall"},"type":"Feature"},{"geometry":{"coordinates":[144.998414,-37.771471],"type":"Point"},"properties":{"events":[{"categories":["Music"],"eDate":"2025-07-04","eName":"Joey Lightbulb & Friends","genre":"Electronic","price":"Free","supports":[],"ticketUrl":null,"time":" 8pm"}],"vName":"Northcote Social Club"},"type":"Feature"},{"geometry":{"coordinates":[144.97711,-37.79833],"type":"Point"},"properties":{"events":[{"categories":["Music"],"eDate":"2025-07-04","eName":"Everyday Believer","genre":"Rock","price":"Free","supports":[],"ticketUrl":null,"time":" 8pm"},{"categories":["Music"],"eDate":"2025-07-04","eName":"DJ Danimal","genre":"Electronic","price":"Free","supports":[],"ticketUrl":null,"time":"11pm"}],"vName":"Old Bar"},"type":"Feature"},{"geometry":{"coordinates":[144.96084,-37.813514],"type":"Point"},"properties":{"events":[{"categories":["Music"],"eDate":"2025-07-04","eName":"Not So Big Band: A Tribute To Kind of Blue with Gianni Marinucci","genre":"Jazz","price":"$45.00","supports":[],"ticketUrl":null,"time":" 6pm"},{"categories":["Music"],"eDate":"2025-07-04","eName":"The Consouls","genre":"Jazz","price":"$45.00","supports":[],"ticketUrl":null,"time":" 6:30pm"},{"categories":["Music"],"eDate":"2025-07-04","eName":"Nishla Smith Sings Billie Holiday","genre":"Jazz","price":"$45.00","supports":[],"ticketUrl":null,"time":" 9pm"}],"vName":"Paris Cat Jazz Club"},"type":"Feature"},{"geometry":{"coordinates":[144.9741326,-37.8619943],"type":"Point"},"properties":{"events":[{"categories":["Music"],"eDate":"2025-07-04","eName":"Emo Diva: Doll Partz","genre":"Pop","price":"$0.00 - 21.95","supports":[],"ticketUrl":null,"time":" 9pm"}],"vName":"Prince Bandroom"},"type":"Feature"},{"geometry":{"coordinates":[144.9615882,-37.7711432],"type":"Point"},"properties":{"events":[{"categories":["Music"],"eDate":"2025-07-04","eName":"Tou-Can","genre":"Rock","price":"$12.25","supports":["Sam Darcy Band"," Midnight Violet"],"ticketUrl":null,"time":" 7:30pm"}],"vName":"Retreat Hotel"},"type":"Feature"},{"geometry":{"coordinates":[144.993413,-37.8506652],"type":"Point"},"properties":{"events":[{"categories":["Music"],"eDate":"2025-07-04","eName":"Refuge x Club Well: Celebrating 11 Years of Refuge","genre":"Electronic","price":"$21.42 - 31.62","supports":[],"ticketUrl":null,"time":"11:59pm"}],"vName":"Revolver Upstairs"},"type":"Feature"},{"geometry":{"coordinates":[144.965405,-37.8117457],"type":"Point"},"properties":{"events":[{"categories":["Music"],"eDate":"2025-07-04","eName":"Jam Hot","genre":"Electronic","price":"Free","supports":[],"ticketUrl":null,"time":" 6pm"}],"vName":"Section 8"},"type":"Feature"},{"geometry":{"coordinates":[145.0013923,-37.7559265],"type":"Point"},"properties":{"events":[{"categories":["Music"],"eDate":"2025-07-04","eName":"Townzzend","genre":"Rock","price":"Free","supports":["Beautiful Bedlam"," Wolf Arrow Rain"],"ticketUrl":null,"time":" 8pm"}],"vName":"Shotkickers"},"type":"Feature"},{"geometry":{"coordinates":[144.9607404,-37.7743469],"type":"Point"},"properties":{"events":[{"categories":["Music"],"eDate":"2025-07-04","eName":"Ironstone","genre":"Metal","price":"$19.99","supports":["GhostSeeker"," Arkángel"," Chapel Hill"],"ticketUrl":null,"time":" 7pm"},{"categories":["Music"],"eDate":"2025-07-04","eName":"Club Soda presents Lorde Night","genre":"Pop","price":"$14.80 - 25.50","supports":[],"ticketUrl":null,"time":"11pm"}],"vName":"Stay Gold"},"type":"Feature"},{"geometry":{"coordinates":[144.9463641,-37.8047757],"type":"Point"},"properties":{"events":[{"categories":["Music"],"eDate":"2025-07-04","eName":"Cheap-Skate: Remember You Will Die","genre":"Punk","price":"$23.50","supports":[],"ticketUrl":null,"time":" 8pm"}],"vName":"The Last Chance Rock & Roll Bar"},"type":"Feature"},{"geometry":{"coordinates":[144.9708437,-37.7973184],"type":"Point"},"properties":{"events":[{"categories":["Comedy"],"eDate":"2025-07-04","eName":"Oscar Robertson: Big Boy","genre":null,"price":"$25.00","supports":[],"ticketUrl":null,"time":" 8:30pm"}],"vName":"The Motley Bauhaus"},"type":"Feature"},{"geometry":{"coordinates":[144.9651425,-37.8119429],"type":"Point"},"properties":{"events":[{"categories":["Free","Music"],"eDate":"2025-07-04","eName":"B2B Bounce","genre":"Electronic","price":"Free","supports":[],"ticketUrl":null,"time":"10pm"}],"vName":"The Toff In Town"},"type":"Feature"},{"geometry":{"coordinates":[144.9870814,-37.799406],"type":"Point"},"properties":{"events":[{"categories":["Music"],"eDate":"2025-07-04","eName":"Hardcore @ The Tote","genre":"Metal","price":"$20.00","supports":[],"ticketUrl":null,"time":" 7:30pm"},{"categories":["Music"],"eDate":"2025-07-04","eName":"Sex Mask","genre":"Rock","price":"Free","supports":[],"ticketUrl":null,"time":" 8:30pm"}],"vName":"The Tote Hotel"},"type":"Feature"},{"geometry":{"coordinates":[144.9769451,-37.8055776],"type":"Point"},"properties":{"events":[{"categories":["Music"],"eDate":"2025-07-04","eName":"Tjaka","genre":null,"price":"$23.50","supports":["Tiana Khasi"," TILE"],"ticketUrl":null,"time":" 8pm"}],"vName":"The Workers Club"},"type":"Feature"},{"geometry":{"coordinates":[144.9984324,-37.7729134],"type":"Point"},"properties":{"events":[{"categories":["Music"],"eDate":"2025-07-04","eName":"Linda Ruggiero Trio","genre":"Jazz","price":"Free","supports":[],"ticketUrl":null,"time":" 6pm"},{"categories":["Free","Music"],"eDate":"2025-07-04","eName":"Wes 22 Fest Presents: Me In A Dream","genre":null,"price":"Free","supports":[],"ticketUrl":null,"time":" 8:30pm"}],"vName":"Wesley Anne"},"type":"Feature"},{"geometry":{"coordinates":[144.3591931,-38.145904],"type":"Point"},"properties":{"events":[{"categories":["Music"],"eDate":"2025-07-04","eName":"Make Them Suffer","genre":"Metal","price":"$59.90","supports":["Justice For The Damned"," The Gloom In The Corner"," R U N"],"ticketUrl":null,"time":" 7pm"}],"vName":"Wool Exchange"},"type":"Feature"}],"type":"FeatureCollection"}