{"features":[{"geometry":{"coordinates":[144.978682,-37.7981225],"type":"Point"},"properties":{"events":[{"categories":["Free","Music"],"eDate":"2026-05-02","eName":"Woody Samson","genre":null,"price":"Free","supports":[],"ticketUrl":null,"time":" 9pm"}],"vName":"Baxter's Lot"},"type":"Feature"},{"geometry":{"coordinates":[144.9568039,-37.8111442],"type":"Point"},"properties":{"events":[{"categories":["Music"],"eDate":"2026-05-02","eName":"Steve Sedergreen & Friends","genre":"Jazz","price":"$50.00","supports":[],"ticketUrl":null,"time":" 7:30pm"}],"vName":"Bird's Basement"},"type":"Feature"},{"geometry":{"coordinates":[144.9617083,-37.7704205],"type":"Point"},"properties":{"events":[{"categories":["Free","Music"],"eDate":"2026-05-02","eName":"Vonnyguts + IV","genre":"Rock","price":"Free","supports":[],"ticketUrl":null,"time":" 4:30pm"},{"categories":["Free","Music"],"eDate":"2026-05-02","eName":"Remit","genre":"Rock","price":"Free","supports":["Velvet Parade"," Margret"],"ticketUrl":null,"time":" 8:30pm"}],"vName":"Brunswick Artists' Bar"},"type":"Feature"},{"geometry":{"coordinates":[145.0004166,-37.7612582],"type":"Point"},"properties":{"events":[{"categories":["Music"],"eDate":"2026-05-02","eName":"Snailgun: “Glass Walls” Album Launch","genre":null,"price":"$15.00 - 20.00","supports":["No Hoper"," Waxman"," Winternationale"],"ticketUrl":null,"time":" 7pm"},{"categories":["Music"],"eDate":"2026-05-02","eName":"Snailgun","genre":null,"price":"$18.90","supports":["No Hoper"," Waxman"," Winternationale"],"ticketUrl":null,"time":" 7pm"}],"vName":"Cactus Room"},"type":"Feature"},{"geometry":{"coordinates":[144.9713425,-37.8128595],"type":"Point"},"properties":{"events":[{"categories":["Music"],"eDate":"2026-05-02","eName":"Flowers For Jayne","genre":"Punk","price":"$10.00 - 12.50","supports":[],"ticketUrl":null,"time":" 8pm"},{"categories":["Free","Music"],"eDate":"2026-05-02","eName":"Trash Indie Sleaze Party","genre":null,"price":"Free","supports":[],"ticketUrl":null,"time":"11pm"}],"vName":"Cherry Bar"},"type":"Feature"},{"geometry":{"coordinates":[145.0006883,-37.8838373],"type":"Point"},"properties":{"events":[{"categories":["Music"],"eDate":"2026-05-02","eName":"From Paris to Brazil: Intl. Jazz Day","genre":"Jazz","price":"$32.00","supports":[],"ticketUrl":null,"time":" 8pm"}],"vName":"Classic Southside"},"type":"Feature"},{"geometry":{"coordinates":[144.9926664,-37.8248893],"type":"Point"},"properties":{"events":[{"categories":["Music"],"eDate":"2026-05-02","eName":"Taylor Swift: ERAS Celebration","genre":"Pop","price":"$25.00","supports":[],"ticketUrl":null,"time":" 8:30pm"}],"vName":"Corner Hotel"},"type":"Feature"},{"geometry":{"coordinates":[144.9627513,-37.760963],"type":"Point"},"properties":{"events":[{"categories":["Music"],"eDate":"2026-05-02","eName":"Jade Paw Duo","genre":"Soul/Funk","price":"Free","supports":[],"ticketUrl":null,"time":" 8pm"}],"vName":"Edinburgh Castle Hotel"},"type":"Feature"},{"geometry":{"coordinates":[144.983442,-37.804851],"type":"Point"},"properties":{"events":[{"categories":["Music"],"eDate":"2026-05-02","eName":"Through the Vents","genre":null,"price":"$17.50","supports":["Upstairs Neighbour DJs"],"ticketUrl":null,"time":" 7:30pm"}],"vName":"Grace Darling Hotel"},"type":"Feature"},{"geometry":{"coordinates":[144.9679835,-37.8201575],"type":"Point"},"properties":{"events":[{"categories":["Music"],"eDate":"2026-05-02","eName":"Beethoven, Mozart & more","genre":"Classical","price":"$20.00 - 127.00","supports":[],"ticketUrl":null,"time":" 7:30pm"}],"vName":"Hamer Hall (Arts Centre Melbourne)"},"type":"Feature"},{"geometry":{"coordinates":[144.9596527,-37.7720304],"type":"Point"},"properties":{"events":[{"categories":["Music"],"eDate":"2026-05-02","eName":"Plump DJs: A Plump Night Out (25th Anniversary Tour)","genre":"Electronic","price":"Free","supports":[],"ticketUrl":null,"time":" 7pm"}],"vName":"Howler"},"type":"Feature"},{"geometry":{"coordinates":[145.0358258,-37.9334203],"type":"Point"},"properties":{"events":[{"categories":["Free","Music"],"eDate":"2026-05-02","eName":"Melodies of Belonging","genre":"Classical","price":"$65.00","supports":[],"ticketUrl":null,"time":" 7:30pm"}],"vName":"Kingston City Hall"},"type":"Feature"},{"geometry":{"coordinates":[145.0008148,-37.8107158],"type":"Point"},"properties":{"events":[{"categories":["Music"],"eDate":"2026-05-02","eName":"Rotten Sound","genre":"Metal","price":"$61.20","supports":["Choof"],"ticketUrl":null,"time":" 7pm"}],"vName":"Leadbeater Hotel"},"type":"Feature"},{"geometry":{"coordinates":[144.9632494,-37.8090135],"type":"Point"},"properties":{"events":[{"categories":["Music"],"eDate":"2026-05-02","eName":"Got The Sauce + Double Vision Presents Our House Vol. 3","genre":"Electronic","price":"$25.00 - 35.00","supports":[],"ticketUrl":null,"time":" 9pm"}],"vName":"Miscellania"},"type":"Feature"},{"geometry":{"coordinates":[144.9833121,-37.8062477],"type":"Point"},"properties":{"events":[{"categories":["Music"],"eDate":"2026-05-02","eName":"Succulent Funk","genre":"Soul/Funk","price":"$16.45 - 25.00","supports":[],"ticketUrl":null,"time":"10pm"}],"vName":"New Guernica"},"type":"Feature"},{"geometry":{"coordinates":[144.998414,-37.771471],"type":"Point"},"properties":{"events":[{"categories":["Music"],"eDate":"2026-05-02","eName":"Anna Smyrk","genre":null,"price":"$29.10","supports":["Georgia Fields"," Kit Genesis"],"ticketUrl":null,"time":" 8pm"}],"vName":"Northcote Social Club"},"type":"Feature"},{"geometry":{"coordinates":[144.97711,-37.79833],"type":"Point"},"properties":{"events":[{"categories":["Free","Music"],"eDate":"2026-05-02","eName":"Blood Thinners","genre":"Rock","price":"Free","supports":["Bizarrgo"," LXRP"],"ticketUrl":null,"time":" 3pm"},{"categories":["Music"],"eDate":"2026-05-02","eName":"St Alban’s Kids","genre":"Metal","price":"Free","supports":["The World At A Glance"," Keratin"," Gil Cerrone"," World Sick"," Cadmium"],"ticketUrl":null,"time":" 7pm"},{"categories":["Music"],"eDate":"2026-05-02","eName":"DJ Ben Emes","genre":"Electronic","price":"Free","supports":[],"ticketUrl":null,"time":"11:30pm"}],"vName":"Old Bar"},"type":"Feature"},{"geometry":{"coordinates":[144.96084,-37.813514],"type":"Point"},"properties":{"events":[{"categories":["Music"],"eDate":"2026-05-02","eName":"The Not-So-Big-Band: All Things Nintendo","genre":"Jazz","price":"$45.00","supports":[],"ticketUrl":null,"time":" 6pm"},{"categories":["Music"],"eDate":"2026-05-02","eName":"Richard Pavlidis Presents: Bebop & Beyond…","genre":"Jazz","price":"$45.00","supports":[],"ticketUrl":null,"time":" 6:30pm"},{"categories":["Music"],"eDate":"2026-05-02","eName":"Rebecca Mendoza Sings Billie Holiday","genre":"Jazz","price":"Free","supports":[],"ticketUrl":null,"time":" 9pm"},{"categories":["Music"],"eDate":"2026-05-02","eName":"Georgia Brooks Swingtet","genre":"Jazz","price":"$45.00","supports":[],"ticketUrl":null,"time":" 9:30pm"}],"vName":"Paris Cat Jazz Club"},"type":"Feature"},{"geometry":{"coordinates":[144.9862196,-37.9091087],"type":"Point"},"properties":{"events":[{"categories":["Music"],"eDate":"2026-05-02","eName":"The Great Composers","genre":"Jazz","price":"$55.00","supports":[],"ticketUrl":null,"time":" 8pm"}],"vName":"Royal Brighton Yacht Club"},"type":"Feature"},{"geometry":{"coordinates":[144.9607404,-37.7743469],"type":"Point"},"properties":{"events":[{"categories":["Music"],"eDate":"2026-05-02","eName":"Beatdown","genre":"Hip Hop","price":"$25.13","supports":[],"ticketUrl":null,"time":" 4pm"},{"categories":["Music"],"eDate":"2026-05-02","eName":"Ain’t No Love In Melbourne: Luke Combs Appreciation Night","genre":"Country/Folk","price":"$16.85 - 23.50","supports":[],"ticketUrl":null,"time":"11pm"}],"vName":"Stay Gold"},"type":"Feature"},{"geometry":{"coordinates":[144.9794553,-37.7982653],"type":"Point"},"properties":{"events":[{"categories":["Music"],"eDate":"2026-05-02","eName":"Milo Eastwood: 25 Hours Of Milo","genre":"Electronic","price":"$39.90","supports":[],"ticketUrl":null,"time":" 9pm"}],"vName":"The Night Cat"},"type":"Feature"},{"geometry":{"coordinates":[145.0141502,-37.8117556],"type":"Point"},"properties":{"events":[{"categories":["Music"],"eDate":"2026-05-02","eName":"Mystical Duet","genre":"Global","price":"$40.00","supports":[],"ticketUrl":null,"time":" 7pm"}],"vName":"The Open Space"},"type":"Feature"},{"geometry":{"coordinates":[144.9651425,-37.8119429],"type":"Point"},"properties":{"events":[{"categories":["Other \"Cabaret\""],"eDate":"2026-05-02","eName":"The Melbourne Festival of Tease: Competition","genre":null,"price":"$47.94 - 70.38","supports":[],"ticketUrl":null,"time":" 7pm"}],"vName":"The Toff In Town"},"type":"Feature"}],"type":"FeatureCollection"}