{"features":[{"geometry":{"coordinates":[144.9679835243618,-37.8201575],"type":"Point"},"properties":{"events":[{"categories":["Theatre"],"eDate":"2024-09-29","eName":"Pride & Prejudice: An Adaptation In Words & Music","genre":null,"price":"$79.00 - 109.00","supports":["Madeleine Easton"," Dan Le"],"ticketUrl":null,"time":" 5pm"},{"categories":["Other \"Cabaret\""],"eDate":"2024-09-29","eName":"Bite Club: 2nd Serve","genre":null,"price":"$59.00 - 79.00","supports":[],"ticketUrl":null,"time":" 5pm"}],"vName":"Arts Centre Melbourne"},"type":"Feature"},{"geometry":{"coordinates":[144.978682,-37.7981225],"type":"Point"},"properties":{"events":[{"categories":["Free","Music"],"eDate":"2024-09-29","eName":"BOADZ","genre":null,"price":"Free","supports":[],"ticketUrl":null,"time":" 9:30pm"}],"vName":"Baxter's Lot"},"type":"Feature"},{"geometry":{"coordinates":[144.9945274,-37.8001115],"type":"Point"},"properties":{"events":[{"categories":["Free","Music","Festival","Dance","Other \"Food & Drink\""],"eDate":"2024-09-29","eName":"Hasta Pronto!: Kekoson Cuban Sounds","genre":null,"price":"Free","supports":[],"ticketUrl":null,"time":" 1:30pm"}],"vName":"Bodriggy Brewing Company"},"type":"Feature"},{"geometry":{"coordinates":[144.9679835243618,-37.8201575],"type":"Point"},"properties":{"events":[{"categories":["Music"],"eDate":"2024-09-29","eName":"\"Heroes\" & Low Symphonies by Philip Glass: From The Music of David Bowie & Brian Eno","genre":"Electronic","price":"$99.00 - 149.90","supports":[],"ticketUrl":null,"time":" 8pm"}],"vName":"Hamer Hall (Arts Centre Melbourne)"},"type":"Feature"},{"geometry":{"coordinates":[144.9936498,-37.8000264],"type":"Point"},"properties":{"events":[{"categories":["Comedy"],"eDate":"2024-09-29","eName":"Lulie Comedy Club","genre":null,"price":"$15.00","supports":[],"ticketUrl":null,"time":" 7pm"}],"vName":"Lulie Tavern"},"type":"Feature"},{"geometry":{"coordinates":[145.3553553,-37.9078552],"type":"Point"},"properties":{"events":[{"categories":["Free","Music","Other \"Food & Drink\""],"eDate":"2024-09-29","eName":"Charlie Thorpe","genre":null,"price":"Free","supports":[],"ticketUrl":null,"time":"12pm"}],"vName":"Micawber Tavern"},"type":"Feature"},{"geometry":{"coordinates":[145.0142411,-37.7310367],"type":"Point"},"properties":{"events":[{"categories":["Free","Music"],"eDate":"2024-09-29","eName":"Sunday Sunset Sessions","genre":"Jazz","price":"Free","supports":[],"ticketUrl":null,"time":" 6pm"}],"vName":"Ragtime Tavern"},"type":"Feature"},{"geometry":{"coordinates":[144.9615882,-37.7711432],"type":"Point"},"properties":{"events":[{"categories":["Free","Music"],"eDate":"2024-09-29","eName":"Fountain Lakes + Romantic Bastards","genre":"Country/Folk","price":"Free","supports":[],"ticketUrl":null,"time":" 2:30pm"},{"categories":["Free","Music"],"eDate":"2024-09-29","eName":"Viki Mealings & Peter O'Shea","genre":"Acoustic","price":"Free","supports":["Liaden Zane"],"ticketUrl":null,"time":" 7pm"}],"vName":"Retreat Hotel"},"type":"Feature"},{"geometry":{"coordinates":[144.965405,-37.8117457],"type":"Point"},"properties":{"events":[{"categories":["Free","Music"],"eDate":"2024-09-29","eName":"FLIP: A Section 8 Beat Battle","genre":null,"price":"Free","supports":[],"ticketUrl":null,"time":" 3pm"}],"vName":"Section 8"},"type":"Feature"},{"geometry":{"coordinates":[145.001392343033,-37.75592655],"type":"Point"},"properties":{"events":[{"categories":["Music"],"eDate":"2024-09-29","eName":"Brian El Dorado","genre":"Rock","price":"$18.35","supports":["Cinco Savage"," Lilith Lane"],"ticketUrl":null,"time":" 4pm"}],"vName":"Shotkickers"},"type":"Feature"},{"geometry":{"coordinates":[144.9830837,-37.7988316],"type":"Point"},"properties":{"events":[{"categories":["Music"],"eDate":"2024-09-29","eName":"Domingo Latino: Quarter Street","genre":"Soul/Funk","price":"$29.57 - 39.76","supports":[],"ticketUrl":null,"time":" 6:45pm"}],"vName":"The Night Cat"},"type":"Feature"},{"geometry":{"coordinates":[144.9985126,-37.7588241],"type":"Point"},"properties":{"events":[{"categories":["Markets"],"eDate":"2024-09-29","eName":"Lovecats Wedding Expo","genre":null,"price":"$7.50","supports":[],"ticketUrl":null,"time":"11am"}],"vName":"Thornbury Bowls Club"},"type":"Feature"}],"type":"FeatureCollection"}