{"features":[{"geometry":{"coordinates":[144.9763781,-37.7983136],"type":"Point"},"properties":{"events":[{"categories":["Music"],"eDate":"2024-08-04","eName":"Underground Hip-Hop Night","genre":"Hip Hop","price":"$10.00","supports":[],"ticketUrl":null,"time":" 7pm"}],"vName":"Bad Decisions Bar"},"type":"Feature"},{"geometry":{"coordinates":[144.9617018,-37.7704566],"type":"Point"},"properties":{"events":[{"categories":["Free","Music"],"eDate":"2024-08-04","eName":"Ingrid Saker","genre":"Blues","price":"Free","supports":[],"ticketUrl":null,"time":" 4pm"}],"vName":"Brunswick Artists' Bar"},"type":"Feature"},{"geometry":{"coordinates":[144.8971518,-37.8054274],"type":"Point"},"properties":{"events":[{"categories":["Music"],"eDate":"2024-08-04","eName":"Sunshine Tip","genre":null,"price":"$15.00 - 20.00","supports":["John McAll"],"ticketUrl":null,"time":" 2pm"}],"vName":"Mamma Chen's"},"type":"Feature"},{"geometry":{"coordinates":[144.96741062735794,-37.82454855],"type":"Point"},"properties":{"events":[{"categories":["Music"],"eDate":"2024-08-04","eName":"Corpus Medicorum Concert #3","genre":"Classical","price":"$66.00","supports":[],"ticketUrl":null,"time":" 5pm"}],"vName":"Melbourne Recital Centre"},"type":"Feature"},{"geometry":{"coordinates":[144.9786817,-37.8671902],"type":"Point"},"properties":{"events":[{"categories":["Music"],"eDate":"2024-08-04","eName":"Hugh Cornwell","genre":"Rock","price":"$59.90 - 90.00","supports":["Little Murders"],"ticketUrl":null,"time":" 3pm"}],"vName":"Memo Music Hall"},"type":"Feature"},{"geometry":{"coordinates":[145.3553553,-37.9078552],"type":"Point"},"properties":{"events":[{"categories":["Free","Music"],"eDate":"2024-08-04","eName":"Karlo Arcinue","genre":null,"price":"Free","supports":[],"ticketUrl":null,"time":"12pm"}],"vName":"Micawber Tavern"},"type":"Feature"},{"geometry":{"coordinates":[144.9615882,-37.7711432],"type":"Point"},"properties":{"events":[{"categories":["Music"],"eDate":"2024-08-04","eName":"The Pourshots","genre":"Country/Folk","price":"$10.00 - 15.00","supports":["Rhiz & The Sugarplums"],"ticketUrl":null,"time":" 2:30pm"},{"categories":["Music"],"eDate":"2024-08-04","eName":"Honky Tonk Sunday: The Pourshots","genre":"Country/Folk","price":"$12.25","supports":["Rhiz & The Sugarplums"],"ticketUrl":null,"time":" 2:30pm"},{"categories":["Comedy"],"eDate":"2024-08-04","eName":"Sunday Scaries Comedy Night","genre":null,"price":"$10.00 - 15.00","supports":["Tim Hewitt"," Bea Barbeau-Scurla"," Maddy Weeks"," Gillian Cosgriff"," Rohan Ganju"," Sez"," Sammy Peterson"," Scout Boxall"," David Quirk"],"ticketUrl":null,"time":" 6:30pm"}],"vName":"Retreat Hotel"},"type":"Feature"},{"geometry":{"coordinates":[144.9631913,-37.7617818],"type":"Point"},"properties":{"events":[{"categories":["Free","Music"],"eDate":"2024-08-04","eName":"Half Gift + Banish","genre":null,"price":"Free","supports":[],"ticketUrl":null,"time":" 8pm"}],"vName":"Ringo Barr"},"type":"Feature"},{"geometry":{"coordinates":[144.9607404,-37.7743469],"type":"Point"},"properties":{"events":[{"categories":["Music"],"eDate":"2024-08-04","eName":"Starve","genre":"Metal","price":"$25.00","supports":["Signals"," Slowburn"," Saving Face"],"ticketUrl":null,"time":" 2pm"}],"vName":"Stay Gold"},"type":"Feature"},{"geometry":{"coordinates":[144.9618426,-37.8125531],"type":"Point"},"properties":{"events":[{"categories":["Free","Music"],"eDate":"2024-08-04","eName":"100% Phat: Mizhap","genre":null,"price":"Free","supports":[],"ticketUrl":null,"time":" 2pm"}],"vName":"Whitehart Bar"},"type":"Feature"}],"type":"FeatureCollection"}