{"features":[{"geometry":{"coordinates":[144.99828116650363,-37.7713296],"type":"Point"},"properties":{"events":[{"categories":["Free","Music"],"eDate":"2024-12-14","eName":"Rudi Soundsystem","genre":"Electronic","price":"Free","supports":[],"ticketUrl":null,"time":" 8pm"},{"categories":["Free","Music"],"eDate":"2024-12-14","eName":"Rudi Sound & Dub Divination","genre":"Global","price":"Free","supports":[],"ticketUrl":null,"time":" 8pm"}],"vName":"Bar 303"},"type":"Feature"},{"geometry":{"coordinates":[144.978425,-37.79773],"type":"Point"},"properties":{"events":[{"categories":["Music"],"eDate":"2024-12-14","eName":"The Mongrels","genre":"Punk","price":"$20.00","supports":["B-Sides"," Forklift Assassins"],"ticketUrl":null,"time":" 8:30pm"},{"categories":["Free","Music"],"eDate":"2024-12-14","eName":"Midnight Circuitry / Synaptic Dreams","genre":"Electronic","price":"Free","supports":[],"ticketUrl":null,"time":"11pm"}],"vName":"Bar Open"},"type":"Feature"},{"geometry":{"coordinates":[144.978682,-37.7981225],"type":"Point"},"properties":{"events":[{"categories":["Free","Music"],"eDate":"2024-12-14","eName":"Lewis Toms","genre":null,"price":"Free","supports":[],"ticketUrl":null,"time":" 9pm"},{"categories":["Music"],"eDate":"2024-12-14","eName":"DJ Damien Mack","genre":"Electronic","price":"Free","supports":[],"ticketUrl":null,"time":"10pm"}],"vName":"Baxter's Lot"},"type":"Feature"},{"geometry":{"coordinates":[144.98911674151407,-37.79964875],"type":"Point"},"properties":{"events":[{"categories":["Music"],"eDate":"2024-12-14","eName":"Deadweight 80","genre":"Metal","price":"$17.35","supports":["Diskust"," Loner"," All Monsters Are Human"," Get Rekt"],"ticketUrl":null,"time":" 9pm"}],"vName":"Bendigo Hotel"},"type":"Feature"},{"geometry":{"coordinates":[144.9607158,-37.776327],"type":"Point"},"properties":{"events":[{"categories":["Music"],"eDate":"2024-12-14","eName":"Helluva Ride","genre":null,"price":"$28.05 - 33.15","supports":["Checkpoint"," Dr Sure's Unusual Practice"," Favoured State"," The Genevieves"," Hooper Crescent"," Kitchen People"," Screensaver"," more"],"ticketUrl":null,"time":"12:30pm"}],"vName":"Bergy Bandroom"},"type":"Feature"},{"geometry":{"coordinates":[144.9567859,-37.8111049],"type":"Point"},"properties":{"events":[{"categories":["Music"],"eDate":"2024-12-14","eName":"George Michael & Whitney: Keep The Faith","genre":"Pop","price":"$38.00","supports":[],"ticketUrl":null,"time":" 7:30pm"}],"vName":"Bird's Basement"},"type":"Feature"},{"geometry":{"coordinates":[144.9617018,-37.7704566],"type":"Point"},"properties":{"events":[{"categories":["Music"],"eDate":"2024-12-14","eName":"Funky Kingston","genre":"Soul/Funk","price":"$38.86","supports":[],"ticketUrl":null,"time":" 8:30pm"}],"vName":"Brunswick Ballroom"},"type":"Feature"},{"geometry":{"coordinates":[144.9713425,-37.8128595],"type":"Point"},"properties":{"events":[{"categories":["Music"],"eDate":"2024-12-14","eName":"Littlefoot","genre":"Rock","price":"$10.00","supports":["The Clever References"," Ze Wisenheimer"],"ticketUrl":null,"time":" 8pm"}],"vName":"Cherry Bar"},"type":"Feature"},{"geometry":{"coordinates":[144.9248037207342,-37.7656716],"type":"Point"},"properties":{"events":[{"categories":["Dance"],"eDate":"2024-12-14","eName":"Melbourne Dance Centre presents MDC Junior Showcase","genre":null,"price":"$60.00","supports":[],"ticketUrl":null,"time":" 2pm"},{"categories":["Dance"],"eDate":"2024-12-14","eName":"Melbourne Dance Centre presents Curtains Up 2024","genre":null,"price":"$60.00","supports":[],"ticketUrl":null,"time":" 7:30pm"}],"vName":"Clocktower Centre"},"type":"Feature"},{"geometry":{"coordinates":[144.9787445,-37.7967357],"type":"Point"},"properties":{"events":[{"categories":["Music"],"eDate":"2024-12-14","eName":"La Furia: Unplugged/Uncovered/Unleashed","genre":"Rock","price":"$30.10","supports":[],"ticketUrl":null,"time":" 7pm"}],"vName":"Evelyn Hotel"},"type":"Feature"},{"geometry":{"coordinates":[144.9875917,-37.7963837],"type":"Point"},"properties":{"events":[{"categories":["Free","Music"],"eDate":"2024-12-14","eName":"Grindhouse + The Monaros: 'Wank' Beer Launch","genre":"Rock","price":"Free","supports":[],"ticketUrl":null,"time":" 8pm"}],"vName":"Gem Bar"},"type":"Feature"},{"geometry":{"coordinates":[144.9679835243618,-37.8201575],"type":"Point"},"properties":{"events":[{"categories":["Music"],"eDate":"2024-12-14","eName":"Classic Kids: A Symphonic Christmas","genre":"Classical","price":"$30.00","supports":[],"ticketUrl":null,"time":"10:30am"},{"categories":["Music"],"eDate":"2024-12-14","eName":"Classic Kids: A Symphonic Christmas (Relaxed Performance)","genre":"Classical","price":"$30.00","supports":[],"ticketUrl":null,"time":"12:30pm"},{"categories":["Music"],"eDate":"2024-12-14","eName":"Handel's Messiah","genre":"Classical","price":"$81.00 - 139.00","supports":[],"ticketUrl":null,"time":" 7pm"}],"vName":"Hamer Hall (Arts Centre Melbourne)"},"type":"Feature"},{"geometry":{"coordinates":[144.973013,-37.8640582],"type":"Point"},"properties":{"events":[{"categories":["Music"],"eDate":"2024-12-14","eName":"Brian Cadd","genre":"Country/Folk","price":"$44.40","supports":[],"ticketUrl":null,"time":" 4pm"}],"vName":"Hotel Esplanade (aka The Espy)"},"type":"Feature"},{"geometry":{"coordinates":[144.9596527,-37.7720304],"type":"Point"},"properties":{"events":[{"categories":["Music"],"eDate":"2024-12-14","eName":"The Enchanted Garden Party 2024: The Christmas Lunch Edition","genre":"Electronic","price":"$43.35 - 55.59","supports":[],"ticketUrl":null,"time":" 3pm"}],"vName":"Howler"},"type":"Feature"},{"geometry":{"coordinates":[145.0008148,-37.8107158],"type":"Point"},"properties":{"events":[{"categories":["Music"],"eDate":"2024-12-14","eName":"Tudor Club: Fundraiser for Black Dog Institute","genre":"Rock","price":"$28.85","supports":["Left At The Avenue"," Strawbz"," Harriet Wraith"," Erica Avenue"," Pepper La Floyd"],"ticketUrl":null,"time":" 8pm"}],"vName":"Leadbeater Hotel"},"type":"Feature"},{"geometry":{"coordinates":[144.8971518,-37.8054274],"type":"Point"},"properties":{"events":[{"categories":["Free","Music"],"eDate":"2024-12-14","eName":"One Day Kings","genre":null,"price":"Free","supports":["Latent Sense"," Danger Den"],"ticketUrl":null,"time":" 7pm"}],"vName":"Mamma Chen's"},"type":"Feature"},{"geometry":{"coordinates":[144.96741062735794,-37.82454855],"type":"Point"},"properties":{"events":[{"categories":["Music"],"eDate":"2024-12-14","eName":"The Australian Boys Choral Institute: A Mighty Wonder","genre":"Classical","price":"$55.00","supports":[],"ticketUrl":null,"time":" 5pm"}],"vName":"Melbourne Recital Centre"},"type":"Feature"},{"geometry":{"coordinates":[144.9712356,-37.812902],"type":"Point"},"properties":{"events":[{"categories":["Comedy"],"eDate":"2024-12-14","eName":"Basement Comedy Club","genre":null,"price":"$25.00","supports":["more"],"ticketUrl":null,"time":" 8pm"}],"vName":"Morris House"},"type":"Feature"},{"geometry":{"coordinates":[144.998414,-37.771471],"type":"Point"},"properties":{"events":[{"categories":["Music"],"eDate":"2024-12-14","eName":"Bob Evans","genre":"Acoustic","price":"$46.00","supports":[],"ticketUrl":null,"time":" 8:30pm"}],"vName":"Northcote Social Club"},"type":"Feature"},{"geometry":{"coordinates":[144.97711,-37.79833],"type":"Point"},"properties":{"events":[{"categories":["Free","Music"],"eDate":"2024-12-14","eName":"Free Entry Afternoon Show","genre":"Acoustic","price":"Free","supports":[],"ticketUrl":null,"time":" 3:30pm"},{"categories":["Music"],"eDate":"2024-12-14","eName":"Grace Robinson","genre":"Rock","price":"$11.25","supports":["Kyle Glover"," Skinny Wizard"],"ticketUrl":null,"time":" 8pm"}],"vName":"Old Bar"},"type":"Feature"},{"geometry":{"coordinates":[144.9981771,-37.7742773],"type":"Point"},"properties":{"events":[{"categories":["Music"],"eDate":"2024-12-14","eName":"Pluck!","genre":"Acoustic","price":"$20.00 - 25.00","supports":["Yael Zamir"," Freda Paten"],"ticketUrl":null,"time":" 2pm"},{"categories":["Music"],"eDate":"2024-12-14","eName":"Horns of Leroy","genre":"Jazz","price":"$20.00 - 25.00","supports":[],"ticketUrl":null,"time":" 9pm"}],"vName":"Open Studio"},"type":"Feature"},{"geometry":{"coordinates":[144.9605705,-37.8132486],"type":"Point"},"properties":{"events":[{"categories":["Music"],"eDate":"2024-12-14","eName":"Not So Big Band: Christmas From The 40's To Now (with Ben McGill)","genre":"Jazz","price":"$45.00","supports":[],"ticketUrl":null,"time":" 6pm"},{"categories":["Music"],"eDate":"2024-12-14","eName":"Tamara Kuldin & Paul Coyle present Ella & Louis: Cheek to Cheek","genre":"Jazz","price":"$45.00","supports":[],"ticketUrl":null,"time":" 6:30pm"},{"categories":["Music"],"eDate":"2024-12-14","eName":"Mel Searle Presents The Christmas Song: An Ella, Nat King Cole & Friends Swingin' Christmas","genre":"Jazz","price":"$45.00","supports":[],"ticketUrl":null,"time":" 8:30pm"},{"categories":["Music"],"eDate":"2024-12-14","eName":"Solomon Sisay & His Band","genre":"Jazz","price":"$45.00","supports":[],"ticketUrl":null,"time":" 9:30pm"}],"vName":"Paris Cat Jazz Club"},"type":"Feature"},{"geometry":{"coordinates":[145.0039717846154,-37.748589623076924],"type":"Point"},"properties":{"events":[{"categories":["Free","Markets","Other \"Food & Drink\""],"eDate":"2024-12-14","eName":"Small Fry Vintage & Handmade Market","genre":null,"price":"Free","supports":[],"ticketUrl":null,"time":"10am"}],"vName":"Rebel Rebel"},"type":"Feature"},{"geometry":{"coordinates":[144.9615882,-37.7711432],"type":"Point"},"properties":{"events":[{"categories":["Free","Music"],"eDate":"2024-12-14","eName":"Anatreptix","genre":"Global","price":"Free","supports":[],"ticketUrl":null,"time":" 2:30pm"},{"categories":["Music"],"eDate":"2024-12-14","eName":"Magpie","genre":"Rock","price":"$20.00","supports":["Flower Field Folly"," Dear Matilda"],"ticketUrl":null,"time":" 7:30pm"}],"vName":"Retreat Hotel"},"type":"Feature"},{"geometry":{"coordinates":[144.9631913,-37.7617818],"type":"Point"},"properties":{"events":[{"categories":["Free","Music"],"eDate":"2024-12-14","eName":"Ego Problem + Sol Hopkins","genre":"Rock","price":"Free","supports":[],"ticketUrl":null,"time":" 8pm"}],"vName":"Ringo Barr"},"type":"Feature"},{"geometry":{"coordinates":[145.001392343033,-37.75592655],"type":"Point"},"properties":{"events":[{"categories":["Music"],"eDate":"2024-12-14","eName":"Tracey Mama Miller","genre":"Acoustic","price":"$15.00","supports":[],"ticketUrl":null,"time":" 9pm"}],"vName":"Shotkickers"},"type":"Feature"},{"geometry":{"coordinates":[144.9607404,-37.7743469],"type":"Point"},"properties":{"events":[{"categories":["Music"],"eDate":"2024-12-14","eName":"Bloody Ripper","genre":"Punk","price":"$17.48","supports":["Wolfpack"," Frankston Fear"],"ticketUrl":null,"time":" 7pm"},{"categories":["Music"],"eDate":"2024-12-14","eName":"Fred again.. vs Skrillex Appreciation Night","genre":"Electronic","price":"$13.80 - 22.00","supports":[],"ticketUrl":null,"time":"11pm"}],"vName":"Stay Gold"},"type":"Feature"},{"geometry":{"coordinates":[144.9706095,-37.7783326],"type":"Point"},"properties":{"events":[{"categories":["Free","Music"],"eDate":"2024-12-14","eName":"Scatter Light","genre":"Rock","price":"Free","supports":["Pretty Moi"],"ticketUrl":null,"time":" 7:30pm"}],"vName":"The Beast"},"type":"Feature"},{"geometry":{"coordinates":[144.9657057,-37.8061581],"type":"Point"},"properties":{"events":[{"categories":["Music"],"eDate":"2024-12-14","eName":"EXEK + RMFC","genre":"Experimental","price":"$27.95","supports":["G2G"],"ticketUrl":null,"time":" 8pm"}],"vName":"The Curtin"},"type":"Feature"},{"geometry":{"coordinates":[144.958676,-37.7669571],"type":"Point"},"properties":{"events":[{"categories":["Music"],"eDate":"2024-12-14","eName":"Triple Bill: Naked Raven + Amelia Evans: The Radiohead Project + Rose Bray","genre":"Jazz","price":"$35.00 - 40.00","supports":[],"ticketUrl":null,"time":" 8pm"}],"vName":"The Jazzlab"},"type":"Feature"},{"geometry":{"coordinates":[144.9585654,-37.8059962],"type":"Point"},"properties":{"events":[{"categories":["Music"],"eDate":"2024-12-14","eName":"Alex Elbery","genre":"Indie","price":"$16.35","supports":["The Lazy Susans"," The Flying So High-os"," Kelsie Rimmer"],"ticketUrl":null,"time":" 8pm"}],"vName":"The Last Chance Rock & Roll Bar"},"type":"Feature"},{"geometry":{"coordinates":[144.9968036,-37.7794807],"type":"Point"},"properties":{"events":[{"categories":["Music"],"eDate":"2024-12-14","eName":"Roller One + Cahill Kelly","genre":"Indie","price":"Free","supports":[],"ticketUrl":null,"time":" 8:30pm"}],"vName":"The Merri Creek Tavern"},"type":"Feature"},{"geometry":{"coordinates":[144.9708437,-37.7973184],"type":"Point"},"properties":{"events":[{"categories":["Comedy"],"eDate":"2024-12-14","eName":"Comedy on the Rocks","genre":null,"price":"$38.49","supports":[],"ticketUrl":null,"time":" 3:30pm"},{"categories":["Free","Music"],"eDate":"2024-12-14","eName":"Jazz Arvos","genre":"Jazz","price":"Free","supports":[],"ticketUrl":null,"time":" 5pm"},{"categories":["Music","Other \"Cabaret\""],"eDate":"2024-12-14","eName":"Dootfest IV","genre":"Pop","price":"$25.33","supports":[],"ticketUrl":null,"time":" 7pm"},{"categories":["Comedy"],"eDate":"2024-12-14","eName":"The Big HOO HAA!","genre":null,"price":"$30.39","supports":[],"ticketUrl":null,"time":" 8:30pm"}],"vName":"The Motley Bauhaus"},"type":"Feature"},{"geometry":{"coordinates":[144.9830837,-37.7988316],"type":"Point"},"properties":{"events":[{"categories":["Music"],"eDate":"2024-12-14","eName":"Phoebe Go","genre":"Indie","price":"$29.57","supports":[],"ticketUrl":null,"time":" 7:30pm"},{"categories":["Music"],"eDate":"2024-12-14","eName":"Toy Tonics Jam","genre":"Soul/Funk","price":"$29.57 - 44.86","supports":[],"ticketUrl":null,"time":"11pm"}],"vName":"The Night Cat"},"type":"Feature"},{"geometry":{"coordinates":[144.9830837,-37.7988316],"type":"Point"},"properties":{"events":[{"categories":["Music"],"eDate":"2024-12-14","eName":"Juno Mamba + Paris","genre":"Electronic","price":"$20.00","supports":[],"ticketUrl":null,"time":"11pm"},{"categories":["Music"],"eDate":"2024-12-14","eName":"Juno Mamba + Paris","genre":"Electronic","price":"$20.00","supports":[],"ticketUrl":null,"time":"11pm"}],"vName":"The Rochester"},"type":"Feature"},{"geometry":{"coordinates":[144.9651425,-37.8119429],"type":"Point"},"properties":{"events":[{"categories":["Music"],"eDate":"2024-12-14","eName":"The Mods","genre":"Rock","price":"$12.24 - 17.34","supports":["Elo & The Shinkicks"," Alter Ego"," Sliced Diamonds"],"ticketUrl":null,"time":" 2pm"}],"vName":"The Toff In Town"},"type":"Feature"},{"geometry":{"coordinates":[144.9846126,-37.7989941],"type":"Point"},"properties":{"events":[{"categories":["Music"],"eDate":"2024-12-14","eName":"Heat","genre":"Metal","price":"$23.50","supports":["Bozo"," Rat Bait"," Bright Sun"],"ticketUrl":null,"time":" 8pm"},{"categories":["Music"],"eDate":"2024-12-14","eName":"Gutless","genre":"Metal","price":"$23.50","supports":["Faceless Burial"," Bludger"," AGLO"],"ticketUrl":null,"time":" 8pm"}],"vName":"The Tote Hotel"},"type":"Feature"},{"geometry":{"coordinates":[144.9769450659087,-37.8055776],"type":"Point"},"properties":{"events":[{"categories":["Music"],"eDate":"2024-12-14","eName":"The Patients","genre":"Metal","price":"$10.00","supports":["Four Eyed Frog"," Balmoral"],"ticketUrl":null,"time":" 1pm"}],"vName":"The Workers Club"},"type":"Feature"},{"geometry":{"coordinates":[144.9983987,-37.7729204],"type":"Point"},"properties":{"events":[{"categories":["Music"],"eDate":"2024-12-14","eName":"Cosmic Country Christmas Spectacular","genre":"Country/Folk","price":"$25.50","supports":[],"ticketUrl":null,"time":" 8pm"}],"vName":"Wesley Anne"},"type":"Feature"},{"geometry":{"coordinates":[144.9827552,-37.8041303],"type":"Point"},"properties":{"events":[{"categories":["Music"],"eDate":"2024-12-14","eName":"Archie","genre":"Rock","price":"$20.00","supports":["Mr Industry"],"ticketUrl":null,"time":" 9pm"}],"vName":"Yah Yah's"},"type":"Feature"}],"type":"FeatureCollection"}