{"features":[{"geometry":{"coordinates":[144.9982812,-37.7713296],"type":"Point"},"properties":{"events":[{"categories":["Music"],"eDate":"2025-06-28","eName":"Pinko Collective","genre":"Country/Folk","price":"Free","supports":[],"ticketUrl":null,"time":" 3pm"},{"categories":["Music"],"eDate":"2025-06-28","eName":"Homebass","genre":"Electronic","price":"Free","supports":[],"ticketUrl":null,"time":" 8pm"}],"vName":"Bar 303"},"type":"Feature"},{"geometry":{"coordinates":[144.609835,-38.1379811],"type":"Point"},"properties":{"events":[{"categories":["Free","Music"],"eDate":"2025-06-28","eName":"Keyboard Kev’s Pop Up Piano Bar","genre":"Jazz","price":"Free","supports":[],"ticketUrl":null,"time":" 7pm"}],"vName":"Bellarine Estate"},"type":"Feature"},{"geometry":{"coordinates":[144.9568039,-37.8111442],"type":"Point"},"properties":{"events":[{"categories":["Music"],"eDate":"2025-06-28","eName":"Jemma Cher","genre":"Jazz","price":"$38.00","supports":[],"ticketUrl":null,"time":" 7:30pm"}],"vName":"Bird's Basement"},"type":"Feature"},{"geometry":{"coordinates":[144.9248037,-37.7656716],"type":"Point"},"properties":{"events":[{"categories":["Music"],"eDate":"2025-06-28","eName":"Ross Wilson & The Peaceniks","genre":"Rock","price":"$69.00","supports":[],"ticketUrl":null,"time":" 8pm"}],"vName":"Clocktower Centre"},"type":"Feature"},{"geometry":{"coordinates":[144.9693768,-37.8164414],"type":"Point"},"properties":{"events":[{"categories":["Music"],"eDate":"2025-06-28","eName":"Bliss n Eso","genre":"Hip Hop","price":"Free","supports":["Ivan Ooze"],"ticketUrl":null,"time":" 7:30pm"}],"vName":"Forum Melbourne"},"type":"Feature"},{"geometry":{"coordinates":[144.9679835,-37.8201575],"type":"Point"},"properties":{"events":[{"categories":["Music"],"eDate":"2025-06-28","eName":"Ryman Healthcare Winter Gala: Lang Lang","genre":"Classical","price":"$160.00","supports":[],"ticketUrl":null,"time":" 7:30pm"}],"vName":"Hamer Hall (Arts Centre Melbourne)"},"type":"Feature"},{"geometry":{"coordinates":[144.973013,-37.8640582],"type":"Point"},"properties":{"events":[{"categories":["Music"],"eDate":"2025-06-28","eName":"The Violet Summers","genre":"Rock","price":"$12.75","supports":[],"ticketUrl":null,"time":" 7pm"}],"vName":"Hotel Esplanade (aka The Espy)"},"type":"Feature"},{"geometry":{"coordinates":[145.0008148,-37.8107158],"type":"Point"},"properties":{"events":[{"categories":["Music"],"eDate":"2025-06-28","eName":"Kick On Festival","genre":"Rock","price":"$28.85","supports":["Waliens"," Laura & The Hellcutz"," Left At The Avenue"," Chloe Booth"," Fur Blossom"," Pepper La Floyd"," Phoenix Street"],"ticketUrl":null,"time":" 7pm"}],"vName":"Leadbeater Hotel"},"type":"Feature"},{"geometry":{"coordinates":[144.9675876,-37.8240849],"type":"Point"},"properties":{"events":[{"categories":["Music"],"eDate":"2025-06-28","eName":"Baroque Unleashed","genre":"Classical","price":"$30.00 - 196.00","supports":[],"ticketUrl":null,"time":" 7pm"}],"vName":"Melbourne Recital Centre"},"type":"Feature"},{"geometry":{"coordinates":[144.9790251,-37.8675008],"type":"Point"},"properties":{"events":[{"categories":["Music"],"eDate":"2025-06-28","eName":"Amy Winehouse Resurrected (Early Session)","genre":"Jazz","price":"$35.00 - 60.00","supports":[],"ticketUrl":null,"time":" 5pm"},{"categories":["Music"],"eDate":"2025-06-28","eName":"Amy Winehouse Resurrected","genre":"Jazz","price":"$35.00 - 60.00","supports":[],"ticketUrl":null,"time":" 8:30pm"}],"vName":"Memo Music Hall"},"type":"Feature"},{"geometry":{"coordinates":[144.9982706,-37.7737068],"type":"Point"},"properties":{"events":[{"categories":["Music"],"eDate":"2025-06-28","eName":"Killing Heidi: 25 Years of Reflector","genre":"Rock","price":"$69.90","supports":["Siobhan Cotchin"," Hassall"],"ticketUrl":null,"time":" 7pm"}],"vName":"Northcote Theatre"},"type":"Feature"},{"geometry":{"coordinates":[144.9256335,-37.8296919],"type":"Point"},"properties":{"events":[{"categories":["Music"],"eDate":"2025-06-28","eName":"Dangerous Goods 5XXL","genre":"Electronic","price":"$109.00","supports":[],"ticketUrl":null,"time":" 2pm"}],"vName":"PICA (Port Melbourne Industrial Centre for the Arts)"},"type":"Feature"},{"geometry":{"coordinates":[144.96084,-37.813514],"type":"Point"},"properties":{"events":[{"categories":["Music"],"eDate":"2025-06-28","eName":"The Little Bourke Big Band presents The Very Best of Nat King Cole with Ben McGill","genre":"Jazz","price":"$45.00","supports":[],"ticketUrl":null,"time":" 6pm"},{"categories":["Music"],"eDate":"2025-06-28","eName":"Joni & Charles: The Black Saint & The Singer Lady","genre":"Jazz","price":"$45.00","supports":[],"ticketUrl":null,"time":" 6:30pm"},{"categories":["Music"],"eDate":"2025-06-28","eName":"Not So Big Band: The Music of Frank Sinatra with Ben McGill","genre":"Jazz","price":"$48.00","supports":[],"ticketUrl":null,"time":" 9pm"},{"categories":["Music"],"eDate":"2025-06-28","eName":"Jazz Messengers: The Music Of Blue Note with Richard Pavlidis","genre":"Jazz","price":"$45.00","supports":[],"ticketUrl":null,"time":" 9:30pm"}],"vName":"Paris Cat Jazz Club"},"type":"Feature"},{"geometry":{"coordinates":[144.9615882,-37.7711432],"type":"Point"},"properties":{"events":[{"categories":["Free","Music"],"eDate":"2025-06-28","eName":"Rhian Elin","genre":null,"price":"Free","supports":["Shelly's Motor Club"],"ticketUrl":null,"time":" 2:30pm"}],"vName":"Retreat Hotel"},"type":"Feature"},{"geometry":{"coordinates":[145.0013923,-37.7559265],"type":"Point"},"properties":{"events":[{"categories":["Music"],"eDate":"2025-06-28","eName":"Cry Club","genre":"Punk","price":"$28.80","supports":[],"ticketUrl":null,"time":" 8pm"}],"vName":"Shotkickers"},"type":"Feature"},{"geometry":{"coordinates":[144.9607404,-37.7743469],"type":"Point"},"properties":{"events":[{"categories":["Music"],"eDate":"2025-06-28","eName":"Hex: Coven Edition","genre":"Punk","price":"$20.00","supports":["DJ GK"," DJ Haylz"],"ticketUrl":null,"time":" 7pm"},{"categories":["Free","Music"],"eDate":"2025-06-28","eName":"Killing Heidi Official After Party","genre":"Rock","price":"Free","supports":[],"ticketUrl":null,"time":"11pm"}],"vName":"Stay Gold"},"type":"Feature"},{"geometry":{"coordinates":[144.32141,-37.38866],"type":"Point"},"properties":{"events":[{"categories":["Free","Music"],"eDate":"2025-06-28","eName":"Victoria Gaye","genre":"Country/Folk","price":"Free","supports":[],"ticketUrl":null,"time":" 3pm"},{"categories":["Music"],"eDate":"2025-06-28","eName":"Abby Dobson","genre":"Indie","price":"$50.00","supports":["Freya Josephine Hollick"],"ticketUrl":null,"time":" 7:30pm"}],"vName":"The Cosmopolitan Hotel"},"type":"Feature"},{"geometry":{"coordinates":[144.9657057,-37.8061581],"type":"Point"},"properties":{"events":[{"categories":["Music"],"eDate":"2025-06-28","eName":"The Blinds","genre":"Rock","price":"Free","supports":["Casino"," Secret island"],"ticketUrl":null,"time":" 7:30pm"}],"vName":"The Curtin"},"type":"Feature"},{"geometry":{"coordinates":[144.9586498,-37.766903],"type":"Point"},"properties":{"events":[{"categories":["Music"],"eDate":"2025-06-28","eName":"Rebecca Mendoza Quartet","genre":"Jazz","price":"$35.00 - 40.00","supports":[],"ticketUrl":null,"time":" 8pm"}],"vName":"The Jazzlab"},"type":"Feature"},{"geometry":{"coordinates":[144.9463641,-37.8047757],"type":"Point"},"properties":{"events":[{"categories":["Music"],"eDate":"2025-06-28","eName":"Black Aces","genre":"Rock","price":"$16.35","supports":["The Chans"," Dose"],"ticketUrl":null,"time":" 7pm"}],"vName":"The Last Chance Rock & Roll Bar"},"type":"Feature"},{"geometry":{"coordinates":[144.9708437,-37.7973184],"type":"Point"},"properties":{"events":[{"categories":["Music"],"eDate":"2025-06-28","eName":"New Financial Years Eve Party","genre":"Electronic","price":"$35.46 - 50.65","supports":[],"ticketUrl":null,"time":" 6pm"},{"categories":["Music"],"eDate":"2025-06-28","eName":"Motley Jazz Jam","genre":"Jazz","price":"Free","supports":[],"ticketUrl":null,"time":" 7:30pm"},{"categories":["Comedy","Theatre"],"eDate":"2025-06-28","eName":"The Big HOO-HAA!","genre":null,"price":"$32.00","supports":[],"ticketUrl":null,"time":" 8:30pm"}],"vName":"The Motley Bauhaus"},"type":"Feature"},{"geometry":{"coordinates":[145.1818891,-37.8163371],"type":"Point"},"properties":{"events":[{"categories":["Music"],"eDate":"2025-06-28","eName":"The Billy Joel Story: The Pianoman Edition","genre":"Pop","price":"$65.00","supports":[],"ticketUrl":null,"time":" 8pm"}],"vName":"The Round"},"type":"Feature"},{"geometry":{"coordinates":[144.9651425,-37.8119429],"type":"Point"},"properties":{"events":[{"categories":["Music"],"eDate":"2025-06-28","eName":"Free Parking","genre":"Jazz","price":"$28.56","supports":["Bailey Judd"," Jonathan Bufalino"],"ticketUrl":null,"time":" 7pm"},{"categories":["Free","Music"],"eDate":"2025-06-28","eName":"Is That Garage?","genre":"Electronic","price":"Free","supports":[],"ticketUrl":null,"time":"11pm"}],"vName":"The Toff In Town"},"type":"Feature"},{"geometry":{"coordinates":[144.9870814,-37.799406],"type":"Point"},"properties":{"events":[{"categories":["Music"],"eDate":"2025-06-28","eName":"Posseshot","genre":"Hip Hop","price":"Free","supports":[],"ticketUrl":null,"time":" 2:30pm"},{"categories":["Music"],"eDate":"2025-06-28","eName":"River of Snakes","genre":"Rock","price":"Free","supports":["The Nation Two"],"ticketUrl":null,"time":" 3pm"},{"categories":["Music"],"eDate":"2025-06-28","eName":"gesùnolike","genre":"Rock","price":"$11.25","supports":["Gallagath"," Ed Hirst & The Crane Gang"," Ludes"],"ticketUrl":null,"time":" 8pm"},{"categories":["Music"],"eDate":"2025-06-28","eName":"Mannequin Death Squad","genre":"Punk","price":"$23.50","supports":[],"ticketUrl":null,"time":" 8:30pm"}],"vName":"The Tote Hotel"},"type":"Feature"},{"geometry":{"coordinates":[144.9984324,-37.7729134],"type":"Point"},"properties":{"events":[{"categories":["Free","Music"],"eDate":"2025-06-28","eName":"Wes 22 Fest: Wild Folk","genre":"Country/Folk","price":"Free","supports":[],"ticketUrl":null,"time":" 3pm"}],"vName":"Wesley Anne"},"type":"Feature"}],"type":"FeatureCollection"}