{"features":[{"geometry":{"coordinates":[144.972501,-37.811331],"type":"Point"},"properties":{"events":[{"categories":["Music"],"eDate":"2025-08-02","eName":"Succulent Funk","genre":null,"price":"$15.00","supports":["Miles Ahead"," Gay Socialist Cowboy"," El’ Fuentes"," DJ Steely Ann"," Magnus"],"ticketUrl":null,"time":" 8pm"}],"vName":"Angel Music Bar"},"type":"Feature"},{"geometry":{"coordinates":[144.9982812,-37.7713296],"type":"Point"},"properties":{"events":[{"categories":["Music","Comedy"],"eDate":"2025-08-02","eName":"A Place To Call Home: Refugee Support Event","genre":"Jazz","price":"$20.00 - 60.00","supports":[],"ticketUrl":null,"time":" 3pm"}],"vName":"Bar 303"},"type":"Feature"},{"geometry":{"coordinates":[144.9891167,-37.7996488],"type":"Point"},"properties":{"events":[{"categories":["Music"],"eDate":"2025-08-02","eName":"Ulthar + Jarhead Fertilizer","genre":"Metal","price":"$59.70","supports":[],"ticketUrl":null,"time":" 8pm"}],"vName":"Bendigo Hotel"},"type":"Feature"},{"geometry":{"coordinates":[144.9568039,-37.8111442],"type":"Point"},"properties":{"events":[{"categories":["Music"],"eDate":"2025-08-02","eName":"Spirit: The Songbook of Santana","genre":"Jazz","price":"$40.00","supports":[],"ticketUrl":null,"time":" 7:30pm"}],"vName":"Bird's Basement"},"type":"Feature"},{"geometry":{"coordinates":[144.9617083,-37.7704205],"type":"Point"},"properties":{"events":[{"categories":["Music"],"eDate":"2025-08-02","eName":"VOXNEON","genre":null,"price":"$39.00","supports":[],"ticketUrl":null,"time":" 8:30pm"}],"vName":"Brunswick Ballroom"},"type":"Feature"},{"geometry":{"coordinates":[144.9875792,-37.7963739],"type":"Point"},"properties":{"events":[{"categories":["Music"],"eDate":"2025-08-02","eName":"The Rartel","genre":"Rock","price":"$13.00","supports":["W.O.M.B.A.T"," Munted Chunts"],"ticketUrl":null,"time":" 8pm"}],"vName":"Gem Bar"},"type":"Feature"},{"geometry":{"coordinates":[145.0008148,-37.8107158],"type":"Point"},"properties":{"events":[{"categories":["Music"],"eDate":"2025-08-02","eName":"Mid Drift (Under 18’s Matinee)","genre":null,"price":"$23.75 - 28.85","supports":["Gilroy"],"ticketUrl":null,"time":" 2:30pm"},{"categories":["Music"],"eDate":"2025-08-02","eName":"Mid Drift","genre":null,"price":"$23.75 - 28.85","supports":["Gilroy"," Daezy"],"ticketUrl":null,"time":" 8pm"}],"vName":"Leadbeater Hotel"},"type":"Feature"},{"geometry":{"coordinates":[144.9790251,-37.8675008],"type":"Point"},"properties":{"events":[{"categories":["Music"],"eDate":"2025-08-02","eName":"The Neil Diamond Story: Hot August Night Tour","genre":"Rock","price":"$40.00 - 55.00","supports":[],"ticketUrl":null,"time":" 7pm"}],"vName":"Memo Music Hall"},"type":"Feature"},{"geometry":{"coordinates":[144.998414,-37.771471],"type":"Point"},"properties":{"events":[{"categories":["Music"],"eDate":"2025-08-02","eName":"Go-Jo (Matinee Session)","genre":"Pop","price":"$35.30","supports":[],"ticketUrl":null,"time":" 3pm"},{"categories":["Music"],"eDate":"2025-08-02","eName":"Go-Jo","genre":"Pop","price":"Free","supports":[],"ticketUrl":null,"time":" 8pm"}],"vName":"Northcote Social Club"},"type":"Feature"},{"geometry":{"coordinates":[145.0015248,-37.8258878],"type":"Point"},"properties":{"events":[{"categories":["Music"],"eDate":"2025-08-02","eName":"Geoff Achison’s 60th Birthday Retrospective","genre":"Blues","price":"$34.70","supports":["DJ Livewire Funk"," Barry Maxwell"," DJ Randy Lipz XXX"],"ticketUrl":null,"time":" 7pm"}],"vName":"Odeon Richmond"},"type":"Feature"},{"geometry":{"coordinates":[144.96084,-37.813514],"type":"Point"},"properties":{"events":[{"categories":["Music"],"eDate":"2025-08-02","eName":"A Night of Joni Mitchell With Camilla Burrows","genre":"Jazz","price":"$45.00","supports":[],"ticketUrl":null,"time":" 6pm"},{"categories":["Music"],"eDate":"2025-08-02","eName":"Jazz Harbingers: The Music of Art Blakey & The Jazz Messengers","genre":"Jazz","price":"$45.00","supports":[],"ticketUrl":null,"time":" 6:30pm"},{"categories":["Music"],"eDate":"2025-08-02","eName":"Fabulous Diva: The Music of Dr Nina Simone","genre":"Jazz","price":"$45.00","supports":[],"ticketUrl":null,"time":" 9pm"},{"categories":["Music"],"eDate":"2025-08-02","eName":"John Bennett Quintet: Plays The Music of Cannonball & Nat Adderley","genre":"Jazz","price":"$45.00","supports":[],"ticketUrl":null,"time":" 9:30pm"}],"vName":"Paris Cat Jazz Club"},"type":"Feature"},{"geometry":{"coordinates":[144.9615882,-37.7711432],"type":"Point"},"properties":{"events":[{"categories":["Music"],"eDate":"2025-08-02","eName":"Carrieland","genre":"Pop","price":"Free","supports":["Do The Bed"],"ticketUrl":null,"time":" 3pm"},{"categories":["Music"],"eDate":"2025-08-02","eName":"Planet Bitchy","genre":"Rock","price":"$17.95","supports":[],"ticketUrl":null,"time":" 7:30pm"}],"vName":"Retreat Hotel"},"type":"Feature"},{"geometry":{"coordinates":[144.993413,-37.8506652],"type":"Point"},"properties":{"events":[{"categories":["Music"],"eDate":"2025-08-02","eName":"The Late Show","genre":"Electronic","price":"$26.52","supports":[],"ticketUrl":null,"time":"10pm"}],"vName":"Revolver Upstairs"},"type":"Feature"},{"geometry":{"coordinates":[144.9862196,-37.9091087],"type":"Point"},"properties":{"events":[{"categories":["Music"],"eDate":"2025-08-02","eName":"Lady is a Tramp","genre":"Jazz","price":"$60.00","supports":[],"ticketUrl":null,"time":" 8:30pm"}],"vName":"Royal Brighton Yacht Club"},"type":"Feature"},{"geometry":{"coordinates":[144.9657057,-37.8061581],"type":"Point"},"properties":{"events":[{"categories":["Music"],"eDate":"2025-08-02","eName":"Baggy Trousers & Loonee Tunes Bring The Sound Of Madness & The Sound Of The Specials","genre":"Jazz","price":"$43.80 - 54.15","supports":[],"ticketUrl":null,"time":" 7pm"}],"vName":"The Curtin"},"type":"Feature"},{"geometry":{"coordinates":[144.9879283,-37.7505509],"type":"Point"},"properties":{"events":[{"categories":["Music"],"eDate":"2025-08-02","eName":"Adam Hattaway","genre":"Acoustic","price":"Free","supports":[],"ticketUrl":null,"time":" 7pm"}],"vName":"The Merri Bar"},"type":"Feature"},{"geometry":{"coordinates":[144.9708437,-37.7973184],"type":"Point"},"properties":{"events":[{"categories":["Music"],"eDate":"2025-08-02","eName":"Motley Jazz Jam","genre":"Jazz","price":"Free","supports":[],"ticketUrl":null,"time":" 7:30pm"},{"categories":["Comedy","Theatre"],"eDate":"2025-08-02","eName":"The Big HOO-HAA!","genre":null,"price":"$32.00","supports":[],"ticketUrl":null,"time":" 8:30pm"}],"vName":"The Motley Bauhaus"},"type":"Feature"},{"geometry":{"coordinates":[144.9651425,-37.8119429],"type":"Point"},"properties":{"events":[{"categories":["Free","Music"],"eDate":"2025-08-02","eName":"Stupid F*ck The Silly Clown","genre":"Punk","price":"$23.46","supports":["Eris & The Disciples"," Pintman"],"ticketUrl":null,"time":" 7pm"},{"categories":["Free","Music"],"eDate":"2025-08-02","eName":"Carbon Presents: TeeDallas","genre":"Electronic","price":"Free","supports":[],"ticketUrl":null,"time":"11pm"}],"vName":"The Toff In Town"},"type":"Feature"},{"geometry":{"coordinates":[144.9769451,-37.8055776],"type":"Point"},"properties":{"events":[{"categories":["Music"],"eDate":"2025-08-02","eName":"Sharp Edges","genre":"Rock","price":"$20.00","supports":["Charlie & The Enablers"," Sheer Chance"],"ticketUrl":null,"time":" 1pm"},{"categories":["Music"],"eDate":"2025-08-02","eName":"The Addictions","genre":"Soul/Funk","price":"$23.50","supports":["Free Parking Horn Trio"," Dear Judy"," Ladybitch"],"ticketUrl":null,"time":" 8pm"}],"vName":"The Workers Club"},"type":"Feature"},{"geometry":{"coordinates":[144.9984324,-37.7729134],"type":"Point"},"properties":{"events":[{"categories":["Music"],"eDate":"2025-08-02","eName":"He‌nry ‌Hugo","genre":"Indie","price":"Free","supports":[],"ticketUrl":null,"time":" 8pm"}],"vName":"Wesley Anne"},"type":"Feature"}],"type":"FeatureCollection"}