{"features":[{"geometry":{"coordinates":[144.99828116650363,-37.7713296],"type":"Point"},"properties":{"events":[{"categories":["Free","Music"],"eDate":"2024-09-07","eName":"Ander's Birthday @ 303","genre":"Punk","price":"Free","supports":[],"ticketUrl":null,"time":" 7:30pm"}],"vName":"Bar 303"},"type":"Feature"},{"geometry":{"coordinates":[144.978682,-37.7981225],"type":"Point"},"properties":{"events":[{"categories":["Free","Music"],"eDate":"2024-09-07","eName":"Woody Samson","genre":null,"price":"Free","supports":[],"ticketUrl":null,"time":" 9:30pm"},{"categories":["Music"],"eDate":"2024-09-07","eName":"DJ Damien Mack","genre":"Indie","price":"Free","supports":[],"ticketUrl":null,"time":"10pm"}],"vName":"Baxter's Lot"},"type":"Feature"},{"geometry":{"coordinates":[144.9607158,-37.776327],"type":"Point"},"properties":{"events":[{"categories":["Music"],"eDate":"2024-09-07","eName":"Colour & Shade","genre":"Metal","price":"$16.85","supports":["Engraved"," Rise From Ashes"," ANA"," Haladrene"],"ticketUrl":null,"time":" 7pm"}],"vName":"Bergy Bandroom"},"type":"Feature"},{"geometry":{"coordinates":[144.9567859,-37.8111049],"type":"Point"},"properties":{"events":[{"categories":["Music"],"eDate":"2024-09-07","eName":"Deborah Conway & Willy Zygier","genre":"Jazz","price":"$50.00","supports":[],"ticketUrl":null,"time":" 6pm"}],"vName":"Bird's Basement"},"type":"Feature"},{"geometry":{"coordinates":[144.9617018,-37.7704566],"type":"Point"},"properties":{"events":[{"categories":["Music"],"eDate":"2024-09-07","eName":"It's Rosie Quartz","genre":"Indie","price":"Free","supports":["Kaiyah Mercedes"," Jamison"],"ticketUrl":null,"time":" 8pm"}],"vName":"Brunswick Artists' Bar"},"type":"Feature"},{"geometry":{"coordinates":[144.9617018,-37.7704566],"type":"Point"},"properties":{"events":[{"categories":["Music"],"eDate":"2024-09-07","eName":"SHE: Beccy Cole, Felicity Urquhart & Lyn Bowtell","genre":"Indie","price":"$59.77","supports":[],"ticketUrl":null,"time":" 1:45pm"}],"vName":"Brunswick Ballroom"},"type":"Feature"},{"geometry":{"coordinates":[145.00041662186553,-37.76125825],"type":"Point"},"properties":{"events":[{"categories":["Music"],"eDate":"2024-09-07","eName":"Allerdyce","genre":null,"price":"$19.90","supports":["Eaglemont"," My Giddy Aunt"],"ticketUrl":null,"time":" 8pm"}],"vName":"Cactus Room"},"type":"Feature"},{"geometry":{"coordinates":[144.99266639479475,-37.82488935],"type":"Point"},"properties":{"events":[{"categories":["Music"],"eDate":"2024-09-07","eName":"Bleeding Through","genre":"Metal","price":"$57.00","supports":[],"ticketUrl":null,"time":" 7:30pm"}],"vName":"Corner Hotel"},"type":"Feature"},{"geometry":{"coordinates":[144.950359,-37.8100202],"type":"Point"},"properties":{"events":[{"categories":["Music"],"eDate":"2024-09-07","eName":"Yo Yo Honey Singh","genre":"Hip Hop","price":"$131.40","supports":[],"ticketUrl":null,"time":" 6:30pm"}],"vName":"Festival Hall"},"type":"Feature"},{"geometry":{"coordinates":[144.9875917,-37.7963837],"type":"Point"},"properties":{"events":[{"categories":["Free","Music"],"eDate":"2024-09-07","eName":"Lunatic","genre":"Rock","price":"Free","supports":["Dirt Road Wave"," Secret Act"],"ticketUrl":null,"time":" 4pm"},{"categories":["Free","Music"],"eDate":"2024-09-07","eName":"Captain Beep-Boop + Billiam","genre":"Rock","price":"Free","supports":[],"ticketUrl":null,"time":" 8pm"}],"vName":"Gem Bar"},"type":"Feature"},{"geometry":{"coordinates":[144.9787445,-37.7967357],"type":"Point"},"properties":{"events":[{"categories":["Music"],"eDate":"2024-09-07","eName":"Glamorama Saturdays: Ronald + Slim Maybe","genre":"Electronic","price":"$21.97 - 27.19","supports":["Siila"," Slumdog"," Mac's Mum"],"ticketUrl":null,"time":" 9pm"}],"vName":"Glamorama"},"type":"Feature"},{"geometry":{"coordinates":[144.9679835243618,-37.8201575],"type":"Point"},"properties":{"events":[{"categories":["Music"],"eDate":"2024-09-07","eName":"Melbourne Symphony Orchestra presents Dvořák & Bruckner","genre":"Classical","price":"$75.00 - 139.00","supports":[],"ticketUrl":null,"time":" 7:30pm"}],"vName":"Hamer Hall (Arts Centre Melbourne)"},"type":"Feature"},{"geometry":{"coordinates":[144.973013,-37.8640582],"type":"Point"},"properties":{"events":[{"categories":["Music"],"eDate":"2024-09-07","eName":"Early Bird: No Scrubs: 90s + Early 2000s Party","genre":"Pop","price":"$14.00 - 22.95","supports":[],"ticketUrl":null,"time":" 6pm"}],"vName":"Hotel Esplanade (aka The Espy)"},"type":"Feature"},{"geometry":{"coordinates":[144.9596527,-37.7720304],"type":"Point"},"properties":{"events":[{"categories":["Music"],"eDate":"2024-09-07","eName":"Antix","genre":"Electronic","price":"$33.66 - 44.37","supports":["Jamie Stevens"," The Oddness"," Wilma"," Karl Pilbrow"],"ticketUrl":null,"time":" 1pm"},{"categories":["Music"],"eDate":"2024-09-07","eName":"Solstice","genre":"Electronic","price":"$12.24 - 38.76","supports":[],"ticketUrl":null,"time":" 7pm"}],"vName":"Howler"},"type":"Feature"},{"geometry":{"coordinates":[144.8971518,-37.8054274],"type":"Point"},"properties":{"events":[{"categories":["Free","Music"],"eDate":"2024-09-07","eName":"The Dunners","genre":"Indie","price":"Free","supports":["The Chans"," R!SK"],"ticketUrl":null,"time":" 7:30pm"}],"vName":"Mamma Chen's"},"type":"Feature"},{"geometry":{"coordinates":[144.96741062735794,-37.82454855],"type":"Point"},"properties":{"events":[{"categories":["Music"],"eDate":"2024-09-07","eName":"Hanadayori Night: Shoso Shimbo with Slava Grigoryan","genre":"Acoustic","price":"$78.00","supports":[],"ticketUrl":null,"time":" 7pm"},{"categories":["Music"],"eDate":"2024-09-07","eName":"Australian Chamber Orchestra: Tognetti. Mendelssohn. Bach","genre":"Classical","price":"$49.00","supports":[],"ticketUrl":null,"time":" 7:30pm"}],"vName":"Melbourne Recital Centre"},"type":"Feature"},{"geometry":{"coordinates":[144.9786817,-37.8671902],"type":"Point"},"properties":{"events":[{"categories":["Music"],"eDate":"2024-09-07","eName":"The Deserters: Delsinki & Brooke Taylor","genre":null,"price":"$25.00 - 40.00","supports":[],"ticketUrl":null,"time":" 7pm"}],"vName":"Memo Music Hall"},"type":"Feature"},{"geometry":{"coordinates":[145.1496717,-37.7125259],"type":"Point"},"properties":{"events":[{"categories":["Music"],"eDate":"2024-09-07","eName":"The Screamin' Eagles: Eagles Tribute","genre":"Rock","price":"$35.00","supports":[],"ticketUrl":null,"time":" 9pm"}],"vName":"Missing Gorilla"},"type":"Feature"},{"geometry":{"coordinates":[144.9712356,-37.812902],"type":"Point"},"properties":{"events":[{"categories":["Comedy"],"eDate":"2024-09-07","eName":"Basement Comedy Club","genre":null,"price":"$25.00","supports":["more"],"ticketUrl":null,"time":" 8pm"}],"vName":"Morris House"},"type":"Feature"},{"geometry":{"coordinates":[144.998414,-37.771471],"type":"Point"},"properties":{"events":[{"categories":["Music"],"eDate":"2024-09-07","eName":"Old Mervs","genre":"Rock","price":"$49.50","supports":["Fool Nelson"],"ticketUrl":null,"time":"12pm"},{"categories":["Music"],"eDate":"2024-09-07","eName":"New Buffalo (Sally Seltmann: The Last Beautiful Day 20th Anniversary Show)","genre":"Indie","price":"$40.40","supports":["Hannah Cameron"," Georgia Fields"],"ticketUrl":null,"time":" 8:30pm"}],"vName":"Northcote Social Club"},"type":"Feature"},{"geometry":{"coordinates":[144.97711,-37.79833],"type":"Point"},"properties":{"events":[{"categories":["Free","Music"],"eDate":"2024-09-07","eName":"Ten Gallon Head + Golden Rail","genre":"Pop","price":"Free","supports":[],"ticketUrl":null,"time":" 4pm"},{"categories":["Music"],"eDate":"2024-09-07","eName":"Richie Weed","genre":"Rock","price":"$17.35","supports":["Immigrant Union"," Al Matcott"],"ticketUrl":null,"time":" 8pm"}],"vName":"Old Bar"},"type":"Feature"},{"geometry":{"coordinates":[144.9605705,-37.8132486],"type":"Point"},"properties":{"events":[{"categories":["Music"],"eDate":"2024-09-07","eName":"Ain't That A Kick In The Head: Music of Dean Martin with David Cotter","genre":"Jazz","price":"$45.00","supports":[],"ticketUrl":null,"time":" 6pm"},{"categories":["Music"],"eDate":"2024-09-07","eName":"Hot Club Swing","genre":"Jazz","price":"$45.00","supports":[],"ticketUrl":null,"time":" 6pm"},{"categories":["Music"],"eDate":"2024-09-07","eName":"Not So Big Band: The Music of Sting","genre":"Jazz","price":"$45.00","supports":[],"ticketUrl":null,"time":" 9pm"},{"categories":["Music"],"eDate":"2024-09-07","eName":"Sugarfoot Ramblers With Georgie Darvidis","genre":"Jazz","price":"$40.00","supports":[],"ticketUrl":null,"time":" 9pm"}],"vName":"Paris Cat Jazz Club"},"type":"Feature"},{"geometry":{"coordinates":[144.9631913,-37.7617818],"type":"Point"},"properties":{"events":[{"categories":["Music"],"eDate":"2024-09-07","eName":"Drago’s Afterparty & Speakeasy","genre":"Soul/Funk","price":"$15.00","supports":[],"ticketUrl":null,"time":" 8pm"}],"vName":"Ringo Barr"},"type":"Feature"},{"geometry":{"coordinates":[144.9607404,-37.7743469],"type":"Point"},"properties":{"events":[{"categories":["Music"],"eDate":"2024-09-07","eName":"AM//PM Emo Night","genre":"Punk","price":"$17.85 - 22.95","supports":[],"ticketUrl":null,"time":" 7pm"}],"vName":"Stay Gold"},"type":"Feature"},{"geometry":{"coordinates":[144.9706095,-37.7783326],"type":"Point"},"properties":{"events":[{"categories":["Free","Music"],"eDate":"2024-09-07","eName":"Shelly's Motor Club","genre":"Rock","price":"Free","supports":["Insufficient Funds"],"ticketUrl":null,"time":" 9pm"}],"vName":"The Beast"},"type":"Feature"},{"geometry":{"coordinates":[144.9657057,-37.8061581],"type":"Point"},"properties":{"events":[{"categories":["Music"],"eDate":"2024-09-07","eName":"Kobie Dee","genre":"Hip Hop","price":"$29.00","supports":[],"ticketUrl":null,"time":" 8pm"}],"vName":"The Curtin"},"type":"Feature"},{"geometry":{"coordinates":[144.9585654,-37.8059962],"type":"Point"},"properties":{"events":[{"categories":["Free","Music"],"eDate":"2024-09-07","eName":"Hormones + Beth Seymoup","genre":"Punk","price":"Free","supports":[],"ticketUrl":null,"time":" 2:30pm"},{"categories":["Music"],"eDate":"2024-09-07","eName":"Slaughtering September","genre":"Metal","price":"$23.50","supports":["Bitter Kind"," Irken Armada"," Lakeview"],"ticketUrl":null,"time":" 8pm"}],"vName":"The Last Chance Rock & Roll Bar"},"type":"Feature"},{"geometry":{"coordinates":[144.9706095,-37.7783326],"type":"Point"},"properties":{"events":[{"categories":["Music","Other \"Food & Drink\""],"eDate":"2024-09-07","eName":"Gumbo Incident","genre":"Jazz","price":"Free","supports":[],"ticketUrl":null,"time":" 6:30pm"}],"vName":"The Moldy Fig"},"type":"Feature"},{"geometry":{"coordinates":[144.9708437,-37.7973184],"type":"Point"},"properties":{"events":[{"categories":["Free","Music"],"eDate":"2024-09-07","eName":"Jazz Arvos","genre":"Jazz","price":"Free","supports":[],"ticketUrl":null,"time":" 5pm"},{"categories":["Comedy"],"eDate":"2024-09-07","eName":"The Big HOO HAA!","genre":null,"price":"$30.39","supports":[],"ticketUrl":null,"time":" 8:30pm"}],"vName":"The Motley Bauhaus"},"type":"Feature"},{"geometry":{"coordinates":[144.9651425,-37.8119429],"type":"Point"},"properties":{"events":[{"categories":["Music"],"eDate":"2024-09-07","eName":"Lovely Lonely Landfill","genre":null,"price":"$20.00","supports":["Hazy Skies"," Dear Matilda"],"ticketUrl":null,"time":" 7:30pm"}],"vName":"The Toff In Town"},"type":"Feature"},{"geometry":{"coordinates":[144.9618426,-37.8125531],"type":"Point"},"properties":{"events":[{"categories":["Free","Music","Other \"Food & Drink\""],"eDate":"2024-09-07","eName":"Taijae + Amin Payne","genre":"Electronic","price":"Free","supports":[],"ticketUrl":null,"time":"12pm"}],"vName":"Whitehart Bar"},"type":"Feature"}],"type":"FeatureCollection"}