{"features":[{"geometry":{"coordinates":[145.0048929,-37.8035316],"type":"Point"},"properties":{"events":[{"categories":["Music","Other \"Art \"","Other \"Spoken Word, Poetry \""],"eDate":"2026-07-10","eName":"WinterLIVE: Akio Suzuki & Hiromi Miyakita","genre":"Experimental","price":"$5.00 - 39.00","supports":[],"ticketUrl":null,"time":" 6pm"}],"vName":"Abbotsford Convent"},"type":"Feature"},{"geometry":{"coordinates":[144.978682,-37.7981225],"type":"Point"},"properties":{"events":[{"categories":["Free","Music"],"eDate":"2026-07-10","eName":"Harrisen Hughes","genre":null,"price":"Free","supports":[],"ticketUrl":null,"time":" 9pm"}],"vName":"Baxter's Lot"},"type":"Feature"},{"geometry":{"coordinates":[144.9926664,-37.8248893],"type":"Point"},"properties":{"events":[{"categories":["Music","Other \"Wrestling\""],"eDate":"2026-07-10","eName":"Wrestlerock with Elm Street","genre":"Rock","price":"$45.45","supports":[],"ticketUrl":null,"time":" 8pm"}],"vName":"Corner Hotel"},"type":"Feature"},{"geometry":{"coordinates":[144.9785611,-37.7965465],"type":"Point"},"properties":{"events":[{"categories":["Music"],"eDate":"2026-07-10","eName":"The Bikie Tour","genre":"Hip Hop","price":"$30.00","supports":["Choc"," Adnam"," Fokelore"," Jani Cruz"],"ticketUrl":null,"time":" 7:30pm"}],"vName":"Evelyn Hotel"},"type":"Feature"},{"geometry":{"coordinates":[144.9587682,-37.6958845],"type":"Point"},"properties":{"events":[{"categories":["Music"],"eDate":"2026-07-10","eName":"Sticky Carpet","genre":"Rock","price":"$15.00","supports":[],"ticketUrl":null,"time":" 8pm"}],"vName":"MusicLand Fawkner Music Complex"},"type":"Feature"},{"geometry":{"coordinates":[144.9720579,-37.8121675],"type":"Point"},"properties":{"events":[{"categories":["Comedy","Theatre"],"eDate":"2026-07-10","eName":"F#*k This, I Quit: Comedy Based on YOUR Work Stories","genre":null,"price":"$24.00","supports":[],"ticketUrl":null,"time":" 7pm"}],"vName":"The Improv Conspiracy"},"type":"Feature"}],"type":"FeatureCollection"}