{"features":[{"geometry":{"coordinates":[145.0004166,-37.7612582],"type":"Point"},"properties":{"events":[{"categories":["Music"],"eDate":"2026-03-27","eName":"Blue Communications","genre":null,"price":"$18.90","supports":["Secret island"," Nathan Roche + his R'nR Band"],"ticketUrl":null,"time":" 8pm"}],"vName":"Cactus Room"},"type":"Feature"},{"geometry":{"coordinates":[144.9713425,-37.8128595],"type":"Point"},"properties":{"events":[{"categories":["Music"],"eDate":"2026-03-27","eName":"DOSE","genre":"Rock","price":"$15.00 - 20.00","supports":["Rosewood"," Howling Mountain"],"ticketUrl":null,"time":" 8pm"}],"vName":"Cherry Bar"},"type":"Feature"},{"geometry":{"coordinates":[144.9627513,-37.760963],"type":"Point"},"properties":{"events":[{"categories":["Free","Music"],"eDate":"2026-03-27","eName":"Glenn Waverley & The Mentones","genre":"Blues","price":"Free","supports":[],"ticketUrl":null,"time":" 8pm"}],"vName":"Edinburgh Castle Hotel"},"type":"Feature"},{"geometry":{"coordinates":[144.9785611,-37.7965465],"type":"Point"},"properties":{"events":[{"categories":["Music"],"eDate":"2026-03-27","eName":"Fallweather + Tapestry","genre":"Indie","price":"$29.90","supports":["Elision"],"ticketUrl":null,"time":" 8pm"}],"vName":"Evelyn Hotel"},"type":"Feature"},{"geometry":{"coordinates":[144.9675876,-37.8240849],"type":"Point"},"properties":{"events":[{"categories":["Music"],"eDate":"2026-03-27","eName":"T3HO","genre":"Country/Folk","price":"$45.00","supports":[],"ticketUrl":null,"time":" 6pm"},{"categories":["Music","Other \"Spoken Word, Poetry \""],"eDate":"2026-03-27","eName":"Five Pathways to Love","genre":"Global","price":"$50.00 - 85.00","supports":[],"ticketUrl":null,"time":" 7:30pm"}],"vName":"Melbourne Recital Centre"},"type":"Feature"},{"geometry":{"coordinates":[144.998414,-37.771471],"type":"Point"},"properties":{"events":[{"categories":["Music"],"eDate":"2026-03-27","eName":"Kye","genre":"Soul/Funk","price":"$24.00","supports":["Sophia J. Smith"," Ella Zagroon"],"ticketUrl":null,"time":" 8pm"}],"vName":"Northcote Social Club"},"type":"Feature"},{"geometry":{"coordinates":[144.96084,-37.813514],"type":"Point"},"properties":{"events":[{"categories":["Music"],"eDate":"2026-03-27","eName":"Bob Sedergreen’s Tribute to Jazz Pianists","genre":"Jazz","price":"$45.00","supports":[],"ticketUrl":null,"time":" 6pm"},{"categories":["Music"],"eDate":"2026-03-27","eName":"Liz Violi Sings Lady Ella","genre":"Jazz","price":"$45.00","supports":[],"ticketUrl":null,"time":" 6:30pm"},{"categories":["Music"],"eDate":"2026-03-27","eName":"Not So Big Band: Best of Bublé with Ben McGill","genre":"Jazz","price":"Free","supports":[],"ticketUrl":null,"time":" 9pm"},{"categories":["Music"],"eDate":"2026-03-27","eName":"Joel Havea Trio","genre":"Jazz","price":"$45.00","supports":[],"ticketUrl":null,"time":" 9:30pm"}],"vName":"Paris Cat Jazz Club"},"type":"Feature"},{"geometry":{"coordinates":[144.9761619,-37.8230506],"type":"Point"},"properties":{"events":[{"categories":["Music"],"eDate":"2026-03-27","eName":"Wu-Tang Clan","genre":"Hip Hop","price":"$89.90","supports":[],"ticketUrl":null,"time":" 8pm"}],"vName":"Rod Laver Arena"},"type":"Feature"},{"geometry":{"coordinates":[145.1334272,-37.9135736],"type":"Point"},"properties":{"events":[{"categories":["Music","Other \"Dance \"","Other \"Art \""],"eDate":"2026-03-27","eName":"Lighting the Dark","genre":"Electronic","price":"$20.00 - 65.00","supports":[],"ticketUrl":null,"time":" 7:30pm"}],"vName":"The Ian Potter Centre for Performing Arts"},"type":"Feature"},{"geometry":{"coordinates":[144.9870814,-37.799406],"type":"Point"},"properties":{"events":[{"categories":["Music"],"eDate":"2026-03-27","eName":"Guitar Wolf","genre":"Rock","price":"$55.60","supports":["Alien Nosejob"," Elvis 2"," Cujo"],"ticketUrl":null,"time":" 7:30pm"},{"categories":["Music"],"eDate":"2026-03-27","eName":"Scuzzface","genre":"Punk","price":"$14.30","supports":[],"ticketUrl":null,"time":" 8:30pm"}],"vName":"The Tote Hotel"},"type":"Feature"},{"geometry":{"coordinates":[144.9984324,-37.7729134],"type":"Point"},"properties":{"events":[{"categories":["Music"],"eDate":"2026-03-27","eName":"Tony Yang","genre":"Jazz","price":"Free","supports":[],"ticketUrl":null,"time":" 6pm"},{"categories":["Music"],"eDate":"2026-03-27","eName":"Jack Earle","genre":"Jazz","price":"$34.20","supports":[],"ticketUrl":null,"time":" 8pm"}],"vName":"Wesley Anne"},"type":"Feature"}],"type":"FeatureCollection"}