{"features":[{"geometry":{"coordinates":[144.978682,-37.7981225],"type":"Point"},"properties":{"events":[{"categories":["Free","Music"],"eDate":"2025-11-26","eName":"Live and Local Hosted by Xander Cuming","genre":null,"price":"Free","supports":[],"ticketUrl":null,"time":" 9pm"}],"vName":"Baxter's Lot"},"type":"Feature"},{"geometry":{"coordinates":[144.9785611,-37.7965465],"type":"Point"},"properties":{"events":[{"categories":["Music","Free"],"eDate":"2025-11-26","eName":"Fairtrade Narcotics November Residency","genre":null,"price":"Free","supports":[],"ticketUrl":null,"time":" 8:30pm"},{"categories":["Music","Free"],"eDate":"2025-11-26","eName":"Fairtrade Narcotics November Residency Week 4","genre":null,"price":"Free","supports":[],"ticketUrl":null,"time":" 8:30pm"}],"vName":"Evelyn Hotel"},"type":"Feature"},{"geometry":{"coordinates":[145.1334272,-37.9135736],"type":"Point"},"properties":{"events":[{"categories":["Music"],"eDate":"2025-11-26","eName":"Noria Letts: La Musique","genre":"Jazz","price":"$15.00 - 29.00","supports":[],"ticketUrl":null,"time":" 7:30pm"}],"vName":"The Ian Potter Centre for Performing Arts"},"type":"Feature"},{"geometry":{"coordinates":[144.996838,-37.7794356],"type":"Point"},"properties":{"events":[{"categories":["Music"],"eDate":"2025-11-26","eName":"The Man from Atlantis: VOL II LP Launch","genre":null,"price":"$15.00","supports":["Patrick Benson"," Matt Kay"],"ticketUrl":null,"time":" 7:45pm"}],"vName":"The Merri Creek Tavern"},"type":"Feature"},{"geometry":{"coordinates":[144.9651425,-37.8119429],"type":"Point"},"properties":{"events":[{"categories":["Music"],"eDate":"2025-11-26","eName":"My Lovely Haunting: Forgotten Moon Album Launch","genre":"Electronic","price":"$18.36","supports":[],"ticketUrl":null,"time":" 7pm"},{"categories":["Free","Music"],"eDate":"2025-11-26","eName":"My Lovely Haunting","genre":"Electronic","price":"$18.36","supports":[],"ticketUrl":null,"time":" 7pm"}],"vName":"The Toff In Town"},"type":"Feature"}],"type":"FeatureCollection"}