{"features":[{"geometry":{"coordinates":[144.978425,-37.79773],"type":"Point"},"properties":{"events":[{"categories":["Free","Music"],"eDate":"2023-12-17","eName":"Syd Perry","genre":"Blues","price":"Free","supports":[],"ticketUrl":null,"time":" 5:30pm"}],"vName":"Bar Open"},"type":"Feature"},{"geometry":{"coordinates":[144.9607158,-37.776327],"type":"Point"},"properties":{"events":[{"categories":["Music"],"eDate":"2023-12-17","eName":"A Very Spacey Christmas with Useless Spaceman","genre":"Rock","price":"$11.75","supports":["VILLAINS"," Beach Vultures"," Sweatshop"],"ticketUrl":null,"time":" 4:30pm"}],"vName":"Bergy Bandroom"},"type":"Feature"},{"geometry":{"coordinates":[144.9945274,-37.8001115],"type":"Point"},"properties":{"events":[{"categories":["Free","Music","Other \"Food & Drink\""],"eDate":"2023-12-17","eName":"Fight Night Records present: Sugarfoot Ramblers","genre":null,"price":"Free","supports":["FNR DJs"],"ticketUrl":null,"time":" 1:30pm"}],"vName":"Bodriggy Brewing Company"},"type":"Feature"},{"geometry":{"coordinates":[144.9617018,-37.7704566],"type":"Point"},"properties":{"events":[{"categories":["Music"],"eDate":"2023-12-17","eName":"Ainslie Wills","genre":"Indie","price":"$44.98","supports":["Penny Moodie"],"ticketUrl":null,"time":" 1pm"}],"vName":"Brunswick Ballroom"},"type":"Feature"},{"geometry":{"coordinates":[144.9875917,-37.7963837],"type":"Point"},"properties":{"events":[{"categories":["Free","Music"],"eDate":"2023-12-17","eName":"Bad Bangs + Ouzo!","genre":"Rock","price":"Free","supports":[],"ticketUrl":null,"time":" 7pm"}],"vName":"Gem Bar"},"type":"Feature"},{"geometry":{"coordinates":[144.9679835243618,-37.8201575],"type":"Point"},"properties":{"events":[{"categories":["Music"],"eDate":"2023-12-17","eName":"Harry Connick Jr","genre":"Soul/Funk","price":"$159.00","supports":[],"ticketUrl":null,"time":" 8pm"}],"vName":"Hamer Hall (Arts Centre Melbourne)"},"type":"Feature"},{"geometry":{"coordinates":[144.9596527,-37.7720304],"type":"Point"},"properties":{"events":[{"categories":["Music"],"eDate":"2023-12-17","eName":"Luke Una","genre":"Electronic","price":"$23.46","supports":[],"ticketUrl":null,"time":" 2pm"}],"vName":"Howler"},"type":"Feature"},{"geometry":{"coordinates":[145.3553553,-37.9078552],"type":"Point"},"properties":{"events":[{"categories":["Free","Music"],"eDate":"2023-12-17","eName":"Playlist Acoustic Duo","genre":"Acoustic","price":"Free","supports":[],"ticketUrl":null,"time":" 1pm"}],"vName":"Micawber Tavern"},"type":"Feature"},{"geometry":{"coordinates":[144.998414,-37.771471],"type":"Point"},"properties":{"events":[{"categories":["Music"],"eDate":"2023-12-17","eName":"Icecream Hands","genre":"Pop","price":"$46.00","supports":["Davey Lane"],"ticketUrl":null,"time":" 1pm"}],"vName":"Northcote Social Club"},"type":"Feature"},{"geometry":{"coordinates":[144.97711,-37.79833],"type":"Point"},"properties":{"events":[{"categories":["Music"],"eDate":"2023-12-17","eName":"The Old Bar Gallery Fundraiser For Palestine","genre":null,"price":"$25.00","supports":[],"ticketUrl":null,"time":" 3pm"}],"vName":"Old Bar"},"type":"Feature"},{"geometry":{"coordinates":[145.0142411,-37.7310367],"type":"Point"},"properties":{"events":[{"categories":["Free","Music"],"eDate":"2023-12-17","eName":"Sunday Sunset Sessions","genre":"Jazz","price":"Free","supports":[],"ticketUrl":null,"time":" 6pm"}],"vName":"Ragtime Tavern"},"type":"Feature"},{"geometry":{"coordinates":[144.9631913,-37.7617818],"type":"Point"},"properties":{"events":[{"categories":["Free","Music"],"eDate":"2023-12-17","eName":"Renee Spijker + Angus Montaigne","genre":"Indie","price":"Free","supports":[],"ticketUrl":null,"time":" 8pm"}],"vName":"Ringo Barr"},"type":"Feature"},{"geometry":{"coordinates":[144.9830837,-37.7988316],"type":"Point"},"properties":{"events":[{"categories":["Music","Dance"],"eDate":"2023-12-17","eName":"Domingo Latino: La Influencia","genre":null,"price":"$23.35 - 34.56","supports":[],"ticketUrl":null,"time":" 6:45pm"}],"vName":"The Night Cat"},"type":"Feature"},{"geometry":{"coordinates":[144.9846126,-37.7989941],"type":"Point"},"properties":{"events":[{"categories":["Free","Music"],"eDate":"2023-12-17","eName":"Al Matcott","genre":"Acoustic","price":"Free","supports":["Ellen James"],"ticketUrl":null,"time":" 3pm"},{"categories":["Music"],"eDate":"2023-12-17","eName":"Kilat","genre":"Metal","price":"$19.40","supports":["Internal Rot"," Messianic Gloss"," Persecutor"],"ticketUrl":null,"time":" 6pm"}],"vName":"The Tote Hotel"},"type":"Feature"},{"geometry":{"coordinates":[144.9983987,-37.7729204],"type":"Point"},"properties":{"events":[{"categories":["Music"],"eDate":"2023-12-17","eName":"The Songs of Elvis Costello: Victor Stranges & The Futurists","genre":"Rock","price":"$38.80","supports":["Tim Reid"],"ticketUrl":null,"time":" 3pm"}],"vName":"Wesley Anne"},"type":"Feature"},{"geometry":{"coordinates":[144.9706095,-37.7783326],"type":"Point"},"properties":{"events":[{"categories":["Music"],"eDate":"2023-12-17","eName":"John Taratsas","genre":"Acoustic","price":"Free","supports":[],"ticketUrl":null,"time":" 4:30pm"}],"vName":"Whole Lotta Love"},"type":"Feature"}],"type":"FeatureCollection"}