{"features":[{"geometry":{"coordinates":[144.978682,-37.7981225],"type":"Point"},"properties":{"events":[{"categories":["Music","Free"],"eDate":"2026-07-19","eName":"Mya Rogers","genre":null,"price":"Free","supports":[],"ticketUrl":null,"time":" 9pm"}],"vName":"Baxter's Lot"},"type":"Feature"},{"geometry":{"coordinates":[144.9945274,-37.8001115],"type":"Point"},"properties":{"events":[{"categories":["Festival","Music","Free","Other \"Food \""],"eDate":"2026-07-19","eName":"Colombian Independence Day","genre":null,"price":"Free","supports":[],"ticketUrl":null,"time":" 2pm"}],"vName":"Bodriggy Brewing Company"},"type":"Feature"},{"geometry":{"coordinates":[144.9976902,-37.7745111],"type":"Point"},"properties":{"events":[{"categories":["Theatre"],"eDate":"2026-07-19","eName":"Rabbit & Watson","genre":null,"price":"$38.00","supports":[],"ticketUrl":null,"time":" 5pm"}],"vName":"Northcote Town Hall"},"type":"Feature"},{"geometry":{"coordinates":[144.9615882,-37.7711432],"type":"Point"},"properties":{"events":[{"categories":["Music"],"eDate":"2026-07-19","eName":"Brittle Sun","genre":"Country/Folk","price":"$15.00","supports":["Taylor Project"],"ticketUrl":null,"time":" 2pm"}],"vName":"Retreat Hotel"},"type":"Feature"},{"geometry":{"coordinates":[144.9655277,-37.7344052],"type":"Point"},"properties":{"events":[{"categories":["Music"],"eDate":"2026-07-19","eName":"Carpfest/Merri-Bek Meltdown #5","genre":null,"price":"$5.00","supports":["The World At A Glance"," Indented"," Phase Wanderer"," Down the Drain"],"ticketUrl":null,"time":"12pm"}],"vName":"The Graveyard Bar"},"type":"Feature"},{"geometry":{"coordinates":[144.9879283,-37.7505509],"type":"Point"},"properties":{"events":[{"categories":["Music"],"eDate":"2026-07-19","eName":"Steamboat Whistlers","genre":"Country/Folk","price":"Free","supports":[],"ticketUrl":null,"time":" 8pm"}],"vName":"The Merri Bar"},"type":"Feature"},{"geometry":{"coordinates":[145.0141502,-37.8117556],"type":"Point"},"properties":{"events":[{"categories":["Music"],"eDate":"2026-07-19","eName":"Sounds of Varanasi","genre":"Global","price":"$40.00","supports":[],"ticketUrl":null,"time":" 5pm"}],"vName":"The Open Space"},"type":"Feature"}],"type":"FeatureCollection"}