{"features":[{"geometry":{"coordinates":[144.978425,-37.79773],"type":"Point"},"properties":{"events":[{"categories":["Free","Music"],"eDate":"2023-12-29","eName":"The Four Scoops with Chris Tanner","genre":"Jazz","price":"Free","supports":[],"ticketUrl":null,"time":" 6pm"},{"categories":["Music"],"eDate":"2023-12-29","eName":"Steph Fischer-Ivancsy & The Bad Jackets","genre":"Blues","price":"$17.35","supports":["El Bebe"," Douzey"],"ticketUrl":null,"time":" 8pm"}],"vName":"Bar Open"},"type":"Feature"},{"geometry":{"coordinates":[144.9607158,-37.776327],"type":"Point"},"properties":{"events":[{"categories":["Music"],"eDate":"2023-12-29","eName":"Volt Jolt","genre":"Rock","price":"$16.85","supports":["Monroe"," Ivy Black"," Dirty Gwen"],"ticketUrl":null,"time":" 8pm"}],"vName":"Bergy Bandroom"},"type":"Feature"},{"geometry":{"coordinates":[144.9617018,-37.7704566],"type":"Point"},"properties":{"events":[{"categories":["Music"],"eDate":"2023-12-29","eName":"Mr. McClelland's Finishing School Presents NOT NYE","genre":null,"price":"$23.05","supports":[],"ticketUrl":null,"time":" 8pm"}],"vName":"Brunswick Ballroom"},"type":"Feature"},{"geometry":{"coordinates":[144.9712356,-37.812902],"type":"Point"},"properties":{"events":[{"categories":["Comedy"],"eDate":"2023-12-29","eName":"Basement Comedy Club Fridays","genre":null,"price":"$22.00","supports":[],"ticketUrl":null,"time":" 8pm"}],"vName":"Morris House"},"type":"Feature"},{"geometry":{"coordinates":[144.9706095,-37.7783326],"type":"Point"},"properties":{"events":[{"categories":["Free","Music"],"eDate":"2023-12-29","eName":"Cat Crawl","genre":"Rock","price":"Free","supports":["Long Hours"," Sada Abe"],"ticketUrl":null,"time":" 9pm"},{"categories":["Free","Music"],"eDate":"2023-12-29","eName":"Cat Crawl","genre":"Indie","price":"Free","supports":["Sada Abe"," Long Hours"],"ticketUrl":null,"time":" 9pm"}],"vName":"The Beast"},"type":"Feature"}],"type":"FeatureCollection"}