{"features":[{"geometry":{"coordinates":[144.9679835,-37.8201575],"type":"Point"},"properties":{"events":[{"categories":["Theatre"],"eDate":"2026-07-11","eName":"Eddie Izzard performs Shakespeare’s Hamlet (Matinee Session)","genre":null,"price":"$79.90","supports":[],"ticketUrl":null,"time":" 2pm"},{"categories":["Theatre"],"eDate":"2026-07-11","eName":"Eddie Izzard performs Shakespeare’s Hamlet","genre":null,"price":"$79.90","supports":[],"ticketUrl":null,"time":" 7:30pm"}],"vName":"Arts Centre Melbourne"},"type":"Feature"},{"geometry":{"coordinates":[144.9500257,-37.8032773],"type":"Point"},"properties":{"events":[{"categories":["Free","Theatre","Other \"Art \""],"eDate":"2026-07-11","eName":"a bit thing","genre":null,"price":"Free","supports":[],"ticketUrl":null,"time":"11am"}],"vName":"Arts House"},"type":"Feature"},{"geometry":{"coordinates":[144.9982812,-37.7713296],"type":"Point"},"properties":{"events":[{"categories":["Music"],"eDate":"2026-07-11","eName":"Art Seed Creative Music Series Vol. III","genre":"Jazz","price":"$16.50","supports":[],"ticketUrl":null,"time":" 5pm"},{"categories":["Music"],"eDate":"2026-07-11","eName":"Coalesce","genre":null,"price":"$20.00","supports":[],"ticketUrl":null,"time":" 7pm"}],"vName":"Bar 303"},"type":"Feature"},{"geometry":{"coordinates":[144.978682,-37.7981225],"type":"Point"},"properties":{"events":[{"categories":["Free","Music"],"eDate":"2026-07-11","eName":"Hey Bax","genre":null,"price":"Free","supports":[],"ticketUrl":null,"time":" 9pm"}],"vName":"Baxter's Lot"},"type":"Feature"},{"geometry":{"coordinates":[144.9568039,-37.8111442],"type":"Point"},"properties":{"events":[{"categories":["Music"],"eDate":"2026-07-11","eName":"Relax With Max","genre":"Soul/Funk","price":"$40.00","supports":[],"ticketUrl":null,"time":" 7:30pm"}],"vName":"Bird's Basement"},"type":"Feature"},{"geometry":{"coordinates":[144.9617083,-37.7704205],"type":"Point"},"properties":{"events":[{"categories":["Free","Music"],"eDate":"2026-07-11","eName":"Ragged Company + Blown Cones","genre":null,"price":"Free","supports":[],"ticketUrl":null,"time":" 4:30pm"},{"categories":["Free","Music"],"eDate":"2026-07-11","eName":"Poltergeist 9000","genre":null,"price":"Free","supports":["Stockholm"," Silver Ponies"],"ticketUrl":null,"time":" 8:30pm"}],"vName":"Brunswick Artists' Bar"},"type":"Feature"},{"geometry":{"coordinates":[144.9617083,-37.7704205],"type":"Point"},"properties":{"events":[{"categories":["Music"],"eDate":"2026-07-11","eName":"Lost Ragas","genre":null,"price":"$36.72","supports":[],"ticketUrl":null,"time":" 8:30pm"}],"vName":"Brunswick Ballroom"},"type":"Feature"},{"geometry":{"coordinates":[144.9248037,-37.7656716],"type":"Point"},"properties":{"events":[{"categories":["Other \"Dance \""],"eDate":"2026-07-11","eName":"Flamencollab presents PULSO (Matinee Session)","genre":null,"price":"$65.00","supports":[],"ticketUrl":null,"time":" 3:30pm"},{"categories":["Other \"Dance \""],"eDate":"2026-07-11","eName":"Flamencollab presents PULSO","genre":null,"price":"$65.00","supports":[],"ticketUrl":null,"time":" 7:30pm"}],"vName":"Clocktower Centre"},"type":"Feature"},{"geometry":{"coordinates":[144.9926664,-37.8248893],"type":"Point"},"properties":{"events":[{"categories":["Music"],"eDate":"2026-07-11","eName":"NAIDOC Kick Ons","genre":"Electronic","price":"$15.00 - 35.30","supports":[],"ticketUrl":null,"time":" 7pm"}],"vName":"Corner Hotel"},"type":"Feature"},{"geometry":{"coordinates":[144.9747815,-37.7689698],"type":"Point"},"properties":{"events":[{"categories":["Music"],"eDate":"2026-07-11","eName":"The Golden Age of Sound: Opening Night","genre":null,"price":"$25.00","supports":["Krysalis Big Band"," DJ Mono"],"ticketUrl":null,"time":" 6pm"},{"categories":["Music"],"eDate":"2026-07-11","eName":"The Golden Age of Sound: Opening Night","genre":"Jazz","price":"$25.00","supports":[],"ticketUrl":null,"time":" 6pm"}],"vName":"Cross Street Music Hall"},"type":"Feature"},{"geometry":{"coordinates":[144.9627513,-37.760963],"type":"Point"},"properties":{"events":[{"categories":["Music"],"eDate":"2026-07-11","eName":"The Winfield Road Experiment","genre":"Soul/Funk","price":"Free","supports":[],"ticketUrl":null,"time":" 8pm"}],"vName":"Edinburgh Castle Hotel"},"type":"Feature"},{"geometry":{"coordinates":[144.9777885,-37.8597831],"type":"Point"},"properties":{"events":[{"categories":["Music"],"eDate":"2026-07-11","eName":"Renae Brennan","genre":"Acoustic","price":"Free","supports":["DJ Rodney"," DJ George"," DJ Lyndon"],"ticketUrl":null,"time":" 8pm"}],"vName":"Freddie Wimpoles"},"type":"Feature"},{"geometry":{"coordinates":[144.9787378,-37.7954205],"type":"Point"},"properties":{"events":[{"categories":["Free","Music"],"eDate":"2026-07-11","eName":"Anima Omada","genre":"Electronic","price":"$0.00 - 30.00","supports":["Poli Pearl"," Hauswife"," FAF"," Beej"," Ryan Lawrence"],"ticketUrl":null,"time":" 9pm"}],"vName":"Glamorama"},"type":"Feature"},{"geometry":{"coordinates":[144.9679835,-37.8201575],"type":"Point"},"properties":{"events":[{"categories":["Music"],"eDate":"2026-07-11","eName":"Vera Blue x MSO","genre":null,"price":"$78.00","supports":[],"ticketUrl":null,"time":" 7:30pm"}],"vName":"Hamer Hall (Arts Centre Melbourne)"},"type":"Feature"},{"geometry":{"coordinates":[144.973013,-37.8640582],"type":"Point"},"properties":{"events":[{"categories":["Free","Music"],"eDate":"2026-07-11","eName":"Kylie Vs Robbie: The Ultimate Pop Tribute Show","genre":"Pop","price":"Free","supports":[],"ticketUrl":null,"time":" 7pm"},{"categories":["Music"],"eDate":"2026-07-11","eName":"Beneath The Noise Vol. 2","genre":"Metal","price":"$15.85","supports":["Mailey"," Elyzium Falls"," Devil's Darling"],"ticketUrl":null,"time":" 7:30pm"}],"vName":"Hotel Esplanade (aka The Espy)"},"type":"Feature"},{"geometry":{"coordinates":[145.0008148,-37.8107158],"type":"Point"},"properties":{"events":[{"categories":["Music"],"eDate":"2026-07-11","eName":"Birdland","genre":"Rock","price":"$25.00","supports":["Daezy"],"ticketUrl":null,"time":" 1:30pm"},{"categories":["Music"],"eDate":"2026-07-11","eName":"Birdland + DAEZY","genre":"Rock","price":"$25.00","supports":[],"ticketUrl":null,"time":" 1:30pm"}],"vName":"Leadbeater Hotel"},"type":"Feature"},{"geometry":{"coordinates":[144.9936498,-37.8000264],"type":"Point"},"properties":{"events":[{"categories":["Free","Music"],"eDate":"2026-07-11","eName":"Second Hand News: Tribute to Fleetwood Mac","genre":"Rock","price":"Free","supports":[],"ticketUrl":null,"time":" 9pm"}],"vName":"Lulie Tavern"},"type":"Feature"},{"geometry":{"coordinates":[144.9833121,-37.8062477],"type":"Point"},"properties":{"events":[{"categories":["Music"],"eDate":"2026-07-11","eName":"Toaster","genre":"Electronic","price":"$20.00 - 25.00","supports":[],"ticketUrl":null,"time":"10pm"},{"categories":["Music"],"eDate":"2026-07-11","eName":"e","genre":"Electronic","price":"$17.05","supports":[],"ticketUrl":null,"time":"10pm"}],"vName":"New Guernica"},"type":"Feature"},{"geometry":{"coordinates":[144.998414,-37.771471],"type":"Point"},"properties":{"events":[{"categories":["Music"],"eDate":"2026-07-11","eName":"Wybie (Farewell Show)","genre":null,"price":"$18.40 - 24.00","supports":["Captain Beep Boop"," Moby Beefheart"],"ticketUrl":null,"time":" 8pm"},{"categories":["Music"],"eDate":"2026-07-11","eName":"Wybie (Farewell Show)","genre":null,"price":"$24.00","supports":["Captain Beep Boop"," Moby Beefheart"],"ticketUrl":null,"time":" 8pm"}],"vName":"Northcote Social Club"},"type":"Feature"},{"geometry":{"coordinates":[144.97711,-37.79833],"type":"Point"},"properties":{"events":[{"categories":["Music"],"eDate":"2026-07-11","eName":"Human Fly Magazine Issue #3 Launch","genre":"Rock","price":"$14.30","supports":[],"ticketUrl":null,"time":" 8pm"}],"vName":"Old Bar"},"type":"Feature"},{"geometry":{"coordinates":[145.119855,-38.1449481],"type":"Point"},"properties":{"events":[{"categories":["Music"],"eDate":"2026-07-11","eName":"Jon Stevens","genre":"Rock","price":"Free","supports":[],"ticketUrl":null,"time":" 6:30pm"}],"vName":"Pier Hotel"},"type":"Feature"},{"geometry":{"coordinates":[144.9720579,-37.8121675],"type":"Point"},"properties":{"events":[{"categories":["Comedy","Theatre"],"eDate":"2026-07-11","eName":"The Remix: Live Improv Comedy From A Guest’s True Stories","genre":null,"price":"$24.00","supports":[],"ticketUrl":null,"time":" 8:15pm"}],"vName":"The Improv Conspiracy"},"type":"Feature"},{"geometry":{"coordinates":[144.9708437,-37.7973184],"type":"Point"},"properties":{"events":[{"categories":["Theatre"],"eDate":"2026-07-11","eName":"Gruesome Playground Injuries","genre":null,"price":"$35.96","supports":[],"ticketUrl":null,"time":" 7pm"},{"categories":["Music"],"eDate":"2026-07-11","eName":"G_Tano + Monkey Stick","genre":null,"price":"$20.76","supports":[],"ticketUrl":null,"time":" 7:30pm"}],"vName":"The Motley Bauhaus"},"type":"Feature"},{"geometry":{"coordinates":[144.9794553,-37.7982653],"type":"Point"},"properties":{"events":[{"categories":["Music"],"eDate":"2026-07-11","eName":"Moktar: Live Debut – Soda Bar & High Ground","genre":"Electronic","price":"$39.90","supports":[],"ticketUrl":null,"time":" 9pm"}],"vName":"The Night Cat"},"type":"Feature"},{"geometry":{"coordinates":[144.9790327,-37.7960561],"type":"Point"},"properties":{"events":[{"categories":["Free","Music"],"eDate":"2026-07-11","eName":"High Ground x Punters Club: Pollen Art Club Presents Rinse","genre":null,"price":"Free","supports":[],"ticketUrl":null,"time":"10pm"}],"vName":"The Punters Club"},"type":"Feature"},{"geometry":{"coordinates":[144.9998797,-37.7616512],"type":"Point"},"properties":{"events":[{"categories":["Music"],"eDate":"2026-07-11","eName":"Round the Outside","genre":null,"price":"Free","supports":[],"ticketUrl":null,"time":" 8pm"},{"categories":["Music"],"eDate":"2026-07-11","eName":"Round the Outside","genre":"Country/Folk","price":"Free","supports":[],"ticketUrl":null,"time":" 8pm"}],"vName":"The Thornbury Local"},"type":"Feature"},{"geometry":{"coordinates":[144.9769451,-37.8055776],"type":"Point"},"properties":{"events":[{"categories":["Music"],"eDate":"2026-07-11","eName":"Donni Heat","genre":null,"price":"$15.00","supports":["Internet Romance"," This Space Is Ours"," All Regards"],"ticketUrl":null,"time":" 8pm"}],"vName":"The Workers Club"},"type":"Feature"},{"geometry":{"coordinates":[144.9661635,-37.8176298],"type":"Point"},"properties":{"events":[{"categories":["Music"],"eDate":"2026-07-11","eName":"Inbraza","genre":"Electronic","price":"$38.40","supports":[],"ticketUrl":null,"time":" 9pm"}],"vName":"Wax Music Lounge"},"type":"Feature"}],"type":"FeatureCollection"}