{"features":[{"geometry":{"coordinates":[144.9763781,-37.7983136],"type":"Point"},"properties":{"events":[{"categories":["Music"],"eDate":"2024-05-18","eName":"Friends of Friends","genre":"Punk","price":"$30.60","supports":["Pretty Bleak"," Grass Stains"],"ticketUrl":null,"time":" 8pm"}],"vName":"Bad Decisions Bar"},"type":"Feature"},{"geometry":{"coordinates":[144.9607158,-37.776327],"type":"Point"},"properties":{"events":[{"categories":["Music"],"eDate":"2024-05-18","eName":"Beautiful Buildings","genre":"Rock","price":"$28.05","supports":["Amarillo"," Matt Glass"],"ticketUrl":null,"time":" 1:30pm"},{"categories":["Music"],"eDate":"2024-05-18","eName":"TAPES","genre":"Soul/Funk","price":"$22.95","supports":["DJ Succulent Funk"," The Winfield Road Experiment"],"ticketUrl":null,"time":" 7:30pm"}],"vName":"Bergy Bandroom"},"type":"Feature"},{"geometry":{"coordinates":[144.9617018,-37.7704566],"type":"Point"},"properties":{"events":[{"categories":["Music"],"eDate":"2024-05-18","eName":"Ukulele Death Squad","genre":"Country/Folk","price":"$38.86","supports":["The Belly Savalas"],"ticketUrl":null,"time":" 8:30pm"}],"vName":"Brunswick Ballroom"},"type":"Feature"},{"geometry":{"coordinates":[144.9713425,-37.8128595],"type":"Point"},"properties":{"events":[{"categories":["Free","Music"],"eDate":"2024-05-18","eName":"Soul Central","genre":"Soul/Funk","price":"Free","supports":[],"ticketUrl":null,"time":" 8pm"}],"vName":"Cherry Bar"},"type":"Feature"},{"geometry":{"coordinates":[144.9248037207342,-37.7656716],"type":"Point"},"properties":{"events":[{"categories":["Music","Comedy","Theatre"],"eDate":"2024-05-18","eName":"The Listies: Make Some Noise (Early Session)","genre":"Pop","price":"$30.00","supports":[],"ticketUrl":null,"time":"11am"},{"categories":["Music","Comedy","Theatre"],"eDate":"2024-05-18","eName":"The Listies: Make Some Noise","genre":"Pop","price":"$30.00","supports":[],"ticketUrl":null,"time":" 1pm"}],"vName":"Clocktower Centre"},"type":"Feature"},{"geometry":{"coordinates":[144.9688742,-37.8074223],"type":"Point"},"properties":{"events":[{"categories":["Comedy","Theatre"],"eDate":"2024-05-18","eName":"The Odd Couple","genre":null,"price":"$69.90","supports":["Lucy Durack"," Penny McNamee"],"ticketUrl":null,"time":" 7:30pm"}],"vName":"Comedy Theatre"},"type":"Feature"},{"geometry":{"coordinates":[144.99266639479475,-37.82488935],"type":"Point"},"properties":{"events":[{"categories":["Music"],"eDate":"2024-05-18","eName":"Groove Tunes","genre":"Electronic","price":"$25.00 - 40.00","supports":["Empress"," Mathilde Anne"," Miss Emilia"," MzRizk"],"ticketUrl":null,"time":" 6pm"}],"vName":"Corner Hotel"},"type":"Feature"},{"geometry":{"coordinates":[144.9628440552175,-37.76100605],"type":"Point"},"properties":{"events":[{"categories":["Free","Music"],"eDate":"2024-05-18","eName":"Georgia Ray (Trio)","genre":null,"price":"Free","supports":[],"ticketUrl":null,"time":" 6pm"}],"vName":"Edinburgh Castle Hotel"},"type":"Feature"},{"geometry":{"coordinates":[144.9875917,-37.7963837],"type":"Point"},"properties":{"events":[{"categories":["Free","Music"],"eDate":"2024-05-18","eName":"Cong Josie & The Hell Racers + Ghost Bitch","genre":"Rock","price":"Free","supports":[],"ticketUrl":null,"time":" 8pm"}],"vName":"Gem Bar"},"type":"Feature"},{"geometry":{"coordinates":[144.9679835243618,-37.8201575],"type":"Point"},"properties":{"events":[{"categories":["Free","Theatre"],"eDate":"2024-05-18","eName":"Monster High","genre":null,"price":"Free","supports":[],"ticketUrl":null,"time":"12:30pm"}],"vName":"Hamer Hall (Arts Centre Melbourne)"},"type":"Feature"},{"geometry":{"coordinates":[144.8971518,-37.8054274],"type":"Point"},"properties":{"events":[{"categories":["Free","Music"],"eDate":"2024-05-18","eName":"Sada Abe","genre":null,"price":"Free","supports":["Leonardo’s Robot"," Dole Cheque"," Ladyfern"],"ticketUrl":null,"time":" 7:30pm"}],"vName":"Mamma Chen's"},"type":"Feature"},{"geometry":{"coordinates":[144.96741062735794,-37.82454855],"type":"Point"},"properties":{"events":[{"categories":["Music"],"eDate":"2024-05-18","eName":"Charles Maimarosia","genre":"Global","price":"$37.00","supports":[],"ticketUrl":null,"time":" 7pm"}],"vName":"Melbourne Recital Centre"},"type":"Feature"},{"geometry":{"coordinates":[144.998414,-37.771471],"type":"Point"},"properties":{"events":[{"categories":["Music"],"eDate":"2024-05-18","eName":"Kyle Lionhart","genre":null,"price":"$39.99","supports":["Rod Coote"," Daisy Kilbourne"],"ticketUrl":null,"time":" 8pm"}],"vName":"Northcote Social Club"},"type":"Feature"},{"geometry":{"coordinates":[144.97711,-37.79833],"type":"Point"},"properties":{"events":[{"categories":["Music"],"eDate":"2024-05-18","eName":"The Misanthropes + Bulls","genre":"Rock","price":"$11.25","supports":[],"ticketUrl":null,"time":" 3pm"},{"categories":["Music"],"eDate":"2024-05-18","eName":"Drop Dead","genre":"Punk","price":"$15.00","supports":[],"ticketUrl":null,"time":" 8pm"}],"vName":"Old Bar"},"type":"Feature"},{"geometry":{"coordinates":[144.9605705,-37.8132486],"type":"Point"},"properties":{"events":[{"categories":["Music"],"eDate":"2024-05-18","eName":"Hot Club Swing","genre":"Jazz","price":"$45.00","supports":[],"ticketUrl":null,"time":" 5:30pm"},{"categories":["Music"],"eDate":"2024-05-18","eName":"Andrew Swann sings The Ray Charles Songbook","genre":"Blues","price":"$45.00","supports":[],"ticketUrl":null,"time":" 9pm"}],"vName":"Paris Cat Jazz Club"},"type":"Feature"},{"geometry":{"coordinates":[144.993413,-37.8506652],"type":"Point"},"properties":{"events":[{"categories":["Music"],"eDate":"2024-05-18","eName":"Wobbygong","genre":"Rock","price":"$11.22","supports":["The Ians"," Sweatshop"],"ticketUrl":null,"time":" 7pm"},{"categories":["Music"],"eDate":"2024-05-18","eName":"Wobbygong","genre":"Punk","price":"$15.00","supports":["The Ians"," Sweatshop"],"ticketUrl":null,"time":" 7pm"}],"vName":"Revolver Upstairs"},"type":"Feature"},{"geometry":{"coordinates":[144.9631913,-37.7617818],"type":"Point"},"properties":{"events":[{"categories":["Free","Music"],"eDate":"2024-05-18","eName":"Kōyō Quartet + FiveFour Quartet","genre":"Jazz","price":"Free","supports":[],"ticketUrl":null,"time":" 8pm"}],"vName":"Ringo Barr"},"type":"Feature"},{"geometry":{"coordinates":[144.965405,-37.8117457],"type":"Point"},"properties":{"events":[{"categories":["Free"],"eDate":"2024-05-18","eName":"Mrs Hibiscus","genre":"Electronic","price":"Free","supports":[],"ticketUrl":null,"time":" 5pm"}],"vName":"Section 8"},"type":"Feature"},{"geometry":{"coordinates":[144.9657057,-37.8061581],"type":"Point"},"properties":{"events":[{"categories":["Music"],"eDate":"2024-05-18","eName":"Vilify","genre":"Metal","price":"$22.85","supports":["St.Sinner"," Benchcup"," Misery Guts"],"ticketUrl":null,"time":" 8pm"}],"vName":"The Curtin"},"type":"Feature"},{"geometry":{"coordinates":[144.9585654,-37.8059962],"type":"Point"},"properties":{"events":[{"categories":["Music"],"eDate":"2024-05-18","eName":"Nebulam","genre":"Metal","price":"$11.25","supports":["False Dichotomy"," Tarnished"],"ticketUrl":null,"time":" 3pm"}],"vName":"The Last Chance Rock & Roll Bar"},"type":"Feature"},{"geometry":{"coordinates":[144.9622,-37.7679857],"type":"Point"},"properties":{"events":[{"categories":["Free","Music"],"eDate":"2024-05-18","eName":"Lucy's Disorder","genre":"Rock","price":"Free","supports":[],"ticketUrl":null,"time":" 9pm"}],"vName":"The Penny Black"},"type":"Feature"},{"geometry":{"coordinates":[144.9983987,-37.7729204],"type":"Point"},"properties":{"events":[{"categories":["Music"],"eDate":"2024-05-18","eName":"Peter Freebairn presents Silhouettes & Cigarettes","genre":"Rock","price":"$20.40","supports":["Victor Stranges"],"ticketUrl":null,"time":" 3pm"}],"vName":"Wesley Anne"},"type":"Feature"}],"type":"FeatureCollection"}