{"features":[{"geometry":{"coordinates":[144.9679369,-37.8120109],"type":"Point"},"properties":{"events":[{"categories":["Music","Other \"Trivia \""],"eDate":"2025-06-14","eName":"Bingo Loco","genre":"Electronic","price":"$47.94 - 50.49","supports":[],"ticketUrl":null,"time":" 6pm"}],"vName":"170 Russell"},"type":"Feature"},{"geometry":{"coordinates":[144.968386,-37.81843],"type":"Point"},"properties":{"events":[{"categories":["Music","Other \"Art \""],"eDate":"2025-06-14","eName":"Forest Swords (Live)","genre":"Experimental","price":"$32.00 - 50.00","supports":[],"ticketUrl":null,"time":" 7:30pm"}],"vName":"ACMI"},"type":"Feature"},{"geometry":{"coordinates":[144.9679835,-37.8201575],"type":"Point"},"properties":{"events":[{"categories":["Comedy","Other \"Cabaret\""],"eDate":"2025-06-14","eName":"Heartbreak Hotel","genre":null,"price":"$44.00 - 49.00","supports":[],"ticketUrl":null,"time":" 8:30pm"}],"vName":"Arts Centre Melbourne"},"type":"Feature"},{"geometry":{"coordinates":[144.9982812,-37.7713296],"type":"Point"},"properties":{"events":[{"categories":["Music"],"eDate":"2025-06-14","eName":"Pod: Mal Webb & Kylie Morrigan","genre":"Country/Folk","price":"$20.00","supports":[],"ticketUrl":null,"time":" 3:03pm"},{"categories":["Free","Music"],"eDate":"2025-06-14","eName":"HyperGlobal Hifi","genre":"Electronic","price":"Free","supports":[],"ticketUrl":null,"time":" 8pm"}],"vName":"Bar 303"},"type":"Feature"},{"geometry":{"coordinates":[144.978682,-37.7981225],"type":"Point"},"properties":{"events":[{"categories":["Free","Music"],"eDate":"2025-06-14","eName":"Harrisen Hughes","genre":null,"price":"Free","supports":[],"ticketUrl":null,"time":" 9pm"},{"categories":["Free","Music"],"eDate":"2025-06-14","eName":"DJ Damien Mack","genre":null,"price":"Free","supports":[],"ticketUrl":null,"time":"10pm"}],"vName":"Baxter's Lot"},"type":"Feature"},{"geometry":{"coordinates":[144.609835,-38.1379811],"type":"Point"},"properties":{"events":[{"categories":["Music"],"eDate":"2025-06-14","eName":"Aussie DC: The AC/DC Show","genre":"Rock","price":"$37.64","supports":[],"ticketUrl":null,"time":" 6pm"}],"vName":"Bellarine Estate"},"type":"Feature"},{"geometry":{"coordinates":[144.9891167,-37.7996488],"type":"Point"},"properties":{"events":[{"categories":["Music"],"eDate":"2025-06-14","eName":"Paranormal Fest","genre":"Punk","price":"$28.05","supports":[],"ticketUrl":null,"time":" 8pm"}],"vName":"Bendigo Hotel"},"type":"Feature"},{"geometry":{"coordinates":[143.7858966,-38.3366915],"type":"Point"},"properties":{"events":[{"categories":["Music"],"eDate":"2025-06-14","eName":"Mick Harvey & Amanda Acevedo","genre":"Indie","price":"$59.90","supports":[],"ticketUrl":null,"time":" 2:30pm"}],"vName":"Birregurra Mechanics Hall"},"type":"Feature"},{"geometry":{"coordinates":[145.0004166,-37.7612582],"type":"Point"},"properties":{"events":[{"categories":["Music"],"eDate":"2025-06-14","eName":"Twinkle Digitz","genre":null,"price":"$15.00","supports":["Keyo Roses Flying Circus"," Routines"],"ticketUrl":null,"time":" 8pm"},{"categories":["Music"],"eDate":"2025-06-14","eName":"Twinkle Digitz","genre":"Electronic","price":"$15.00","supports":["Routines"," Keyo Roses Flying Circus"],"ticketUrl":null,"time":" 8pm"}],"vName":"Cactus Room"},"type":"Feature"},{"geometry":{"coordinates":[144.9951224,-37.8476521],"type":"Point"},"properties":{"events":[{"categories":["Music","Comedy","Theatre"],"eDate":"2025-06-14","eName":"Promise & Promiscuity","genre":"Pop","price":"$39.50","supports":[],"ticketUrl":null,"time":" 7pm"}],"vName":"Chapel Off Chapel"},"type":"Feature"},{"geometry":{"coordinates":[144.9713425,-37.8128595],"type":"Point"},"properties":{"events":[{"categories":["Music"],"eDate":"2025-06-14","eName":"The Ashley Naylor Spaceship (Trio) play Hendrix","genre":"Rock","price":"$27.00","supports":[],"ticketUrl":null,"time":" 8pm"},{"categories":["Free","Music"],"eDate":"2025-06-14","eName":"Death Disco","genre":"Electronic","price":"Free","supports":[],"ticketUrl":null,"time":"11pm"}],"vName":"Cherry Bar"},"type":"Feature"},{"geometry":{"coordinates":[144.9693768,-37.8164414],"type":"Point"},"properties":{"events":[{"categories":["Music"],"eDate":"2025-06-14","eName":"Short Stack","genre":"Punk","price":"$74.90","supports":[],"ticketUrl":null,"time":" 7pm"}],"vName":"Forum Melbourne"},"type":"Feature"},{"geometry":{"coordinates":[144.973013,-37.8640582],"type":"Point"},"properties":{"events":[{"categories":["Music"],"eDate":"2025-06-14","eName":"Where’s Jimmy","genre":"Punk","price":"$22.95","supports":["Wombat"," Vixen Scream"],"ticketUrl":null,"time":" 7pm"}],"vName":"Hotel Esplanade (aka The Espy)"},"type":"Feature"},{"geometry":{"coordinates":[144.8975289,-37.8022392],"type":"Point"},"properties":{"events":[{"categories":["Music"],"eDate":"2025-06-14","eName":"The Bronze","genre":null,"price":"$15.00 - 20.00","supports":["Ze Wisenheimer"," Grevillea Hedge"],"ticketUrl":null,"time":" 7:45pm"}],"vName":"Mamma Chen's"},"type":"Feature"},{"geometry":{"coordinates":[144.9790251,-37.8675008],"type":"Point"},"properties":{"events":[{"categories":["Music"],"eDate":"2025-06-14","eName":"Western Winter Warmer: Double Headliner","genre":"Country/Folk","price":"$29.00 - 50.00","supports":[],"ticketUrl":null,"time":" 7pm"}],"vName":"Memo Music Hall"},"type":"Feature"},{"geometry":{"coordinates":[144.96084,-37.813514],"type":"Point"},"properties":{"events":[{"categories":["Music"],"eDate":"2025-06-14","eName":"Not So Big Band: The Incredibles","genre":"Jazz","price":"$45.00","supports":[],"ticketUrl":null,"time":" 6pm"},{"categories":["Music"],"eDate":"2025-06-14","eName":"Nardia Presents: The Women Of Jazz & Soul featuring Iseula","genre":"Jazz","price":"$45.00","supports":[],"ticketUrl":null,"time":" 6:30pm"},{"categories":["Music"],"eDate":"2025-06-14","eName":"Cannonball Featuring Emma Gilmartin","genre":"Jazz","price":"$45.00","supports":[],"ticketUrl":null,"time":" 9pm"},{"categories":["Music"],"eDate":"2025-06-14","eName":"The Royal Motown Review with Nardia & Paul Slattery","genre":"Jazz","price":"$45.00","supports":[],"ticketUrl":null,"time":" 9:30pm"}],"vName":"Paris Cat Jazz Club"},"type":"Feature"},{"geometry":{"coordinates":[144.9615882,-37.7711432],"type":"Point"},"properties":{"events":[{"categories":["Free","Music"],"eDate":"2025-06-14","eName":"Anatreptix","genre":"Global","price":"Free","supports":[],"ticketUrl":null,"time":" 2pm"},{"categories":["Music"],"eDate":"2025-06-14","eName":"Beacs","genre":"Country/Folk","price":"$16.45","supports":["Hannie Day"," Joel Keith"],"ticketUrl":null,"time":" 7:30pm"}],"vName":"Retreat Hotel"},"type":"Feature"},{"geometry":{"coordinates":[144.993413,-37.8506652],"type":"Point"},"properties":{"events":[{"categories":["Music"],"eDate":"2025-06-14","eName":"The Dahlias","genre":"Soul/Funk","price":"$16.32","supports":["Social Afterparty"," Noturns"],"ticketUrl":null,"time":" 7pm"}],"vName":"Revolver Upstairs"},"type":"Feature"},{"geometry":{"coordinates":[145.0013923,-37.7559265],"type":"Point"},"properties":{"events":[{"categories":["Music"],"eDate":"2025-06-14","eName":"Belly Savalas","genre":"Jazz","price":"$23.45","supports":[],"ticketUrl":null,"time":" 7:30pm"}],"vName":"Shotkickers"},"type":"Feature"},{"geometry":{"coordinates":[144.9751557,-37.8057885],"type":"Point"},"properties":{"events":[{"categories":["Music"],"eDate":"2025-06-14","eName":"Rat Loftus","genre":null,"price":"$10.00","supports":["Cup"," The Recycles"],"ticketUrl":null,"time":" 7:30pm"}],"vName":"The Catfish"},"type":"Feature"},{"geometry":{"coordinates":[144.32141,-37.38866],"type":"Point"},"properties":{"events":[{"categories":["Free","Music"],"eDate":"2025-06-14","eName":"Tom Woodward","genre":"Country/Folk","price":"Free","supports":[],"ticketUrl":null,"time":" 3pm"}],"vName":"The Cosmopolitan Hotel"},"type":"Feature"},{"geometry":{"coordinates":[144.9995955,-37.762377],"type":"Point"},"properties":{"events":[{"categories":["Music"],"eDate":"2025-06-14","eName":"MonoNeon","genre":"Jazz","price":"$59.90","supports":[],"ticketUrl":null,"time":" 8pm"}],"vName":"The Croxton"},"type":"Feature"},{"geometry":{"coordinates":[144.9586498,-37.766903],"type":"Point"},"properties":{"events":[{"categories":["Music","Other \"Art \""],"eDate":"2025-06-14","eName":"Mina Yu","genre":"Jazz","price":"$35.00 - 40.00","supports":[],"ticketUrl":null,"time":" 8pm"}],"vName":"The Jazzlab"},"type":"Feature"},{"geometry":{"coordinates":[144.9708437,-37.7973184],"type":"Point"},"properties":{"events":[{"categories":["Comedy","Theatre"],"eDate":"2025-06-14","eName":"The Big HOO-HAA!","genre":null,"price":"$32.00","supports":[],"ticketUrl":null,"time":" 8:30pm"}],"vName":"The Motley Bauhaus"},"type":"Feature"},{"geometry":{"coordinates":[144.8829759,-37.8442106],"type":"Point"},"properties":{"events":[{"categories":["Music","Theatre"],"eDate":"2025-06-14","eName":"Marcus Whale: Ecstasy","genre":"Experimental","price":"$49.00","supports":[],"ticketUrl":null,"time":" 5pm"}],"vName":"The Substation"},"type":"Feature"},{"geometry":{"coordinates":[144.9651425,-37.8119429],"type":"Point"},"properties":{"events":[{"categories":["Free","Music"],"eDate":"2025-06-14","eName":"Little Bands: Cease & Desist","genre":"Rock","price":"Free","supports":[],"ticketUrl":null,"time":" 7pm"}],"vName":"The Toff In Town"},"type":"Feature"},{"geometry":{"coordinates":[144.9870814,-37.799406],"type":"Point"},"properties":{"events":[{"categories":["Music"],"eDate":"2025-06-14","eName":"Clap Hands + BB Sabina","genre":"Indie","price":"Free","supports":[],"ticketUrl":null,"time":" 3pm"},{"categories":["Music"],"eDate":"2025-06-14","eName":"Karate Boogaloo","genre":"Soul/Funk","price":"$34.20","supports":["Best Foot Forward"," DJ Miss Goldie"],"ticketUrl":null,"time":" 8pm"},{"categories":["Music"],"eDate":"2025-06-14","eName":"The Antics","genre":"Rock","price":"$16.35","supports":["Checkpoint"," Long Hours"],"ticketUrl":null,"time":" 8pm"}],"vName":"The Tote Hotel"},"type":"Feature"},{"geometry":{"coordinates":[144.2195588,-37.0663699],"type":"Point"},"properties":{"events":[{"categories":["Music"],"eDate":"2025-06-14","eName":"Clare Bowditch","genre":"Indie","price":"$62.90","supports":[],"ticketUrl":null,"time":" 7pm"}],"vName":"Theatre Royal Castlemaine"},"type":"Feature"},{"geometry":{"coordinates":[144.9661635,-37.8176298],"type":"Point"},"properties":{"events":[{"categories":["Free","Music"],"eDate":"2025-06-14","eName":"Little Bands ‘DJ Quartets’: Liquid Architecture","genre":"Electronic","price":"Free","supports":[],"ticketUrl":null,"time":" 8:30pm"}],"vName":"Wax Music Lounge"},"type":"Feature"},{"geometry":{"coordinates":[144.9984324,-37.7729134],"type":"Point"},"properties":{"events":[{"categories":["Music"],"eDate":"2025-06-14","eName":"Michael Griffen Trio","genre":"Jazz","price":"Free","supports":[],"ticketUrl":null,"time":" 6pm"},{"categories":["Music"],"eDate":"2025-06-14","eName":"Newport","genre":"Indie","price":"Free","supports":[],"ticketUrl":null,"time":" 8pm"}],"vName":"Wesley Anne"},"type":"Feature"}],"type":"FeatureCollection"}