{"features":[{"geometry":{"coordinates":[144.9926664,-37.8248893],"type":"Point"},"properties":{"events":[{"categories":["Music"],"eDate":"2026-01-16","eName":"The True Batushka","genre":"Metal","price":"$74.10 - 84.30","supports":["Germ"],"ticketUrl":null,"time":" 8pm"}],"vName":"Corner Hotel"},"type":"Feature"},{"geometry":{"coordinates":[144.9627513,-37.760963],"type":"Point"},"properties":{"events":[{"categories":["Music","Free"],"eDate":"2026-01-16","eName":"Tim Scanlan & Mana Okubo","genre":null,"price":"Free","supports":[],"ticketUrl":null,"time":" 8pm"}],"vName":"Edinburgh Castle Hotel"},"type":"Feature"},{"geometry":{"coordinates":[144.9632494,-37.8090135],"type":"Point"},"properties":{"events":[{"categories":["Music"],"eDate":"2026-01-16","eName":"Racquet Club: Kush Jones","genre":"Electronic","price":"$35.00","supports":["Darcy Justice"," Pjenne"," One Eight"," DJ Chrysalis"," Butterfly 69"," Hugo Incognito"],"ticketUrl":null,"time":" 9pm"}],"vName":"Miscellania"},"type":"Feature"},{"geometry":{"coordinates":[144.9634643,-37.7581838],"type":"Point"},"properties":{"events":[{"categories":["Music"],"eDate":"2026-01-16","eName":"Off Axis Event Launch Party","genre":"Electronic","price":"$15.00 - 30.00","supports":[],"ticketUrl":null,"time":"10pm"}],"vName":"My Aeon"},"type":"Feature"},{"geometry":{"coordinates":[144.998414,-37.771471],"type":"Point"},"properties":{"events":[{"categories":["Music"],"eDate":"2026-01-16","eName":"Goose Bay","genre":null,"price":"$13.70 - 17.75","supports":["No Turns"," The Foams"],"ticketUrl":null,"time":" 8pm"}],"vName":"Northcote Social Club"},"type":"Feature"},{"geometry":{"coordinates":[144.9617907,-37.7620474],"type":"Point"},"properties":{"events":[{"categories":["Other \"Spoken Word, Poetry \"","Music"],"eDate":"2026-01-16","eName":"Dear Camilla","genre":"Classical","price":"$30.00","supports":[],"ticketUrl":null,"time":" 8pm"}],"vName":"Tempo Rubato, Brunswick"},"type":"Feature"},{"geometry":{"coordinates":[144.9651425,-37.8119429],"type":"Point"},"properties":{"events":[{"categories":["Music"],"eDate":"2026-01-16","eName":"Downbeat","genre":"Electronic","price":"Free","supports":[],"ticketUrl":null,"time":"11pm"}],"vName":"The Toff In Town"},"type":"Feature"},{"geometry":{"coordinates":[144.9984324,-37.7729134],"type":"Point"},"properties":{"events":[{"categories":["Music"],"eDate":"2026-01-16","eName":"Benjamin Attiche Trio","genre":"Jazz","price":"Free","supports":[],"ticketUrl":null,"time":" 6pm"}],"vName":"Wesley Anne"},"type":"Feature"}],"type":"FeatureCollection"}