{"features":[{"geometry":{"coordinates":[144.978425,-37.79773],"type":"Point"},"properties":{"events":[{"categories":["Music"],"eDate":"2024-01-26","eName":"Trash & The Treasures","genre":null,"price":"$15.00","supports":["The Ians"," The Kick Heavy"],"ticketUrl":null,"time":" 6pm"}],"vName":"Bar Open"},"type":"Feature"},{"geometry":{"coordinates":[144.978682,-37.7981225],"type":"Point"},"properties":{"events":[{"categories":["Free","Music"],"eDate":"2024-01-26","eName":"Summer Lovin'","genre":null,"price":"Free","supports":[],"ticketUrl":null,"time":"12pm"}],"vName":"Baxter's Lot"},"type":"Feature"},{"geometry":{"coordinates":[144.98911674151407,-37.79964875],"type":"Point"},"properties":{"events":[{"categories":["Music"],"eDate":"2024-01-26","eName":"Boot Sequence","genre":"Electronic","price":"$27.78","supports":[],"ticketUrl":null,"time":" 8pm"}],"vName":"Bendigo Hotel"},"type":"Feature"},{"geometry":{"coordinates":[144.96947,-37.816565],"type":"Point"},"properties":{"events":[{"categories":["Music"],"eDate":"2024-01-26","eName":"Blackstreet + Montell Jordan","genre":"Hip Hop","price":"$129.90","supports":[],"ticketUrl":null,"time":" 7:30pm"}],"vName":"Forum Melbourne"},"type":"Feature"},{"geometry":{"coordinates":[144.8971518,-37.8054274],"type":"Point"},"properties":{"events":[{"categories":["Music"],"eDate":"2024-01-26","eName":"Ekranoplans + Vonnyguts","genre":null,"price":"$15.00","supports":[],"ticketUrl":null,"time":" 8pm"}],"vName":"Mamma Chen's"},"type":"Feature"},{"geometry":{"coordinates":[145.3553553,-37.9078552],"type":"Point"},"properties":{"events":[{"categories":["Other \"Food & Drink\""],"eDate":"2024-01-26","eName":"Long Weekends at Micawber Tavern","genre":null,"price":"Free","supports":[],"ticketUrl":null,"time":"12pm"},{"categories":["Free","Music"],"eDate":"2024-01-26","eName":"Henry Ballard","genre":null,"price":"Free","supports":[],"ticketUrl":null,"time":" 7pm"}],"vName":"Micawber Tavern"},"type":"Feature"},{"geometry":{"coordinates":[144.96892412239615,-37.82266345],"type":"Point"},"properties":{"events":[{"categories":["Free","Music"],"eDate":"2024-01-26","eName":"NGV Triennial: Kgomotso (DJ Set)","genre":null,"price":"Free","supports":[],"ticketUrl":null,"time":" 6pm"},{"categories":["Free","Music"],"eDate":"2024-01-26","eName":"NGV Triennial: Alchemy Consort - It Lights the Whole Sky","genre":null,"price":"Free","supports":[],"ticketUrl":null,"time":" 7:15pm"},{"categories":["Free","Music"],"eDate":"2024-01-26","eName":"NGV Triennial: D. Tyrone (DJ Set)","genre":"Electronic","price":"Free","supports":[],"ticketUrl":null,"time":" 9pm"}],"vName":"NGV - National Gallery of Victoria"},"type":"Feature"},{"geometry":{"coordinates":[144.9988348,-37.8525949],"type":"Point"},"properties":{"events":[{"categories":["Music"],"eDate":"2024-01-26","eName":"Luuk Van Dijk","genre":"Electronic","price":"Free","supports":[],"ticketUrl":null,"time":" 9pm"}],"vName":"OneSixOne"},"type":"Feature"},{"geometry":{"coordinates":[144.9981771,-37.7742773],"type":"Point"},"properties":{"events":[{"categories":["Free","Music"],"eDate":"2024-01-26","eName":"Ania Reynolds: Synthotronica Dance Party","genre":"Jazz","price":"Free","supports":[],"ticketUrl":null,"time":" 9pm"}],"vName":"Open Studio"},"type":"Feature"},{"geometry":{"coordinates":[144.9631913,-37.7617818],"type":"Point"},"properties":{"events":[{"categories":["Music"],"eDate":"2024-01-26","eName":"Heath Robertson + The Ivy Walkers","genre":"Rock","price":"$15.00","supports":[],"ticketUrl":null,"time":" 8pm"},{"categories":["Free","Music"],"eDate":"2024-01-26","eName":"Golden Turtle + Social Hijack","genre":"Jazz","price":"Free","supports":[],"ticketUrl":null,"time":" 8pm"},{"categories":["Free","Music"],"eDate":"2024-01-26","eName":"Golden Turtle","genre":"Rock","price":"Free","supports":["Social Hijack"],"ticketUrl":null,"time":" 8:30pm"}],"vName":"Ringo Barr"},"type":"Feature"},{"geometry":{"coordinates":[144.9555612,-37.8066759],"type":"Point"},"properties":{"events":[{"categories":["Music"],"eDate":"2024-01-26","eName":"Traditional Irish Music Session","genre":"Country/Folk","price":"Free","supports":[],"ticketUrl":null,"time":" 6pm"}],"vName":"The Drunken Poet"},"type":"Feature"},{"geometry":{"coordinates":[144.9618426,-37.8125531],"type":"Point"},"properties":{"events":[{"categories":["Free","Music","Other \"Food & Drink\""],"eDate":"2024-01-26","eName":"Afrocan Days","genre":null,"price":"Free","supports":[],"ticketUrl":null,"time":" 2pm"}],"vName":"Whitehart Bar"},"type":"Feature"}],"type":"FeatureCollection"}