[{"geo":{"lat":-37.8120109,"lon":144.9679369},"venue":{"address":"170 Russell St\r\nMelbourne VIC 3000","categories":[{"tag":"Club"},{"tag":"LiveMusic"}],"city":"Melbourne, VIC","name":"170 Russell","url":"https://beat.com.au/directory/170-russell/"}},{"geo":{"lat":-37.9427036,"lon":145.0688006},"venue":{"address":"4 Joyner St\r\nMoorabbin VIC 3189","categories":[{"tag":"LiveMusic"},{"tag":"Brewery"}],"city":"Moorabbin, VIC","name":"2 Brothers Brewery","url":"https://beat.com.au/directory/2-brothers-brewery/"}},{"geo":{"lat":-37.7691418,"lon":144.9982614},"venue":{"address":"2 Arthurton Rd\r\nNorthcote VIC 3070","categories":[{"tag":"Bar"},{"tag":"Club"}],"city":"Northcote, VIC","name":"24 Moons","url":"https://beat.com.au/directory/24-moons/"}},{"geo":{"lat":-37.7688516,"lon":144.9618215},"venue":{"address":"303 Sydney Rd\r\nBrunswick VIC 3056","categories":[{"tag":"Bar"},{"tag":"Club"},{"tag":"EventVenue"},{"tag":"LiveMusic"}],"city":"Brunswick, VIC","name":"303 Sydney Road","url":"https://beat.com.au/directory/303-sydney-road/"}},{"geo":{"lat":-37.8203757,"lon":144.9568048},"venue":{"address":"524 Flinders St\r\nMelbourne VIC 3000","categories":[{"tag":"EventVenue"}],"city":"Melbourne, VIC","name":"524 Flinders","url":"https://beat.com.au/directory/524-flinders/"}},{"geo":{"lat":-37.7967026,"lon":144.9052464},"venue":{"address":"8 Lynch Street\r\nFootscray VIC 3011","categories":[{"tag":"EventVenue"},{"tag":"LiveMusic"}],"city":"Footscray, VIC","name":"56K Records","url":"https://beat.com.au/directory/56k-records/"}},{"geo":{"lat":-37.7854317,"lon":144.980757},"venue":{"address":"75 Reid St\r\nFitzroy North VIC 3068","categories":[{"tag":"EventVenue"}],"city":"Fitzroy North, VIC","name":"75 Reid St","url":"https://beat.com.au/directory/75-reid-st/"}},{"geo":{"lat":-37.7854317,"lon":144.980757},"venue":{"address":"75 Reid St\r\nFitzroy North VIC 3068","categories":[{"tag":"EventVenue"}],"city":"Fitzroy North, VIC","name":"75 Reid Street","url":"https://beat.com.au/directory/75-reid-street/"}},{"geo":{"lat":-37.8243566,"lon":144.9871308},"venue":{"address":"Olympic Blvd\r\nMelbourne VIC 3000","categories":[{"tag":"EventVenue"},{"tag":"LiveMusic"}],"city":"Melbourne, VIC","name":"AAMI Park","url":"https://beat.com.au/directory/aami-park/"}},{"geo":{"lat":-37.8035366,"lon":145.0049159},"venue":{"address":"1 St Heliers St\r\nAbbotsford VIC 3067","categories":[{"contents":"","tag":"OtherVenue"}],"city":"Abbotsford, VIC","name":"Abbotsford Convent","url":"https://beat.com.au/directory/abbotsford-convent/"}},{"geo":{"lat":-37.81843,"lon":144.968386},"venue":{"address":"Federation Square, Flinders St\r\nMelbourne VIC 3000","categories":[{"tag":"EventVenue"},{"tag":"TheatreVenue"}],"city":"Melbourne, VIC","name":"ACMI","url":"https://beat.com.au/directory/acmi/"}},{"geo":{"lat":-37.8346119,"lon":144.9630361},"venue":{"address":"206 Park Street\r\nSouth Melbourne VIC 3205","categories":[{"tag":"LiveMusic"},{"contents":"Record Store","tag":"OtherVenue"}],"city":"South Melbourne, VIC","name":"Acoustic Centre","url":"https://beat.com.au/directory/acoustic-centre/"}},{"geo":{"lat":-37.8064779,"lon":144.9829743},"venue":{"address":"103-105 Smith St\r\nFitzroy VIC 3065","categories":[{"tag":"Bar"},{"tag":"Pub"}],"city":"Fitzroy, VIC","name":"ADAM at Sircuit","url":"https://beat.com.au/directory/adam-at-sircuit/"}},{"geo":{"lat":-37.7681038,"lon":144.9555377},"venue":{"address":"307 Albert St\r\nBrunswick VIC 3056","categories":[{"contents":"","tag":"OtherVenue"}],"city":"Brunswick, VIC","name":"Albert Street Gallery","url":"https://beat.com.au/directory/albert-street-gallery/"}},{"geo":{"lat":-37.7783326,"lon":144.9706095},"venue":{"address":"396 Lygon St, Brunswick East VIC 3057","categories":[{"tag":"Brewery"}],"city":null,"name":"Alchemy Brewing","url":"https://beat.com.au/directory/alchemy-brewing/"}},{"geo":{"lat":-37.859552,"lon":144.978283},"venue":{"address":"Level 1, 135 Fitzroy Street\r\nSt Kilda VIC 3182","categories":[{"tag":"TheatreVenue"}],"city":"St Kilda, VIC","name":"Alex Theatre","url":"https://beat.com.au/directory/alex-theatre/"}},{"geo":{"lat":-37.91372355,"lon":145.13337431967784},"venue":{"address":"Monash University (Clayton Campus)\r\n48 Exhibition Walk\r\nClayton VIC 3169","categories":[{"tag":"TheatreVenue"}],"city":"Clayton, VIC","name":"Alexander Theatre","url":"https://beat.com.au/directory/alexander-theatre/"}},{"geo":{"lat":-37.815815,"lon":144.967378},"venue":{"address":"Level 1/205 Collins St\r\nMelbourne VIC 3000","categories":[{"contents":"","tag":"OtherVenue"}],"city":"Melbourne, VIC","name":"Allegro Restaurant","url":"https://beat.com.au/directory/allegro-restaurant/"}},{"geo":{"lat":-37.86169915,"lon":144.97878989784468},"venue":{"address":"51 Grey St\r\nSt Kilda VIC 3182","categories":[{"tag":"EventVenue"}],"city":"St Kilda, VIC","name":"Alliance Française de Melbourne","url":"https://beat.com.au/directory/alliance-francaise-de-melbourne/"}},{"geo":{"lat":-37.8193692,"lon":144.9571797},"venue":{"address":"l2/195 Flinders Ln\r\nMelbourne VIC 3000","categories":[{"tag":"EventVenue"}],"city":"Melbourne, VIC","name":"ALPHA60 Chapter House","url":"https://beat.com.au/directory/alpha60-chapter-house/"}},{"geo":{"lat":-37.7448191,"lon":145.0028681},"venue":{"address":"213a High St\r\nPreston VIC 3072","categories":[{"tag":"EventVenue"}],"city":"Preston, VIC","name":"APAX Warehouse","url":"https://beat.com.au/directory/apax-warehouse/"}},{"geo":{"lat":-38.5484061,"lon":145.5655207},"venue":{"address":"89-91 Archies Creek Rd\r\nArchies Creek VIC 3995","categories":[{"tag":"Bar"}],"city":"Archies Creek, VIC","name":"Archies Creek Hotel","url":"https://beat.com.au/directory/archies-creek-hotel/"}},{"geo":{"lat":-37.9467389,"lon":145.0783823},"venue":{"address":"8 Arco Lane\r\nHeatherton VIC 3202","categories":[{"tag":"Bar"},{"tag":"EventVenue"},{"tag":"LiveMusic"},{"tag":"Pub"}],"city":"Heatherton, VIC","name":"Arcobar","url":"https://beat.com.au/directory/arcobar/"}},{"geo":{"lat":-37.79909345,"lon":145.28121857723278},"venue":{"address":"212 Mt Dandenong Road\r\nCroydon VIC 3136","categories":[{"tag":"EventVenue"}],"city":"Croydon, VIC","name":"Ariette's Concert Lounge","url":"https://beat.com.au/directory/ariettes-concert-lounge/"}},{"geo":{"lat":-37.8157569,"lon":144.9640901},"venue":{"address":"92/94 Elizabeth St\r\nMelbourne VIC 3000","categories":[{"contents":"","tag":"OtherVenue"}],"city":"Melbourne, VIC","name":"Art Masterclass","url":"https://beat.com.au/directory/art-masterclass/"}},{"geo":{"lat":-37.8201575,"lon":144.9679835243618},"venue":{"address":"100 St Kilda Rd\r\nMelbourne VIC 3004","categories":[{"tag":"LiveMusic"},{"tag":"TheatreVenue"}],"city":"Melbourne, VIC","name":"Arts Centre Melbourne","url":"https://beat.com.au/directory/arts-centre-melbourne/"}},{"geo":{"lat":-37.8032773,"lon":144.9500257},"venue":{"address":"521 Queensberry St\r\nNorth Melbourne VIC 3051","categories":[{"tag":"TheatreVenue"}],"city":"North Melbourne, VIC","name":"Arts House","url":"https://beat.com.au/directory/arts-house/"}},{"geo":{"lat":-37.7730441,"lon":144.9268536},"venue":{"address":"447 Mt Alexander Rd\r\nAscot Vale VIC 3032","categories":[{"tag":"Bar"},{"tag":"LiveMusic"},{"tag":"Pub"}],"city":"Ascot Vale, VIC","name":"Ascot Vale Hotel","url":"https://beat.com.au/directory/ascot-vale-hotel/"}},{"geo":{"lat":-37.80631416666667,"lon":144.98121899999998},"venue":{"address":"Level 1/198 Gertrude St\r\nFitzroy VIC 3065","categories":[{"contents":"","tag":"OtherVenue"}],"city":"Fitzroy, VIC","name":"At The Above","url":"https://beat.com.au/directory/at-the-above/"}},{"geo":{"lat":-37.8140656,"lon":144.9715791},"venue":{"address":"188 Collins St\r\nMelbourne VIC 3000","categories":[{"tag":"TheatreVenue"}],"city":"Melbourne, VIC","name":"Athenaeum Theatre","url":"https://beat.com.au/directory/athenaeum-theatre/"}},{"geo":{"lat":-37.800573,"lon":144.9005489},"venue":{"address":"30 Chambers St\r\nFootscray VIC 3011","categories":[{"tag":"Bar"}],"city":"Footscray, VIC","name":"Baby Snakes Bar","url":"https://beat.com.au/directory/baby-snakes-bar/"}},{"geo":{"lat":-37.7980391,"lon":144.9862121},"venue":{"address":"25 Easey St\r\nCollingwood VIC 3066","categories":[{"tag":"EventVenue"}],"city":"Collingwood, VIC","name":"Backwoods Gallery","url":"https://beat.com.au/directory/backwoods-gallery/"}},{"geo":{"lat":-37.7983136,"lon":144.9763781},"venue":{"address":"46 Johnston St\r\nFitzroy VIC 3065","categories":[{"tag":"Bar"}],"city":"Fitzroy, VIC","name":"Bad Decisions Bar","url":"https://beat.com.au/directory/bad-decisions-bar/"}},{"geo":{"lat":-37.8120553,"lon":144.9684781},"venue":{"address":"2 Coverlid Pl\r\nMelbourne VIC 3000","categories":[{"tag":"Bar"}],"city":"Melbourne, VIC","name":"Ballers Clubhouse","url":"https://beat.com.au/directory/ballers-clubhouse/"}},{"geo":{"lat":-37.7170591,"lon":145.0121081},"venue":{"address":"204 Broadway\r\nReservoir VIC 3073","categories":[{"tag":"Bar"}],"city":"Reservoir, VIC","name":"Bar 204","url":"https://beat.com.au/directory/bar-204/"}},{"geo":{"lat":-37.7713296,"lon":144.99828116650363},"venue":{"address":"303 High St\r\nNorthcote VIC 3070","categories":[{"tag":"Bar"},{"tag":"LiveMusic"}],"city":"Northcote, VIC","name":"Bar 303","url":"https://beat.com.au/directory/bar-303/"}},{"geo":{"lat":-37.7807053,"lon":144.9966061},"venue":{"address":"61 High St\r\nNorthcote VIC 3070","categories":[{"tag":"Bar"}],"city":"Northcote, VIC","name":"Bar 61","url":"https://beat.com.au/directory/bar-61/"}},{"geo":{"lat":-37.79773,"lon":144.978425},"venue":{"address":"317 Brunswick St\r\nFitzroy VIC 3065","categories":[{"tag":"Bar"},{"tag":"LiveMusic"}],"city":"Fitzroy, VIC","name":"Bar Open","url":"https://beat.com.au/directory/bar-open/"}},{"geo":{"lat":-37.7618155,"lon":144.9628753},"venue":{"address":"653 Sydney Rd\r\nBrunswick VIC 3056","categories":[{"tag":"Bar"},{"tag":"LiveMusic"}],"city":"Brunswick, VIC","name":"Bar Oussou","url":"https://beat.com.au/directory/bar-oussou/"}},{"geo":{"lat":-37.8117601,"lon":144.9712728},"venue":{"address":"24 Crossley St\r\nMelbourne VIC 3000","categories":[{"tag":"Bar"}],"city":"VIC","name":"Bard's Apothecary","url":"https://beat.com.au/directory/bards-apothecary/"}},{"geo":{"lat":-37.7533867,"lon":145.00170983716538},"venue":{"address":"816/818 High St, Thornbury VIC 3071","categories":[{"contents":"","tag":"OtherVenue"}],"city":"Thornbury","name":"Barton Fink","url":"https://beat.com.au/directory/barton-fink/"}},{"geo":{"lat":-38.16292645,"lon":144.35392397371288},"venue":{"address":"509 Moorabool St\r\nSouth Geelong VIC 3220","categories":[{"tag":"Pub"}],"city":"South Geelong, VIC","name":"Barwon Club Hotel","url":"https://beat.com.au/directory/barwon-club-hotel/"}},{"geo":{"lat":-38.3361568,"lon":144.9886215},"venue":{"address":"40 Collins Rd\r\nDromana VIC 3936","categories":[{"tag":"Brewery"}],"city":"Dromana, VIC","name":"Bass & Flinders Distillery","url":"https://beat.com.au/directory/bass-flinders-distillery/"}},{"geo":{"lat":-37.7981225,"lon":144.978682},"venue":{"address":"302 Brunswick St\r\nFitzroy VIC 3065","categories":[{"tag":"Bar"},{"tag":"EventVenue"}],"city":"Fitzroy, VIC","name":"Baxter's Lot","url":"https://beat.com.au/directory/baxters-lot/"}},{"geo":{"lat":-37.7258704,"lon":145.1342323},"venue":{"address":"48 Kirwana Grove\r\nMontmorency VIC 3094","categories":[{"contents":"Record Store","tag":"OtherVenue"}],"city":"Montmorency, VIC","name":"Beat Tank Productions - Recording Studio","url":"https://beat.com.au/directory/beat-tank-productions-recording-studio/"}},{"geo":{"lat":-37.817775499999996,"lon":144.96918237308262},"venue":{"address":"Federation Square \r\nMelbourne VIC 3000","categories":[{"tag":"Bar"}],"city":"Melbourne, VIC","name":"Beer Deluxe","url":"https://beat.com.au/directory/beer-deluxe/"}},{"geo":{"lat":-37.79964875,"lon":144.98911674151407},"venue":{"address":"125 Johnston St\r\nCollingwood VIC 3066","categories":[{"tag":"LiveMusic"},{"tag":"Pub"}],"city":"Collingwood, VIC","name":"Bendigo Hotel","url":"https://beat.com.au/directory/bendigo-hotel/"}},{"geo":{"lat":-37.8131082,"lon":144.9630923},"venue":{"address":"Shop 3, Driver Lane\r\nMelbourne VIC 3000","categories":[{"tag":"Bar"}],"city":"Melbourne, VIC","name":"Beneath Driver Lane","url":"https://beat.com.au/directory/beneath-driver-lane/"}},{"geo":{"lat":-37.7783326,"lon":144.9706095},"venue":{"address":"285 Lygon St, Brunswick East VIC 3057","categories":[{"contents":"","tag":"OtherVenue"}],"city":"Brunswick East","name":"Benjys Karaoke Bar","url":"https://beat.com.au/directory/benjys-karaoke-bar/"}},{"geo":{"lat":-37.776327,"lon":144.9607158},"venue":{"address":"64 Sydney Rd, Brunswick VIC","categories":[{"contents":"","tag":"OtherVenue"}],"city":null,"name":"Bergy Bandroom","url":"https://beat.com.au/directory/bergy-bandroom/"}},{"geo":{"lat":-37.8242353,"lon":144.9672052},"venue":{"address":"45 Sturt St\r\nSouthbank VIC 3006","categories":[{"contents":"Café","tag":"OtherVenue"}],"city":"Southbank, VIC","name":"Betwixt Cafe & Bar","url":"https://beat.com.au/directory/betwixt-cafe-bar/"}},{"geo":{"lat":-37.7961022,"lon":144.9790461},"venue":{"address":"376 Brunswick St\r\nFitzroy VIC 3065","categories":[{"tag":"Bar"}],"city":"Fitzroy, VIC","name":"Kewpie","url":"https://beat.com.au/directory/bimbo/"}},{"geo":{"lat":-37.8111049,"lon":144.9567859},"venue":{"address":"11 Singers Ln, \r\nMelbourne VIC 3000","categories":[{"tag":"Bar"},{"tag":"LiveMusic"}],"city":"Melbourne, VIC","name":"Bird's Basement","url":"https://beat.com.au/directory/birds-basement/"}},{"geo":{"lat":-37.8142454,"lon":144.9631732},"venue":{"address":"Melbourne VIC 3004","categories":[{"contents":"","tag":"OtherVenue"}],"city":"Melbourne, VIC","name":"Birrarung Marr","url":"https://beat.com.au/directory/birrarung-marr/"}},{"geo":{"lat":-37.8058867,"lon":144.9796269},"venue":{"address":"153 Gertrude St\r\nFitzroy VIC 3065","categories":[{"tag":"Pub"}],"city":"Fitzroy, VIC","name":"Bistro Sousou","url":"https://beat.com.au/directory/bistro-sousou/"}},{"geo":{"lat":-37.8431403,"lon":144.9948802},"venue":{"address":"364 Chapel St\r\nSouth Yarra VIC 3141","categories":[{"tag":"Bar"}],"city":"South Yarra, VIC","name":"Black Magic Bar","url":"https://beat.com.au/directory/black-magic-bar/"}},{"geo":{"lat":-37.8157783,"lon":144.9649652},"venue":{"address":"282 Collins St\r\nMelbourne VIC 3000","categories":[{"tag":"EventVenue"}],"city":"Melbourne","name":"Block Arcade","url":"https://beat.com.au/directory/block-arcade/"}},{"geo":{"lat":-37.8076069,"lon":144.9660168},"venue":{"address":"380 Russell St\r\nMelbourne VIC 3000","categories":[{"tag":"Bar"}],"city":"Melbourne, VIC","name":"Blue Moon Karaoke Bar","url":"https://beat.com.au/directory/blue-moon-karaoke-bar/"}},{"geo":{"lat":-33.8735678,"lon":151.2127994},"venue":{"address":"2/4 College St\r\nSydney NSW 2000","categories":[{"tag":"Bar"}],"city":"Sydney, NSW","name":"Bodhi Restaurant and Bar","url":"https://beat.com.au/directory/bodhi-restaurant-bar/"}},{"geo":{"lat":-37.8001115,"lon":144.9945274},"venue":{"address":"245 Johnston St\r\nAbbotsford VIC 3067","categories":[{"tag":"LiveMusic"},{"tag":"Pub"}],"city":"Abbotsford, VIC","name":"Bodriggy Brewing Company","url":"https://beat.com.au/directory/bodriggy-brewing-company/"}},{"geo":{"lat":-37.7688516,"lon":144.9618215},"venue":{"address":"303 Sydney Rd\r\nBrunswick VIC 3056","categories":[{"tag":"Bar"},{"tag":"LiveMusic"}],"city":"Brunswick, VIC","name":"Bombay Rock","url":"https://beat.com.au/directory/bombay-rock/"}},{"geo":{"lat":-37.8128595,"lon":144.9713425},"venue":{"address":"68 Little Collins St\r\nMelbourne VIC 3000","categories":[{"tag":"Bar"},{"tag":"Club"},{"tag":"LiveMusic"}],"city":"Melbourne, VIC","name":"Boney","url":"https://beat.com.au/directory/boney/"}},{"geo":{"lat":-37.8126385,"lon":144.9724818},"venue":{"address":"579 Little Collins St\r\nMelbourne VIC 3000","categories":[{"tag":"Pub"},{"tag":"LiveMusic"}],"city":"Melbourne, VIC","name":"Bottom End","url":"https://beat.com.au/directory/bottom-end/"}},{"geo":{"lat":-37.8160263,"lon":144.9599103},"venue":{"address":"501 Bourke St\r\nMelbourne VIC 3000","categories":[{"tag":"EventVenue"},{"tag":"LiveMusic"}],"city":"Melbourne, VIC","name":"Bourke Street Courtyard","url":"https://beat.com.au/directory/bourke-street-courtyard/"}},{"geo":{"lat":-37.745293950000004,"lon":144.80238778071427},"venue":{"address":"33 Princess Street\r\nSt Albans VIC 3021","categories":[{"tag":"TheatreVenue"}],"city":"St Albans, VIC","name":"Bowery Theatre","url":"https://beat.com.au/directory/bowery-theatre/"}},{"geo":{"lat":-37.8252636,"lon":145.1227673},"venue":{"address":"470 Station St\r\nBox Hill VIC 3128","categories":[{"contents":"","tag":"OtherVenue"}],"city":"VIC","name":"Box Hill Community Arts Centre","url":"https://beat.com.au/directory/box-hill-community-arts-centre/"}},{"geo":{"lat":-36.72646145,"lon":146.96175874555826},"venue":{"address":"121 Great Alpine Road\r\nBright VIC 3741","categories":[{"tag":"Brewery"}],"city":"Bright, VIC","name":"Bright Brewery","url":"https://beat.com.au/directory/bright-brewery/"}},{"geo":{"lat":-37.79824,"lon":144.976186},"venue":{"address":"42 Johnston St\r\nFitzroy VIC 3065","categories":[{"tag":"Bar"},{"tag":"LiveMusic"}],"city":"Fitzroy, VIC","name":"Brothers Public House","url":"https://beat.com.au/directory/brothers-public-house/"}},{"geo":{"lat":-37.8146155,"lon":144.9552495},"venue":{"address":"585 Lonsdale St\r\nMelbourne VIC 3000","categories":[{"tag":"Club"},{"tag":"LiveMusic"}],"city":"Melbourne, VIC","name":"Brown Alley","url":"https://beat.com.au/directory/brown-alley/"}},{"geo":{"lat":-37.8193692,"lon":144.9571797},"venue":{"address":"250 Flinders Ln\r\nMelbourne VIC 3000","categories":[{"contents":"","tag":"OtherVenue"}],"city":"Melbourne, VIC","name":"Brunetti","url":"https://beat.com.au/directory/brunetti/"}},{"geo":{"lat":-37.7704566,"lon":144.9617018},"venue":{"address":"316 Sydney Rd\r\nBrunswick VIC 3056","categories":[{"tag":"Bar"},{"tag":"EventVenue"},{"tag":"LiveMusic"}],"city":"Brunswick, VIC","name":"Brunswick Artists' Bar","url":"https://beat.com.au/directory/brunswick-artists-bar/"}},{"geo":{"lat":-37.7704566,"lon":144.9617018},"venue":{"address":"314 Sydney Rd\r\nBrunswick VIC 3056","categories":[{"tag":"Bar"},{"tag":"LiveMusic"}],"city":"Brunswick, VIC","name":"Brunswick Ballroom","url":"https://beat.com.au/directory/brunswick-ballroom/"}},{"geo":{"lat":-37.7701405,"lon":144.9614487},"venue":{"address":"313 Sydney Rd\r\nBrunswick VIC 3056","categories":[{"tag":"Bar"},{"tag":"LiveMusic"}],"city":"Brunswick, VIC","name":"Brunswick Green","url":"https://beat.com.au/directory/brunswick-green/"}},{"geo":{"lat":-37.7713516,"lon":144.9617438862518},"venue":{"address":"270 Sydney Rd\r\nBrunswick VIC 3056","categories":[{"tag":"EventVenue"},{"tag":"TheatreVenue"}],"city":"Brunswick, VIC","name":"Brunswick Mechanics Institute","url":"https://beat.com.au/directory/brunswick-mechanics-institute/"}},{"geo":{"lat":-37.7688516,"lon":144.9618215},"venue":{"address":"214 Sydney Rd\r\nBrunswick VIC 3056","categories":[{"contents":"","tag":"OtherVenue"}],"city":"Brunswick, VIC","name":"Brunswick Uniting Church","url":"https://beat.com.au/directory/brunswick-uniting-church/"}},{"geo":{"lat":-38.0198687,"lon":145.299149},"venue":{"address":"2 Patrick NE Dr\r\nNarre Warren VIC 3805","categories":[{"tag":"TheatreVenue"}],"city":"Narre Warren, VIC","name":"Bunjil Place","url":"https://beat.com.au/directory/bunjil-place/"}},{"geo":{"lat":-37.8126385,"lon":144.9724818},"venue":{"address":"118 Little Collins St\r\nMelbourne VIC 3000","categories":[{"contents":"","tag":"OtherVenue"}],"city":"Melbourne, VIC","name":"Burma Lane","url":"https://beat.com.au/directory/burma-lane/"}},{"geo":{"lat":-37.8140483,"lon":144.9666575},"venue":{"address":"11 Rainbow Alley\r\nMelbourne VIC 3000","categories":[{"tag":"Bar"}],"city":"Melbourne, VIC","name":"Cabinet Bar & Balcony","url":"https://beat.com.au/directory/cabinet-bar-balcony/"}},{"geo":{"lat":-37.76125825,"lon":145.00041662186553},"venue":{"address":"614 High St\r\nThornbury VIC 3071","categories":[{"tag":"Bar"},{"tag":"EventVenue"},{"tag":"LiveMusic"}],"city":"Thornbury, VIC","name":"Cactus Room","url":"https://beat.com.au/directory/cactus-room/"}},{"geo":{"lat":-37.7592368,"lon":145.00025846036164},"venue":{"address":"711 High St\r\nThornbury VIC 3071","categories":[{"tag":"Bar"},{"tag":"EventVenue"}],"city":"Thornbury, VIC","name":"Cafe Gummo","url":"https://beat.com.au/directory/cafe-gummo/"}},{"geo":{"lat":-37.8143273,"lon":144.9616012},"venue":{"address":"23-25 Hardware Ln\r\nMelbourne VIC 3000","categories":[{"tag":"Bar"}],"city":"Melbourne, VIC","name":"Campari House","url":"https://beat.com.au/directory/campari-house/"}},{"geo":{"lat":-37.8656234,"lon":144.9720318},"venue":{"address":"10/10-18 Jacka Blvd, St Kilda VIC 3182","categories":[{"tag":"Bar"}],"city":"St Kilda","name":"Captain Baxter","url":"https://beat.com.au/directory/captain-baxter/"}},{"geo":{"lat":-37.9185433,"lon":145.022937},"venue":{"address":"1 Victor Rd\r\nBentleigh East VIC 3165","categories":[{"tag":"LiveMusic"}],"city":"Bentleigh East, VIC","name":"Caravan Music Club","url":"https://beat.com.au/directory/caravan-music-club/"}},{"geo":{"lat":-37.8102738,"lon":145.0033095},"venue":{"address":"24 Thompson St\r\nAbbotsford VIC 3067","categories":[{"tag":"Bar"},{"tag":"Brewery"}],"city":"Abbotsford, VIC","name":"Carlton Brewhouse","url":"https://beat.com.au/directory/carlton-brewhouse/"}},{"geo":{"lat":-37.7958271,"lon":144.9686994},"venue":{"address":"180 Palmerston St\r\nCarlton VIC 3053","categories":[{"contents":"","tag":"OtherVenue"}],"city":"Carlton, VIC","name":"Carlton Church Of All Nations","url":"https://beat.com.au/directory/carlton-church-of-all-nations/"}},{"geo":{"lat":-38.1140998,"lon":145.2911593},"venue":{"address":"65 Berwick-Cranbourne Rd\r\nCranbourne East VIC 3977","categories":[{"tag":"LiveMusic"}],"city":"VIC","name":"Casey Radio","url":"https://beat.com.au/directory/casey-radio/"}},{"geo":{"lat":-37.883048,"lon":145.0031127},"venue":{"address":"4 St Georges Rd\r\nElsternwick VIC 3185","categories":[{"tag":"Pub"}],"city":"Elsternwick, VIC","name":"Caulfield RSL","url":"https://beat.com.au/directory/caulfield-rsl/"}},{"geo":{"lat":-37.8059236,"lon":144.9832619},"venue":{"address":"80 Smith St\r\nCollingwood VIC 3066","categories":[{"tag":"Bar"}],"city":"Collingwood, VIC","name":"Caz Reitop's Dirty Secrets","url":"https://beat.com.au/directory/caz-reitops-dirty-secrets/"}},{"geo":{"lat":-37.8764251,"lon":145.0480774},"venue":{"address":"148 Burke Rd\r\nMalvern East VIC 3145","categories":[{"contents":"","tag":"OtherVenue"}],"city":"Malvern East, VIC","name":"Central Park (Malvern East)","url":"https://beat.com.au/directory/central-park-malvern-east/"}},{"geo":{"lat":-37.76580971811538,"lon":144.982709011885},"venue":{"address":"Stewart St &, Roberts St\r\nBrunswick East VIC 3057","categories":[{"contents":"","tag":"OtherVenue"}],"city":"VIC","name":"CERES Community Environment Park","url":"https://beat.com.au/directory/ceres-community-environment-park/"}},{"geo":{"lat":-37.8119956,"lon":144.9594357},"venue":{"address":"105 Queen St\r\nMelbourne VIC 3000","categories":[{"tag":"Club"},{"tag":"Bar"}],"city":"Melbourne, VIC","name":"Chaise Lounge","url":"https://beat.com.au/directory/chaise-lounge/"}},{"geo":{"lat":-37.8491931,"lon":144.9947908},"venue":{"address":"12 Little Chapel St\r\nPrahran VIC 3181","categories":[{"tag":"EventVenue"},{"tag":"LiveMusic"}],"city":"Prahran, VIC","name":"Chapel Off Chapel","url":"https://beat.com.au/directory/chapel-off-chapel/"}},{"geo":{"lat":-37.775721,"lon":144.9699877},"venue":{"address":"27 Weston St\r\nBrunswick VIC 3056","categories":[{"tag":"Bar"},{"tag":"LiveMusic"}],"city":"Brunswick, VIC","name":"Charles Weston Hotel","url":"https://beat.com.au/directory/charles-weston-hotel/"}},{"geo":{"lat":-37.8431403,"lon":144.9948802},"venue":{"address":"386 Chapel St\r\nSouth Yarra VIC 3141","categories":[{"tag":"Bar"},{"tag":"Club"}],"city":"South Yarra, VIC","name":"Chasers Nightclub","url":"https://beat.com.au/directory/chasers-nightclub/"}},{"geo":{"lat":-37.8128595,"lon":144.9713425},"venue":{"address":"68 Little Collins Street\r\nMelbourne VIC 3000","categories":[{"tag":"Bar"},{"tag":"LiveMusic"}],"city":"Melbourne, VIC","name":"Cherry Bar","url":"https://beat.com.au/directory/cherry-bar/"}},{"geo":{"lat":-37.8299029,"lon":144.9932173},"venue":{"address":"53 Balmain Street\r\nCremorne 3121","categories":[{"tag":"Pub"}],"city":"Cremorne, VIC","name":"Cherry Tree Hotel","url":"https://beat.com.au/directory/cherry-tree-hotel/"}},{"geo":{"lat":-37.7742829,"lon":144.9601606},"venue":{"address":"3 Union St\r\nBrunswick VIC 3056","categories":[{"contents":"","tag":"OtherVenue"}],"city":"Brunswick, VIC","name":"Ciao Mamma!","url":"https://beat.com.au/directory/ciao-mamma/"}},{"geo":{"lat":-37.7376485,"lon":144.9487854},"venue":{"address":"146 Sussex St\r\nPascoe Vale VIC 3044","categories":[{"contents":"","tag":"OtherVenue"}],"city":"Pascoe Vale, VIC","name":"Ciccio Pizza","url":"https://beat.com.au/directory/ciccio-pizza/"}},{"geo":{"lat":-37.7981549,"lon":144.9678859},"venue":{"address":"380 Lygon St\r\nCarlton VIC 3053","categories":[{"tag":"TheatreVenue"}],"city":"Carlton, VIC","name":"Cinema Nova","url":"https://beat.com.au/directory/cinema-nova/"}},{"geo":{"lat":-37.8837941,"lon":145.0006024},"venue":{"address":"9 Gordon Street\r\nElsternwick VIC 3185","categories":[{"tag":"LiveMusic"}],"city":"Elsternwick, VIC","name":"Classic Southside","url":"https://beat.com.au/directory/classic-southside/"}},{"geo":{"lat":-37.7897383,"lon":144.9890945},"venue":{"address":"89 Queens Parade\r\nClifton Hill VIC 3068","categories":[{"tag":"Pub"},{"tag":"Brewery"}],"city":"Clifton Hill, VIC","name":"Clifton Hill Brewpub","url":"https://beat.com.au/directory/clifton-hill-brewpub/"}},{"geo":{"lat":-37.7656716,"lon":144.9248037207342},"venue":{"address":"750 Mt Alexander Road\r\nMoonee Ponds VIC 3039","categories":[{"contents":"","tag":"OtherVenue"}],"city":"Moonee Ponds, VIC","name":"Clocktower Centre","url":"https://beat.com.au/directory/clocktower-centre/"}},{"geo":{"lat":-37.861170349999995,"lon":145.37690633216644},"venue":{"address":"89 Olinda-Monbulk Rd\r\nOlinda VIC 3788","categories":[{"contents":"","tag":"OtherVenue"}],"city":"Olinda, VIC","name":"Cloudehill Gardens","url":"https://beat.com.au/directory/cloudehill-gardens/"}},{"geo":{"lat":-37.834393,"lon":144.9555493},"venue":{"address":"127 Dorcas St\r\nSouth Melbourne VIC 3205","categories":[{"tag":"Club"},{"tag":"EventVenue"}],"city":"South Melbourne, VIC","name":"Club Pandora","url":"https://beat.com.au/directory/club-pandora/"}},{"geo":{"lat":-37.80424915,"lon":144.95012735},"venue":{"address":"1st Floor/14 Raglan St\r\nNorth Melbourne VIC 3051","categories":[{"tag":"LiveMusic"}],"city":"North Melbourne, VIC","name":"Club Voltaire","url":"https://beat.com.au/directory/club-voltaire/"}},{"geo":{"lat":-37.745964314285715,"lon":144.96564318571427},"venue":{"address":"323 Sydney Rd\r\nCoburg VIC 3058","categories":[{"tag":"Club"}],"city":"Coburg, VIC","name":"Coburg RSL Club","url":"https://beat.com.au/directory/coburg-rsl-club/"}},{"geo":{"lat":-37.8033034,"lon":145.0064295},"venue":{"address":"18 St Heliers St\r\nAbbotsford VIC 3067","categories":[{"tag":"FestivalVenue"}],"city":"VIC","name":"Collingwood Children’s Farm","url":"https://beat.com.au/directory/collingwood-childrens-farm/"}},{"geo":{"lat":-37.7989941,"lon":144.9846126},"venue":{"address":"35 Johnston St\r\nCollingwood VIC 3066","categories":[{"tag":"EventVenue"}],"city":"VIC","name":"Collingwood Yards","url":"https://beat.com.au/directory/collingwood-yards/"}},{"geo":{"lat":-37.80457385,"lon":144.96115137736732},"venue":{"address":"229 Queensberry St\r\nCarlton VIC 3053","categories":[{"tag":"Bar"},{"tag":"Club"}],"city":"Carlton, VIC","name":"Colour Club","url":"https://beat.com.au/directory/colour-club/"}},{"geo":{"lat":-37.8133834,"lon":144.9668096},"venue":{"address":"Level 1 & 2\r\n231 Bourke Street\r\nMelbourne VIC 3000","categories":[{"tag":"Bar"},{"tag":"EventVenue"},{"tag":"TheatreVenue"}],"city":"VIC","name":"Comedy Republic","url":"https://beat.com.au/directory/comedy-republic/"}},{"geo":{"lat":-37.8074223,"lon":144.9688742},"venue":{"address":"240 Exhibition St\r\nMelbourne VIC 3000","categories":[{"tag":"TheatreVenue"}],"city":"Melbourne, VIC","name":"Comedy Theatre","url":"https://beat.com.au/directory/comedy-theatre/"}},{"geo":{"lat":-37.7783326,"lon":144.9706095},"venue":{"address":"319 Lygon St\r\nBrunswick East VIC 3057","categories":[{"tag":"LiveMusic"}],"city":"Brunswick East, VIC","name":"Compass Pizza","url":"https://beat.com.au/directory/compass-pizza/"}},{"geo":{"lat":-37.8064779,"lon":144.9829743},"venue":{"address":"139 Smith St\r\nFitzroy VIC 3065","categories":[{"tag":"Bar"},{"tag":"LiveMusic"}],"city":"Fitzroy, VIC","name":"Copacabana International","url":"https://beat.com.au/directory/copacabana-international/"}},{"geo":{"lat":-37.82488935,"lon":144.99266639479475},"venue":{"address":"57 Swan St\r\nRichmond VIC 3121","categories":[{"tag":"Bar"},{"tag":"LiveMusic"}],"city":"Richmond, VIC","name":"Corner Hotel","url":"https://beat.com.au/directory/corner-hotel/"}},{"geo":{"lat":-37.7783326,"lon":144.9706095},"venue":{"address":"140 Lygon St\r\nBrunswick East VIC 3057","categories":[{"tag":"Bar"},{"tag":"EventVenue"},{"tag":"Pub"}],"city":"Brunswick East, VIC","name":"Creature Bar","url":"https://beat.com.au/directory/creature-bar/"}},{"geo":{"lat":-37.7694446,"lon":144.9745581},"venue":{"address":"16-22 Cross St\r\nBrunswick East VIC 3057","categories":[{"tag":"LiveMusic"}],"city":"Brunswick East, VIC","name":"Cross Street Music Hall","url":"https://beat.com.au/directory/cross-street-music-hall/"}},{"geo":{"lat":-37.75678056666666,"lon":144.9637442},"venue":{"address":"833 Sydney Rd\r\nBrunswick VIC 3056","categories":[{"tag":"EventVenue"},{"tag":"LiveMusic"},{"tag":"Bar"}],"city":"Brunswick, VIC","name":"Culture Club","url":"https://beat.com.au/directory/culture-club/"}},{"geo":{"lat":-37.818194,"lon":144.9602606},"venue":{"address":"408 Flinders Ln\r\nMelbourne VIC 3000","categories":[{"tag":"Bar"},{"tag":"LiveMusic"}],"city":"VIC","name":"Curious","url":"https://beat.com.au/directory/curious/"}},{"geo":{"lat":-37.86337315,"lon":144.9042231817108},"venue":{"address":"161 Nelson Pl\r\nWilliamstown VIC 3016","categories":[{"tag":"LiveMusic"},{"tag":"Pub"}],"city":"Williamstown, VIC","name":"Customs House Hotel","url":"https://beat.com.au/directory/customs-house-hotel/"}},{"geo":{"lat":-37.74553004870929,"lon":144.9980448484126},"venue":{"address":"Cnr Bell St and St Georges Rd\r\nPreston VIC 3072","categories":[{"tag":"TheatreVenue"}],"city":"Preston, VIC","name":"Darebin Arts & Entertainment Centre","url":"https://beat.com.au/directory/darebin-arts-entertainment-centre/"}},{"geo":{"lat":-37.3411358,"lon":144.1431519},"venue":{"address":"2 Burke Square\r\nDaylesford VIC 3460","categories":[{"tag":"Pub"}],"city":"Daylesford, VIC","name":"Daylesford Hotel","url":"https://beat.com.au/directory/daylesford-hotel/"}},{"geo":{"lat":-37.7663699,"lon":144.9243785},"venue":{"address":"595 Mt Alexander Rd\r\nMoonee Ponds VIC 3039","categories":[{"tag":"Bar"}],"city":"Moonee Ponds, VIC","name":"Deluxe Bar & Lounge","url":"https://beat.com.au/directory/deluxe-bar-lounge/"}},{"geo":{"lat":-37.728938,"lon":145.0173599},"venue":{"address":"715 Plenty Road\r\nReservoir VIC 3073","categories":[{"tag":"LiveMusic"},{"contents":"Record Store","tag":"OtherVenue"}],"city":"Reservoir, VIC","name":"Desert Highways","url":"https://beat.com.au/directory/desert-highways/"}},{"geo":{"lat":-37.8587362,"lon":145.0004358},"venue":{"address":"Dandenong Rd\r\nWindsor VIC 3181","categories":[{"tag":"TheatreVenue"}],"city":"Windsor, VIC","name":"Developing Dancers Melbourne","url":"https://beat.com.au/directory/developing-dancers-melbourne/"}},{"geo":{"lat":-37.8639936,"lon":144.975465},"venue":{"address":"54 Acland St\r\nSt Kilda VIC 3182","categories":[{"tag":"Bar"}],"city":"St Kilda, VIC","name":"Dogs Bar","url":"https://beat.com.au/directory/dogs-bar/"}},{"geo":{"lat":-37.7930866,"lon":144.9758032},"venue":{"address":"442 Nicholson St\r\nFitzroy North VIC 3068","categories":[{"tag":"Pub"},{"tag":"Bar"}],"city":"Fitzroy North, VIC","name":"Dr. Freeman","url":"https://beat.com.au/directory/dr-freeman/"}},{"geo":{"lat":-37.799833,"lon":144.9941396},"venue":{"address":"274 Johnston St\r\nAbbotsford VIC 3067","categories":[{"tag":"Bar"},{"tag":"Club"},{"tag":"EventVenue"},{"tag":"LiveMusic"}],"city":"Abbotsford, VIC","name":"Dr Morse","url":"https://beat.com.au/directory/dr-morse/"}},{"geo":{"lat":-37.8295174,"lon":144.87164137428573},"venue":{"address":"23 Vernon St\r\nSouth Kingsville VIC 3015","categories":[{"tag":"Bar"},{"tag":"EventVenue"},{"tag":"LiveMusic"}],"city":"VIC","name":"Dukkah Restaurant","url":"https://beat.com.au/directory/dukkah/"}},{"geo":{"lat":-37.868967,"lon":145.0498034091063},"venue":{"address":"92 Burke Road \r\nEast Malvern VIC 3145","categories":[{"tag":"EventVenue"},{"tag":"LiveMusic"},{"contents":"Galleries","tag":"OtherVenue"}],"city":"East Malvern, VIC","name":"Duldig Studio","url":"https://beat.com.au/directory/duldig-studio/"}},{"geo":{"lat":-37.7632975,"lon":144.9794039},"venue":{"address":"127-149 Nicholson St\r\nBrunswick East VIC 3057","categories":[{"contents":"","tag":"OtherVenue"}],"city":"Brunswick East, VIC","name":"East Brunswick Village","url":"https://beat.com.au/directory/east-brunswick-village/"}},{"geo":{"lat":-37.8716661,"lon":145.0670277},"venue":{"address":"Stanley Grose Dr\r\nMalvern East VIC 3145","categories":[{"tag":"LiveMusic"},{"tag":"Pub"}],"city":"VIC","name":"East Malvern RSL","url":"https://beat.com.au/directory/east-malvern-rsl/"}},{"geo":{"lat":-37.9576685,"lon":145.0571385},"venue":{"address":"168 Chesterville Rd\r\nCheltenham VIC 3192","categories":[{"tag":"Bar"}],"city":"Cheltenham, VIC","name":"Eddie's Bandroom","url":"https://beat.com.au/directory/eddies-bandroom/"}},{"geo":{"lat":-37.8052683,"lon":144.9833687},"venue":{"address":"108 Smith St\r\nCollingwood VIC 3066","categories":[{"tag":"Bar"},{"tag":"Club"},{"tag":"EventVenue"}],"city":"Collingwood, VIC","name":"EDEN","url":"https://beat.com.au/directory/eden/"}},{"geo":{"lat":-37.76100605,"lon":144.9628440552175},"venue":{"address":"681 Sydney Rd\r\nBrunswick VIC 3056","categories":[{"tag":"LiveMusic"},{"tag":"Pub"}],"city":"Brunswick, VIC","name":"Edinburgh Castle Hotel","url":"https://beat.com.au/directory/edinburgh-castle-hotel/"}},{"geo":{"lat":-37.7932199,"lon":144.9793387},"venue":{"address":"578 Brunswick Street\r\nFitzroy North VIC 3068","categories":[{"contents":"","tag":"OtherVenue"}],"city":"Fitzroy North, VIC","name":"Edinburgh Gardens","url":"https://beat.com.au/directory/edinburgh-gardens/"}},{"geo":{"lat":-37.882273,"lon":144.9828529},"venue":{"address":"49-51 Glen Huntly Rd\r\nElwood VIC 3184","categories":[{"contents":"","tag":"OtherVenue"}],"city":"Elwood, VIC","name":"Elwood Lounge","url":"https://beat.com.au/directory/elwood-lounge/"}},{"geo":{"lat":-38.0254477,"lon":145.3105877},"venue":{"address":"14-22 Lauderdale Rd\r\nNarre Warren VIC 3805","categories":[{"tag":"Club"}],"city":"Narre Warren, VIC","name":"District 14","url":"https://beat.com.au/directory/empire-nightclub/"}},{"geo":{"lat":-37.7783326,"lon":144.9706095},"venue":{"address":"60 Lygon St\r\nBrunswick East VIC 3057","categories":[{"contents":"","tag":"OtherVenue"}],"city":"Brunswick East, VIC","name":"Etta","url":"https://beat.com.au/directory/etta/"}},{"geo":{"lat":-37.7967357,"lon":144.9787445},"venue":{"address":"351 Brunswick St\r\nFitzroy VIC 3065","categories":[{"tag":"Bar"},{"tag":"LiveMusic"}],"city":"Brunswick, VIC","name":"Evelyn Hotel","url":"https://beat.com.au/directory/evelyn-hotel/"}},{"geo":{"lat":-37.80640793333333,"lon":144.98237416666666},"venue":{"address":"230/232 Gertrude St\r\nFitzroy VIC 3065","categories":[{"tag":"Bar"}],"city":"Fitzroy, VIC","name":"Evie's Disco Diner","url":"https://beat.com.au/directory/evies-disco-diner/"}},{"geo":{"lat":-37.8112208,"lon":144.9684346},"venue":{"address":"14 Corrs Ln\r\nMelbourne VIC 3000","categories":[{"tag":"Bar"},{"tag":"EventVenue"},{"tag":"LiveMusic"}],"city":"Melbourne, VIC","name":"FAD Gallery","url":"https://beat.com.au/directory/fad-gallery/"}},{"geo":{"lat":-37.8120832,"lon":144.9710491},"venue":{"address":"Level 1/79 Bourke St\r\nMelbourne VIC 3000","categories":[{"contents":"","tag":"OtherVenue"}],"city":"Melbourne, VIC","name":"Fancy Hank’s","url":"https://beat.com.au/directory/fancy-hanks/"}},{"geo":{"lat":-37.81799793179876,"lon":144.96904143685853},"venue":{"address":"Corner of Swanston Street & Flinders Street\r\nMelbourne VIC 3000","categories":[{"contents":"","tag":"OtherVenue"}],"city":"Melbourne, VIC","name":"Federation Square","url":"https://beat.com.au/directory/federation-square/"}},{"geo":{"lat":-37.8118954,"lon":144.9655785},"venue":{"address":"31 Tattersalls Ln\r\nMelbourne VIC 3000","categories":[{"tag":"Bar"},{"tag":"Club"},{"tag":"LiveMusic"}],"city":"Melbourne, VIC","name":"Ferdydurke","url":"https://beat.com.au/directory/ferdydurke/"}},{"geo":{"lat":-37.8893803,"lon":145.2975247},"venue":{"address":"1130 Burwood Hwy\r\nFerntree Gully VIC 3156","categories":[{"tag":"Bar"}],"city":"Ferntree Gully, VIC","name":"Ferntree Gully Hotel","url":"https://beat.com.au/directory/ferntree-gully-hotel/"}},{"geo":{"lat":-37.8100202,"lon":144.950359},"venue":{"address":"300 Dudley St\r\nWest Melbourne VIC 3003","categories":[{"tag":"LiveMusic"}],"city":"West Melbourne, VIC","name":"Festival Hall","url":"https://beat.com.au/directory/festival-hall/"}},{"geo":{"lat":-37.8147564,"lon":144.9655738},"venue":{"address":"267 Little Collins St\r\nMelbourne VIC 3000","categories":[{"tag":"Bar"},{"tag":"Club"}],"city":"Melbourne, VIC","name":"Fika Island","url":"https://beat.com.au/directory/fika-island/"}},{"geo":{"lat":-37.9409048,"lon":145.0399431},"venue":{"address":"979-985 Nepean Hwy\r\nMoorabbin VIC 3189","categories":[{"tag":"LiveMusic"}],"city":"Moorabbin, VIC","name":"Flying Saucer Club","url":"https://beat.com.au/directory/flying-saucer-club/"}},{"geo":{"lat":-37.8033391,"lon":144.9073334},"venue":{"address":"45 Moreland Street\r\nFootscray VIC 3011","categories":[{"contents":"","tag":"OtherVenue"}],"city":"Footscray, VIC","name":"Footscray Community Arts","url":"https://beat.com.au/directory/footscray-community-arts/"}},{"geo":{"lat":-37.8148148,"lon":144.9730268},"venue":{"address":"45 Flinders Ln\r\nMelbourne VIC 3000","categories":[{"tag":"TheatreVenue"},{"tag":"EventVenue"}],"city":"Melbourne, VIC","name":"fortyfivedownstairs","url":"https://beat.com.au/directory/fortyfivedownstairs/"}},{"geo":{"lat":-37.816565,"lon":144.96947},"venue":{"address":"154 Flinders St\r\nMelbourne VIC 3000","categories":[{"tag":"LiveMusic"}],"city":"Melbourne, VIC","name":"Forum Melbourne","url":"https://beat.com.au/directory/forum-melbourne/"}},{"geo":{"lat":-37.7964923,"lon":144.9877853},"venue":{"address":"63 Wellington St\r\nCollingwood VIC 3066","categories":[{"contents":"Galleries","tag":"OtherVenue"}],"city":"Collingwood, VIC","name":"Fox Galleries","url":"https://beat.com.au/directory/fox-galleries/"}},{"geo":{"lat":-37.8217066,"lon":144.9618119},"venue":{"address":"Shop 16R, Level 1/1 Freshwater Pl\r\nSouthbank VIC 3006","categories":[{"tag":"LiveMusic"}],"city":"Southbank, VIC","name":"Frankie Upstairs / Nadi Studios","url":"https://beat.com.au/directory/frankie-upstairs-nadi-studios/"}},{"geo":{"lat":-38.14614695,"lon":145.12326813392298},"venue":{"address":"27-37 Davey St\r\nFrankston VIC 3199","categories":[{"tag":"EventVenue"}],"city":"Frankston, VIC","name":"Frankston Arts Centre","url":"https://beat.com.au/directory/frankston-arts-centre/"}},{"geo":{"lat":-38.15204535630377,"lon":145.12504662549605},"venue":{"address":"Cnr Yuille & Williams Streets\r\nFrankston VIC 3199","categories":[{"tag":"EventVenue"}],"city":"Frankston, VIC","name":"Frankston Bowls Club","url":"https://beat.com.au/directory/frankston-bowls-club/"}},{"geo":{"lat":-37.8567825,"lon":144.9828155},"venue":{"address":"125 Fitzroy St, St Kilda VIC 3182","categories":[{"tag":"LiveMusic"},{"tag":"Pub"}],"city":"St Kilda","name":"Freddie Wimpoles","url":"https://beat.com.au/directory/freddie-wimpoles/"}},{"geo":{"lat":-37.7297231,"lon":145.0161771},"venue":{"address":"703- 707 Plenty Rd\r\nReservoir VIC 3073\r\nWurundjeri Land","categories":[{"tag":"Brewery"}],"city":"Reservoir, VIC","name":"Future Mountain Brewing & Blending","url":"https://beat.com.au/directory/future-mountain-brewing-blending/"}},{"geo":{"lat":-37.79426315,"lon":144.98535244416098},"venue":{"address":"484 Smith St\r\nCollingwood VIC 3066","categories":[{"tag":"Bar"},{"tag":"Club"},{"tag":"LiveMusic"}],"city":"Collingwood, VIC","name":"Gasometer Hotel","url":"https://beat.com.au/directory/gasometer-hotel/"}},{"geo":{"lat":-37.84329175,"lon":144.94638741677488},"venue":{"address":"21 Graham St\r\nAlbert Park VIC 3206","categories":[{"tag":"TheatreVenue"}],"city":"Albert Park, VIC","name":"Gasworks Arts Park","url":"https://beat.com.au/directory/gasworks-arts-park/"}},{"geo":{"lat":-37.819203,"lon":144.9575115},"venue":{"address":"2 Geddes Ln\r\nMelbourne VIC 3000","categories":[{"tag":"LiveMusic"}],"city":"Melbourne, VIC","name":"Geddes Lane Ballroom","url":"https://beat.com.au/directory/geddes-lane-ballroom/"}},{"geo":{"lat":-37.7963837,"lon":144.9875917},"venue":{"address":"289 Wellington St\r\nCollingwood VIC 3066","categories":[{"tag":"Bar"},{"tag":"LiveMusic"}],"city":"Collingwood, VIC","name":"Gem Bar","url":"https://beat.com.au/directory/gem-bar/"}},{"geo":{"lat":-37.8185934,"lon":144.9590886},"venue":{"address":"12a/45 William St\r\nMelbourne VIC 3000","categories":[{"tag":"FestivalVenue"},{"tag":"TheatreVenue"}],"city":"Melbourne, VIC","name":"General Assembly Melbourne","url":"https://beat.com.au/directory/general-assembly-melbourne/"}},{"geo":{"lat":-37.8600967,"lon":144.9778169},"venue":{"address":"1 George Ln\r\nSt Kilda VIC 3182","categories":[{"tag":"Bar"},{"tag":"LiveMusic"},{"tag":"Pub"}],"city":"VIC","name":"George Lane","url":"https://beat.com.au/directory/george-lane/"}},{"geo":{"lat":-37.7985086,"lon":144.9789458},"venue":{"address":"120 Johnston St\r\nFitzroy VIC 3065","categories":[{"tag":"Bar"}],"city":"Fitzroy, VIC","name":"George's Bar","url":"https://beat.com.au/directory/georges-bar/"}},{"geo":{"lat":-37.9569925,"lon":145.0405076},"venue":{"address":"4/1-5 Hamlet St\r\nCheltenham Vic 3192","categories":[{"contents":"","tag":"OtherVenue"}],"city":"Cheltenham, VIC","name":"Gintonica","url":"https://beat.com.au/directory/gintonica/"}},{"geo":{"lat":-37.7967357,"lon":144.9787445},"venue":{"address":"393 Brunswick St\r\nFitzroy VIC 3065","categories":[{"tag":"Club"}],"city":"Fitzroy, VIC","name":"Glamorama","url":"https://beat.com.au/directory/glamorama/"}},{"geo":{"lat":-37.8147564,"lon":144.9655738},"venue":{"address":"Level 2/267 Little Collins St\r\nMelbourne VIC 3000","categories":[{"tag":"Bar"}],"city":"Melbourne, VIC","name":"Glamp Cocktail Bar","url":"https://beat.com.au/directory/glamp-cocktail-bar/"}},{"geo":{"lat":-37.6974842,"lon":144.9236861},"venue":{"address":"6 Ash Court\r\nGlenroy VIC 3046","categories":[{"tag":"Club"},{"tag":"EventVenue"},{"tag":"LiveMusic"}],"city":"Glenroy, VIC","name":"Glenroy Bowls Club","url":"https://beat.com.au/directory/glenroy-bowls-club/"}},{"geo":{"lat":-37.8834774,"lon":145.0226374},"venue":{"address":"241 Hawthorn Rd\r\nCaulfield North VIC 3161","categories":[{"contents":"Galleries","tag":"OtherVenue"}],"city":"Caulfield North, VIC","name":"Glimmer Gallery","url":"https://beat.com.au/directory/glimmer-gallery/"}},{"geo":{"lat":-37.8123796,"lon":144.9656452},"venue":{"address":"Level 1 Globe Alley\r\nMelbourne VIC 3000","categories":[{"tag":"LiveMusic"}],"city":"Melbourne, VIC","name":"Globe Alley","url":"https://beat.com.au/directory/globe-alley/"}},{"geo":{"lat":-37.831777,"lon":144.959768},"venue":{"address":"238 Clarendon St\r\nSouth Melbourne VIC 3205","categories":[{"tag":"Pub"},{"tag":"Bar"},{"tag":"Club"},{"tag":"EventVenue"}],"city":"South Melbourne, VIC","name":"Golden Gate Hotel","url":"https://beat.com.au/directory/golden-gate-hotel/"}},{"geo":{"lat":-37.8101376,"lon":144.9697646},"venue":{"address":"Basement / 389 Lonsdale Street\r\nMelbourne VIC 3000","categories":[{"tag":"Bar"}],"city":"Melbourne, VIC","name":"Golden Monkey","url":"https://beat.com.au/directory/golden-monkey/"}},{"geo":{"lat":-37.8120832,"lon":144.9710491},"venue":{"address":"Level 2/79 Bourke St\r\nMelbourne VIC 3000","categories":[{"tag":"Bar"},{"tag":"LiveMusic"}],"city":"Melbourne, VIC","name":"Good Heavens","url":"https://beat.com.au/directory/good-heavens/"}},{"geo":{"lat":-37.8463775,"lon":144.99042},"venue":{"address":"147 Commercial Rd\r\nSouth Yarra VIC 3141","categories":[{"tag":"Bar"},{"tag":"Club"},{"tag":"EventVenue"}],"city":"VIC","name":"Good Things Bar","url":"https://beat.com.au/directory/good-things-bar/"}},{"geo":{"lat":-37.804851,"lon":144.983442},"venue":{"address":"114 Smith St\r\nCollingwood VIC 3066","categories":[{"tag":"Bar"},{"tag":"LiveMusic"},{"tag":"Pub"}],"city":"Collingwood, VIC","name":"Grace Darling Hotel","url":"https://beat.com.au/directory/grace-darling-hotel/"}},{"geo":{"lat":-38.2160758,"lon":145.0363817},"venue":{"address":"124 Main St\r\nMornington VIC 3931","categories":[{"tag":"Bar"},{"tag":"EventVenue"},{"tag":"Pub"}],"city":"Melbourne, VIC","name":"Grand Hotel Mornington","url":"https://beat.com.au/directory/grand-hotel-mornington/"}},{"geo":{"lat":-37.80524,"lon":144.983027},"venue":{"address":"125 Smith St\r\nFitzroy VIC 3065","categories":[{"tag":"Bar"},{"tag":"EventVenue"},{"tag":"LiveMusic"}],"city":"Fitzroy, VIC","name":"Grumpy's Green","url":"https://beat.com.au/directory/grumpys-green/"}},{"geo":{"lat":-37.8201575,"lon":144.9679835243618},"venue":{"address":"100 St Kilda Rd\r\nMelbourne VIC 3004","categories":[{"tag":"TheatreVenue"},{"tag":"LiveMusic"}],"city":"Melbourne, VIC","name":"Hamer Hall (Arts Centre Melbourne)","url":"https://beat.com.au/directory/hamer-hall-arts-centre-melbourne/"}},{"geo":{"lat":-37.730898280000005,"lon":145.0149858},"venue":{"address":"670 Plenty Rd\r\nPreston VIC 3072","categories":[{"tag":"Bar"}],"city":"Preston, VIC","name":"HARDOUT","url":"https://beat.com.au/directory/hardout/"}},{"geo":{"lat":-37.7980197,"lon":144.9768672},"venue":{"address":"63 Johnston St\r\nFitzroy VIC 3065","categories":[{"tag":"TheatreVenue"}],"city":"Fitzroy, VIC","name":"Harehole.Melbourne","url":"https://beat.com.au/directory/harehole-melbourne/"}},{"geo":{"lat":-37.8190194,"lon":144.9545555},"venue":{"address":"71 Collins St\r\nMelbourne VIC 3000","categories":[{"tag":"Bar"}],"city":"Melbourne, VIC","name":"Harley House Bar and Grill","url":"https://beat.com.au/directory/harley-house-bar-and-grill/"}},{"geo":{"lat":-37.818666,"lon":144.9991538},"venue":{"address":"447 Church St\r\nRichmond VIC 3121","categories":[{"tag":"Bar"}],"city":"Richmond, VIC","name":"Harlow","url":"https://beat.com.au/directory/harlow/"}},{"geo":{"lat":-37.8230335,"lon":145.03588565533943},"venue":{"address":"360 Burwood Rd\r\nHawthorn VIC 3122","categories":[{"tag":"EventVenue"}],"city":"Hawthorn, VIC","name":"Hawthorn Arts Centre","url":"https://beat.com.au/directory/hawthorn-arts-centre/"}},{"geo":{"lat":-37.7587219,"lon":145.0849279},"venue":{"address":"7 Templestowe Rd\r\nBulleen VIC 3105","categories":[{"contents":"","tag":"OtherVenue"}],"city":"Bulleen, VIC","name":"Heide Museum of Modern Art","url":"https://beat.com.au/directory/heide-museum-of-modern-art/"}},{"geo":{"lat":-37.812681,"lon":144.967523},"venue":{"address":"188 Bourke St\r\nMelbourne VIC 3000","categories":[{"tag":"Bar"},{"tag":"EventVenue"}],"city":"Melbourne, VIC","name":"Heroes Karaoke & Rooftop Bar","url":"https://beat.com.au/directory/heroes-karaoke-rooftop-bar/"}},{"geo":{"lat":-38.3439367,"lon":144.9431344},"venue":{"address":"105 Latrobe Parade\r\nDromana VIC 3936","categories":[{"contents":"","tag":"OtherVenue"}],"city":"Dromana, VIC","name":"Heronswood House and Garden","url":"https://beat.com.au/directory/heronswood-house-gardens/"}},{"geo":{"lat":-37.842912,"lon":145.0467008},"venue":{"address":"Buley St\r\nHawthorn East VIC 3123","categories":[{"tag":"LiveMusic"}],"city":"Hawthorn East, VIC","name":"HideOut Music","url":"https://beat.com.au/directory/hideout-music/"}},{"geo":{"lat":-37.7179907,"lon":145.0074471},"venue":{"address":"817 High Street\r\nReservoir VIC 3073","categories":[{"tag":"TheatreVenue"},{"tag":"Bar"},{"tag":"EventVenue"},{"tag":"LiveMusic"},{"tag":"Pub"},{"contents":"Café","tag":"OtherVenue"},{"contents":"Galleries","tag":"OtherVenue"}],"city":"Reservoir, VIC","name":"High and Wild Bar & Cafe","url":"https://beat.com.au/directory/high-and-wild-bar-cafe/"}},{"geo":{"lat":-37.7755001,"lon":144.9977626},"venue":{"address":"220 High St, Northcote VIC 3070","categories":[{"tag":"Bar"},{"tag":"LiveMusic"}],"city":"Northcote","name":"High Note","url":"https://beat.com.au/directory/high-note/"}},{"geo":{"lat":-37.8201768,"lon":144.966393},"venue":{"address":"MR5/3 Southgate Ave\r\nSouthbank VIC 3006","categories":[{"tag":"Bar"},{"tag":"Pub"}],"city":"VIC","name":"Hophaus Bar Bistro","url":"https://beat.com.au/directory/hophaus-bar-bistro/"}},{"geo":{"lat":-37.8118452,"lon":144.9601792},"venue":{"address":"397 Little Lonsdale St\r\nMelbourne VIC 3000","categories":[{"tag":"Bar"},{"tag":"LiveMusic"}],"city":"Melbourne, VIC","name":"Horse Bazaar","url":"https://beat.com.au/directory/horse-bazaar/"}},{"geo":{"lat":-37.8640582,"lon":144.973013},"venue":{"address":"11 The Esplanade\r\nSt Kilda VIC 3182","categories":[{"tag":"Bar"},{"tag":"Club"},{"tag":"EventVenue"},{"tag":"LiveMusic"}],"city":"St Kilda, VIC","name":"Hotel Esplanade (aka The Espy)","url":"https://beat.com.au/directory/hotel-esplanade/"}},{"geo":{"lat":-37.7684758,"lon":144.9598213},"venue":{"address":"291 Albert St, Brunswick VIC 3056","categories":[{"tag":"Pub"}],"city":"Brunswick","name":"Hotel Railway","url":"https://beat.com.au/directory/hotel-railway/"}},{"geo":{"lat":-37.805046,"lon":144.904588},"venue":{"address":"28 Napier St\r\nFootscray VIC 3011","categories":[{"tag":"Pub"}],"city":"Footscray, VIC","name":"Hotel Westwood","url":"https://beat.com.au/directory/hotel-westwood/"}},{"geo":{"lat":-37.7949839,"lon":144.93849295},"venue":{"address":"222 Macaulay Rd\r\nNorth Melbourne VIC 3051","categories":[{"contents":"","tag":"OtherVenue"}],"city":"North Melbourne, VIC","name":"House Of Usher – Funeral Services","url":"https://beat.com.au/directory/house-of-usher-funeral-services/"}},{"geo":{"lat":-37.7720304,"lon":144.9596527},"venue":{"address":"7-11 Dawson St\r\nBrunswick VIC 3056","categories":[{"tag":"Bar"},{"tag":"LiveMusic"}],"city":"Brunswick, VIC","name":"Howler","url":"https://beat.com.au/directory/howler/"}},{"geo":{"lat":-37.7461547,"lon":144.976494},"venue":{"address":"19 Harding St\r\nCoburg VIC 3058","categories":[{"tag":"LiveMusic"}],"city":"Coburg, VIC","name":"Hume Blues Club","url":"https://beat.com.au/directory/hume-blues-club/"}},{"geo":{"lat":-37.8812165,"lon":145.29395013905977},"venue":{"address":"2 Francis Cres\r\nFerntree Gully VIC 3156","categories":[{"tag":"LiveMusic"},{"tag":"EventVenue"}],"city":"Ferntree Gully, VIC","name":"IFTI Community Hub","url":"https://beat.com.au/directory/ifti-community-hub/"}},{"geo":{"lat":-37.7647794,"lon":144.9026724},"venue":{"address":"180 Holmes Road\r\nAberfeldie VIC 3040","categories":[{"contents":"Galleries","tag":"OtherVenue"}],"city":"Aberfeldie, VIC","name":"Incinerator Gallery","url":"https://beat.com.au/directory/incinerator-gallery/"}},{"geo":{"lat":-37.8188809,"lon":144.9571785},"venue":{"address":"60 King St\r\nMelbourne VIC 3000","categories":[{"tag":"Bar"}],"city":"Melbourne","name":"Inflation Entertainment Complex","url":"https://beat.com.au/directory/inflation-entertainment-complex/"}},{"geo":{"lat":-37.8663447,"lon":144.9981428},"venue":{"address":"375 Inkerman Street\r\nSt Kilda East VIC 3183","categories":[{"tag":"Pub"}],"city":"St Kilda East, VIC","name":"Inkerman Hotel","url":"https://beat.com.au/directory/inkerman-hotel/"}},{"geo":{"lat":-37.6753105,"lon":145.5076444},"venue":{"address":"316-334 Maroondah Hwy\r\nHealesville VIC 3777","categories":[{"tag":"Brewery"}],"city":"Healesville, VIC","name":"Innocent Bystander","url":"https://beat.com.au/directory/innocent-bystander/"}},{"geo":{"lat":-37.8259910867647,"lon":145.00166645441175},"venue":{"address":"269 Swan Street\r\nRichmond VIC 3121","categories":[{"tag":"Bar"},{"tag":"LiveMusic"}],"city":"Richmond, VIC","name":"Jimmy Hornet","url":"https://beat.com.au/directory/jimmy-hornet/"}},{"geo":{"lat":-37.8230652,"lon":144.9762123},"venue":{"address":"Olympic Blvd\r\nMelbourne VIC 3001","categories":[{"tag":"EventVenue"}],"city":"VIC","name":"John Cain Arena","url":"https://beat.com.au/directory/john-cain-arena/"}},{"geo":{"lat":-37.8576363,"lon":144.9922889},"venue":{"address":"17 Chapel St\r\nWindsor VIC 3181","categories":[{"tag":"Bar"}],"city":"Windsor, VIC","name":"John Doe","url":"https://beat.com.au/directory/john-doe/"}},{"geo":{"lat":-37.8484979,"lon":144.9857515},"venue":{"address":"157-159 Greville Street\r\nPrahran VIC 3181","categories":[{"tag":"Bar"},{"tag":"Club"},{"tag":"EventVenue"},{"tag":"LiveMusic"}],"city":"Prahran, VIC","name":"Jono's Piano Bar","url":"https://beat.com.au/directory/jonos-piano-bar/"}},{"geo":{"lat":-37.7994887,"lon":144.9882379},"venue":{"address":"101 Johnston St\r\nCollingwood VIC 3066","categories":[{"contents":"","tag":"OtherVenue"}],"city":"Collingwood, VIC","name":"Just Another Agency","url":"https://beat.com.au/directory/just-another-agency/"}},{"geo":{"lat":-37.808919,"lon":144.9580736},"venue":{"address":"79-81 Franklin St\r\nMelbourne VIC 3000","categories":[{"contents":"","tag":"OtherVenue"}],"city":"VIC","name":"Kadampa Meditation Centre Melbourne","url":"https://beat.com.au/directory/kadampa-meditation-centre-melbourne/"}},{"geo":{"lat":-37.9110679,"lon":145.1077503},"venue":{"address":"27 Hume St, Huntingdale VIC 3166","categories":[{"contents":"","tag":"OtherVenue"}],"city":null,"name":"Kaiju Cantina","url":"https://beat.com.au/directory/kaiju-cantina/"}},{"geo":{"lat":-37.798248,"lon":144.976498},"venue":{"address":"56 Johnston St\r\nFitzroy VIC 3065","categories":[{"tag":"Bar"},{"tag":"LiveMusic"}],"city":"Fitzroy, VIC","name":"Kanela Bar","url":"https://beat.com.au/directory/kanela-bar/"}},{"geo":{"lat":-27.600177,"lon":152.8711962},"venue":{"address":"1 Kerwick Street\r\nRedbank QLD 4301","categories":[{"tag":"Pub"}],"city":"QLD","name":"Kerwick Hotel","url":"https://beat.com.au/directory/kerwick-hotel/"}},{"geo":{"lat":-37.8073947,"lon":145.0293642},"venue":{"address":"186 High St\r\nKew VIC 3101","categories":[{"tag":"TheatreVenue"},{"tag":"LiveMusic"}],"city":"Kew","name":"Kew Court House","url":"https://beat.com.au/directory/kew-court-house/"}},{"geo":{"lat":-37.8143273,"lon":144.9616012},"venue":{"address":"43 Hardware Ln\r\nMelbourne VIC 3000","categories":[{"tag":"Club"},{"tag":"EventVenue"},{"tag":"LiveMusic"}],"city":"Melbourne, VIC","name":"Khokolat Bar","url":"https://beat.com.au/directory/khokolat-bar/"}},{"geo":{"lat":-37.8115247,"lon":144.90043927513608},"venue":{"address":"3 Harris Street\r\nFootscray VIC 3011","categories":[{"tag":"EventVenue"},{"tag":"LiveMusic"}],"city":"Footscray, VIC","name":"Kindred Bandroom","url":"https://beat.com.au/directory/kindred-studios/"}},{"geo":{"lat":-37.9409048,"lon":145.0399431},"venue":{"address":"979-985 Nepean Hwy\r\nMoorabbin VIC 3189","categories":[{"tag":"EventVenue"}],"city":"Moorabbin, VIC","name":"Kingston City Hall","url":"https://beat.com.au/directory/kingston-city-hall/"}},{"geo":{"lat":-37.815525199999996,"lon":144.9556294},"venue":{"address":"577 Little Bourke St\r\nMelbourne VIC 3000","categories":[{"tag":"Bar"},{"tag":"Club"}],"city":"Melbourne, VIC","name":"La Di Da","url":"https://beat.com.au/directory/la-di-da/"}},{"geo":{"lat":-37.7977034,"lon":144.9687111},"venue":{"address":"349 Drummond St \r\nCarlton VIC 3053","categories":[{"tag":"TheatreVenue"}],"city":"Carlton, VIC","name":"La Mama Theatre","url":"https://beat.com.au/directory/la-mama-theatre/"}},{"geo":{"lat":-37.7967357,"lon":144.9787445},"venue":{"address":"197A Brunswick St\r\nFitzroy VIC 3065","categories":[{"tag":"Bar"},{"tag":"LiveMusic"}],"city":"Fitzroy, VIC","name":"Labour in Vain","url":"https://beat.com.au/directory/labour-in-vain/"}},{"geo":{"lat":-37.7983139,"lon":144.9764962},"venue":{"address":"50 Johnston St\r\nFitzroy VIC 3065","categories":[{"tag":"Bar"},{"tag":"Club"},{"tag":"LiveMusic"}],"city":"Fitzroy, VIC","name":"Laundry Bar","url":"https://beat.com.au/directory/laundry-bar/"}},{"geo":{"lat":-37.8552822,"lon":145.0190529},"venue":{"address":"926 High St\r\nArmadale VIC 3143","categories":[{"tag":"EventVenue"}],"city":"Armadale, VIC","name":"Le Plonc","url":"https://beat.com.au/directory/le-plonc/"}},{"geo":{"lat":-37.8107158,"lon":145.0008148},"venue":{"address":"1 Church St\r\nRichmond VIC 3121","categories":[{"tag":"Pub"}],"city":"Richmond, VIC","name":"Leadbeater Hotel","url":"https://beat.com.au/directory/leadbeater-hotel/"}},{"geo":{"lat":-37.8205529,"lon":145.0355738},"venue":{"address":"675 Glenferrie Rd\r\nHawthorn VIC 3122","categories":[{"tag":"LiveMusic"}],"city":"Hawthorn, VIC","name":"Lido Jazz Room","url":"https://beat.com.au/directory/lido-jazz-room/"}},{"geo":{"lat":-37.865052,"lon":144.976647},"venue":{"address":"26 Acland St\r\nSt Kilda VIC 3182","categories":[{"contents":"","tag":"OtherVenue"}],"city":"St Kilda, VIC","name":"Linden New Art","url":"https://beat.com.au/directory/linden-new-art/"}},{"geo":{"lat":-38.1654387,"lon":144.3615344},"venue":{"address":"221 Swanston St\r\nGeelong VIC 3220","categories":[{"tag":"Brewery"}],"city":"Geelong, VIC","name":"Little Creatures Brewery","url":"https://beat.com.au/directory/little-creatures-brewery/"}},{"geo":{"lat":-37.8090286,"lon":144.9633226},"venue":{"address":"1/401 Swanston St\r\nMelbourne VIC 3000","categories":[{"tag":"Bar"},{"tag":"Pub"}],"city":"Melbourne, VIC","name":"Little Jax","url":"https://beat.com.au/directory/little-jax/"}},{"geo":{"lat":-37.791624,"lon":144.9874091},"venue":{"address":"3 Hilton Street\r\nClifton Hill 3068","categories":[{"tag":"Bar"},{"tag":"Brewery"}],"city":"Clifton Hill, VIC","name":"Local Brewing Co. Taproom","url":"https://beat.com.au/directory/local-brewing-co-taproom/"}},{"geo":{"lat":-37.78037286666667,"lon":144.98655006666667},"venue":{"address":"318 St Georges Rd\r\nFitzroy North VIC 3068","categories":[{"tag":"EventVenue"}],"city":"Fitzroy North, VIC","name":"LongPlay","url":"https://beat.com.au/directory/longplay/"}},{"geo":{"lat":-37.8121163,"lon":144.9721574},"venue":{"address":"23 Meyers Pl\r\nMelbourne VIC 3000","categories":[{"tag":"Bar"},{"tag":"Club"},{"tag":"LiveMusic"}],"city":"Melbourne, VIC","name":"Loop Project Space & Bar","url":"https://beat.com.au/directory/loop-project-space-bar/"}},{"geo":{"lat":-37.8603685,"lon":144.9824689},"venue":{"address":"211 Barkly Street\r\nSt Kilda VIC 3182","categories":[{"tag":"Bar"}],"city":"St Kilda, VIC","name":"Lost","url":"https://beat.com.au/directory/lost/"}},{"geo":{"lat":-37.8576363,"lon":144.9922889},"venue":{"address":"179 Chapel St\r\nWindsor VIC 3181","categories":[{"tag":"Bar"},{"tag":"Club"},{"tag":"LiveMusic"}],"city":"Windsor, VIC","name":"Lucky Coq","url":"https://beat.com.au/directory/lucky-coq/"}},{"geo":{"lat":-37.759035275,"lon":145.0003746},"venue":{"address":"719 High St\r\nThornbury VIC 3071","categories":[{"tag":"Bar"}],"city":"Thornbury, VIC","name":"Lucky Schmuck","url":"https://beat.com.au/directory/lucky-schmuck/"}},{"geo":{"lat":-37.8000264,"lon":144.9936498},"venue":{"address":"225 Johnston St\r\nAbbotsford VIC 3067","categories":[{"tag":"Bar"}],"city":"Abbotsford, VIC","name":"Lulie Tavern","url":"https://beat.com.au/directory/lulie-tavern/"}},{"geo":{"lat":-37.8766692,"lon":144.9970761},"venue":{"address":"61 Glen Eira Rd\r\nRipponlea VIC 3185","categories":[{"tag":"EventVenue"}],"city":"Ripponlea, VIC","name":"Lyrebird Lounge","url":"https://beat.com.au/directory/lyrebird-lounge/"}},{"geo":{"lat":-37.8054274,"lon":144.8971518},"venue":{"address":"42A Albert Street\r\nFootscray VIC 3011","categories":[{"tag":"Bar"},{"tag":"EventVenue"},{"tag":"LiveMusic"},{"tag":"Pub"}],"city":"Footscray, VIC","name":"Mamma Chen's","url":"https://beat.com.au/directory/mamma-chens/"}},{"geo":{"lat":-37.8215459,"lon":144.8943833},"venue":{"address":"10A Campbell St, Yarraville VIC","categories":[{"tag":"Bar"},{"tag":"LiveMusic"}],"city":"Yarraville","name":"Mantra Studio","url":"https://beat.com.au/directory/mantra-studio/"}},{"geo":{"lat":-37.8230652,"lon":144.9762123},"venue":{"address":"Olympic Blvd\r\nMelbourne VIC 3001","categories":[{"tag":"LiveMusic"}],"city":"Melbourne, VIC","name":"Margaret Court Arena","url":"https://beat.com.au/directory/margaret-court-arena/"}},{"geo":{"lat":-37.7846093,"lon":144.985579},"venue":{"address":"1 Mark St\r\nFitzroy North VIC 3068","categories":[{"tag":"EventVenue"}],"city":"Fitzroy North, VIC","name":"Mark Street Hall","url":"https://beat.com.au/directory/mark-street-hall/"}},{"geo":{"lat":-37.816529,"lon":144.94751697668812},"venue":{"address":"740 Bourke St\r\nDocklands VIC 3008","categories":[{"tag":"EventVenue"},{"tag":"LiveMusic"}],"city":"Docklands, VIC","name":"Marvel Stadium","url":"https://beat.com.au/directory/marvel-stadium/"}},{"geo":{"lat":-37.8764952,"lon":145.0918914},"venue":{"address":"667 Warrigal Rd\r\nChadstone VIC 3148","categories":[{"tag":"Bar"},{"tag":"LiveMusic"}],"city":"Chadstone, VIC","name":"Matthew Flinders Hotel","url":"https://beat.com.au/directory/matthew-flinders-hotel/"}},{"geo":{"lat":-37.8147557,"lon":144.9659879},"venue":{"address":"125 Swanston St\r\nMelbourne VIC 3000","categories":[{"tag":"LiveMusic"}],"city":"VIC","name":"Max Watt's (Melbourne)","url":"https://beat.com.au/directory/max-watts-melbourne/"}},{"geo":{"lat":-38.1563795,"lon":145.170557},"venue":{"address":"390 McClelland Drive\r\nLangwarrin VIC 3910","categories":[{"contents":"Café","tag":"OtherVenue"},{"contents":"Galleries","tag":"OtherVenue"}],"city":"Langwarrin, VIC","name":"McClelland Sculpture Park + Gallery","url":"https://beat.com.au/directory/mcclelland-sculpture-park-gallery/"}},{"geo":{"lat":-37.8141094,"lon":144.9677371},"venue":{"address":"195 Little Collins St\r\nMelbourne VIC 3000","categories":[{"contents":"","tag":"OtherVenue"}],"city":"Melbourne, VIC","name":"Meatmaiden","url":"https://beat.com.au/directory/meatmaiden/"}},{"geo":{"lat":-37.8230652,"lon":144.9762123},"venue":{"address":"Olympic Blvd\r\nMelbourne VIC 3001","categories":[{"tag":"LiveMusic"}],"city":"Melbourne, VIC","name":"Melbourne Arena","url":"https://beat.com.au/directory/melbourne-arena/"}},{"geo":{"lat":-37.8253749,"lon":144.9509539},"venue":{"address":"1 Convention Centre Place\r\nSouth Wharf VIC 3006","categories":[{"tag":"TheatreVenue"},{"tag":"EventVenue"},{"tag":"LiveMusic"}],"city":"Melbourne, VIC","name":"Melbourne Convention & Exhibition Centre (MCEC)","url":"https://beat.com.au/directory/melbourne-convention-exhibition-centre-mcec/"}},{"geo":{"lat":-37.8016691,"lon":144.95436919999997},"venue":{"address":"3 Blackwood Street\r\nNorth Melbourne VIC 3051","categories":[{"contents":"","tag":"OtherVenue"}],"city":"VIC","name":"Melbourne Meat Market","url":"https://beat.com.au/directory/melbourne-meat-market/"}},{"geo":{"lat":-37.82454855,"lon":144.96741062735794},"venue":{"address":"31 Sturt St\r\nSouthbank VIC 3006","categories":[{"tag":"LiveMusic"}],"city":"Southbank, VIC","name":"Melbourne Recital Centre","url":"https://beat.com.au/directory/melbourne-recital-centre/"}},{"geo":{"lat":-37.7785907,"lon":144.9128416},"venue":{"address":"Epsom Rd, Ascot Vale","categories":[{"contents":"","tag":"OtherVenue"}],"city":"VIC","name":"Melbourne Showgrounds","url":"https://beat.com.au/directory/melbourne-showgrounds/"}},{"geo":{"lat":-37.8073581,"lon":144.9627231},"venue":{"address":"90-130 Swanston St\r\nMelbourne VIC 3000","categories":[{"tag":"EventVenue"},{"tag":"FestivalVenue"}],"city":"Melbourne, VIC","name":"Melbourne Town Hall","url":"https://beat.com.au/directory/melbourne-town-hall/"}},{"geo":{"lat":-37.7894762,"lon":144.9426559},"venue":{"address":"Elliott Ave\r\nParkville VIC 3052","categories":[{"contents":"","tag":"OtherVenue"}],"city":"Parkville, VIC","name":"Melbourne Zoo","url":"https://beat.com.au/directory/melbourne-zoo/"}},{"geo":{"lat":-37.8671902,"lon":144.9786817},"venue":{"address":"88 Acland St\r\nSt Kilda VIC 3182","categories":[{"tag":"LiveMusic"}],"city":"St Kilda, VIC","name":"Memo Music Hall","url":"https://beat.com.au/directory/memo-music-hall/"}},{"geo":{"lat":-37.9078552,"lon":145.3553553},"venue":{"address":"65-71 Monbulk Road\r\nBelgrave VIC 3160","categories":[{"tag":"Bar"},{"tag":"EventVenue"},{"tag":"LiveMusic"},{"tag":"Pub"}],"city":"Belgrave, VIC","name":"Micawber Tavern","url":"https://beat.com.au/directory/micawber-tavern/"}},{"geo":{"lat":-38.026568,"lon":145.1316386},"venue":{"address":"4 Springvale Rd\r\nAspendale Gardens VIC 3195","categories":[{"contents":"","tag":"OtherVenue"}],"city":"Aspendale Gardens, VIC","name":"Michelangelo’s Italian Restaurant","url":"https://beat.com.au/directory/michelangelos-italian-restaurant/"}},{"geo":{"lat":-37.8090286,"lon":144.9633226},"venue":{"address":"2/401 Swanston St\r\nMelbourne VIC 3004","categories":[{"tag":"Bar"},{"tag":"Club"}],"city":"Melbourne, VIC","name":"Miscellania","url":"https://beat.com.au/directory/miscellania/"}},{"geo":{"lat":-37.7635382,"lon":144.9625908},"venue":{"address":"581 Sydney Rd\r\nBrunswick VIC 3056","categories":[{"tag":"Bar"}],"city":"Brunswick, VIC","name":"Miss Moses","url":"https://beat.com.au/directory/miss-moses/"}},{"geo":{"lat":-37.7125259,"lon":145.1496717},"venue":{"address":"1/70 Commercial Pl\r\nEltham VIC 3095","categories":[{"tag":"Bar"},{"tag":"LiveMusic"},{"contents":"Café","tag":"OtherVenue"}],"city":"Eltham, VIC","name":"Missing Gorilla","url":"https://beat.com.au/directory/missing-gorilla/"}},{"geo":{"lat":-37.8218152,"lon":144.9529694},"venue":{"address":"717 Flinders St\r\nDocklands VIC 3008","categories":[{"tag":"EventVenue"}],"city":"Docklands, VIC","name":"Mission to Seafarers","url":"https://beat.com.au/directory/mission-to-seafarers/"}},{"geo":{"lat":-37.7277749,"lon":145.1538674},"venue":{"address":"7 Hillcrest Avenue\r\nEltham VIC 3095","categories":[{"contents":"Galleries","tag":"OtherVenue"},{"tag":"EventVenue"},{"tag":"LiveMusic"},{"tag":"FestivalVenue"}],"city":"Eltham, VIC","name":"Montsalvat Arts Centre","url":"https://beat.com.au/directory/montsalvat-arts-centre/"}},{"geo":{"lat":-42.7351815,"lon":147.2542381},"venue":{"address":"76a Cove Hill Rd\r\nBridgewater TAS 7030","categories":[{"tag":"Bar"},{"tag":"EventVenue"},{"tag":"Pub"},{"tag":"Brewery"}],"city":"TAS","name":"Moo Brew Brewery","url":"https://beat.com.au/directory/moo-brew-brewery/"}},{"geo":{"lat":-37.812902,"lon":144.9712356},"venue":{"address":"120 Exhibition St\r\nMelbourne VIC 3000","categories":[{"tag":"Bar"},{"tag":"Club"},{"tag":"LiveMusic"}],"city":"Melbourne, VIC","name":"Morris House","url":"https://beat.com.au/directory/morris-house/"}},{"geo":{"lat":-37.8576363,"lon":144.9922889},"venue":{"address":"163 Chapel St\r\nWindsor VIC 3181","categories":[{"tag":"Bar"}],"city":"Windsor, VIC","name":"Morris Jones","url":"https://beat.com.au/directory/morris-jones/"}},{"geo":{"lat":-37.8142454,"lon":144.9631732},"venue":{"address":"Melbourne VIC 3004","categories":[{"tag":"FestivalVenue"}],"city":"Melbourne, VIC","name":"MPavilion","url":"https://beat.com.au/directory/mpavilion/"}},{"geo":{"lat":-37.80245,"lon":144.99295304614787},"venue":{"address":"160 Hoddle St\r\nAbbotsford VIC 3067","categories":[{"tag":"Bar"},{"tag":"LiveMusic"}],"city":"Abbotsford, VIC","name":"Mr Boogie Man BAR","url":"https://beat.com.au/directory/mr-boogie-man-bar/"}},{"geo":{"lat":-37.84186895,"lon":144.93626746591582},"venue":{"address":"67 Beach St\r\nPort Melbourne VIC 3207","categories":[{"tag":"Pub"}],"city":"Port Melbourne, VIC","name":"Mr. Lawrence","url":"https://beat.com.au/directory/mr-lawrence/"}},{"geo":{"lat":-38.06835165,"lon":145.14231700698247},"venue":{"address":"Shop 4/21 Thompson Rd\r\nPatterson Lakes VIC 3197","categories":[{"contents":"Café","tag":"OtherVenue"}],"city":"Patterson Lakes, VIC","name":"Mr Patterson Café","url":"https://beat.com.au/directory/mr-patterson-cafe/"}},{"geo":{"lat":-37.7030049,"lon":144.9604365},"venue":{"address":"1359 Sydney Rd\r\nFawkner VIC 3060","categories":[{"contents":"","tag":"OtherVenue"}],"city":"Fawkner, VIC","name":"MusicLand Fawkner Music Complex","url":"https://beat.com.au/directory/musicland-fawkner-music-complex/"}},{"geo":{"lat":-37.7581924,"lon":144.96348855000002},"venue":{"address":"791 Sydney Rd\r\nBrunswick VIC 3056","categories":[{"tag":"Club"}],"city":"Brunswick, VIC","name":"My Aeon","url":"https://beat.com.au/directory/my-aeon/"}},{"geo":{"lat":-37.757249,"lon":144.9796096},"venue":{"address":"Factory 1\r\n10-12 Moreland Road\r\nBrunswick East VIC 3057","categories":[{"contents":"","tag":"OtherVenue"}],"city":"Brunswick East, VIC","name":"Mycelium Studios","url":"https://beat.com.au/directory/mycelium-studios/"}},{"geo":{"lat":-37.6917258,"lon":145.4129639},"venue":{"address":"10 St Huberts Rd\r\nColdstream VIC 3770","categories":[{"tag":"Brewery"}],"city":"Coldstream, VIC","name":"Napoleone Cider","url":"https://beat.com.au/directory/napoleone-cider/"}},{"geo":{"lat":-33.513442850000004,"lon":151.33416410262225},"venue":{"address":"5 Broken Bay Rd\r\nEttalong Beach NSW 2257","categories":[{"tag":"Bar"},{"tag":"Club"},{"tag":"EventVenue"},{"tag":"LiveMusic"},{"tag":"TheatreVenue"}],"city":"NSW","name":"Naughty Noodle Fun Haus","url":"https://beat.com.au/directory/naughty-noodle-fun-haus/"}},{"geo":{"lat":-37.8552822,"lon":145.0190529},"venue":{"address":"1013 High Street, Armadale VIC 3143","categories":[{"contents":"","tag":"OtherVenue"}],"city":"Armadale, VIC","name":"NEUW Denim","url":"https://beat.com.au/directory/neuw-denim/"}},{"geo":{"lat":-37.80624775,"lon":144.98331211946754},"venue":{"address":"64 Smith St\r\nCollingwood VIC 3000","categories":[{"tag":"Bar"},{"tag":"Club"}],"city":"VIC","name":"New Guernica","url":"https://beat.com.au/directory/new-guernica/"}},{"geo":{"lat":-37.8439028,"lon":144.8823845},"venue":{"address":"4 Market St\r\nNewport VIC 3015","categories":[{"tag":"EventVenue"}],"city":"Newport, VIC","name":"Newport Bowling Club","url":"https://beat.com.au/directory/newport-bowling-club/"}},{"geo":{"lat":-37.82266345,"lon":144.96892412239615},"venue":{"address":"180 St Kilda Rd\r\nMelbourne VIC 3006","categories":[{"tag":"EventVenue"}],"city":"Melbourne, VIC","name":"NGV - National Gallery of Victoria","url":"https://beat.com.au/directory/ngv-national-gallery-of-victoria/"}},{"geo":{"lat":-37.7988316,"lon":144.9830837},"venue":{"address":"137-141 Johnston St\r\nFitzroy VIC 3065","categories":[{"tag":"Bar"},{"tag":"Club"},{"tag":"EventVenue"},{"tag":"LiveMusic"}],"city":"Fitzroy, VIC","name":"The Night Cat","url":"https://beat.com.au/directory/night-cat/"}},{"geo":{"lat":-37.7989941,"lon":144.9846126},"venue":{"address":"136 Johnston St\r\nCollingwood VIC 3066","categories":[{"tag":"Bar"},{"tag":"LiveMusic"}],"city":"Collingwood, VIC","name":"Nighthawks","url":"https://beat.com.au/directory/nighthawks/"}},{"geo":{"lat":-37.7801461,"lon":144.9807148},"venue":{"address":"296 Rae St\r\nFitzroy North VIC 3068","categories":[{"tag":"Pub"}],"city":"Fitzroy North, VIC","name":"North Fitzroy Arms Hotel","url":"https://beat.com.au/directory/north-fitzroy-arms-hotel/"}},{"geo":{"lat":-37.771471,"lon":144.998414},"venue":{"address":"301 High St\r\nNorthcote VIC 3070","categories":[{"tag":"Bar"},{"tag":"LiveMusic"},{"tag":"Pub"}],"city":"Northcote, VIC","name":"Northcote Social Club","url":"https://beat.com.au/directory/northcote-social-club/"}},{"geo":{"lat":-37.7755001,"lon":144.9977626},"venue":{"address":"216 High St\r\nNorthcote VIC 3070","categories":[{"tag":"TheatreVenue"}],"city":"Northcote, VIC","name":"Northcote Theatre","url":"https://beat.com.au/directory/northcote-theatre/"}},{"geo":{"lat":-37.7745111,"lon":144.9976902},"venue":{"address":"189 High St\r\nNorthcote VIC 3070","categories":[{"tag":"EventVenue"},{"tag":"FestivalVenue"},{"tag":"TheatreVenue"}],"city":"Northcote, VIC","name":"Northcote Town Hall","url":"https://beat.com.au/directory/northcote-town-hall/"}},{"geo":{"lat":-37.9013397,"lon":145.1431149},"venue":{"address":"260-262 Ferntree Gully Rd\r\nNotting Hill VIC 3168","categories":[{"tag":"LiveMusic"},{"tag":"Pub"}],"city":"Notting Hill, VIC","name":"Notting Hill Hotel","url":"https://beat.com.au/directory/notting-hill-hotel/"}},{"geo":{"lat":-37.896857600000004,"lon":145.08963741959553},"venue":{"address":"95-97 Drummond St\r\nOakleigh VIC 3166","categories":[{"tag":"Pub"}],"city":"Oakleigh, VIC","name":"Oakleigh-Carnegie RSL","url":"https://beat.com.au/directory/oakleigh-carnegie-rsl/"}},{"geo":{"lat":-37.896857600000004,"lon":145.08963741959553},"venue":{"address":"95-97 Drummond St\r\nOakleigh VIC 3166","categories":[{"tag":"Bar"},{"tag":"Club"},{"tag":"EventVenue"},{"tag":"LiveMusic"}],"city":"Oakleigh, VIC","name":"Oakleigh Lounge","url":"https://beat.com.au/directory/oakleigh-lounge/"}},{"geo":{"lat":-37.7991326,"lon":144.9870526},"venue":{"address":"66B Johnston Street\r\nCollingwood VIC 3066","categories":[{"contents":"","tag":"OtherVenue"}],"city":"Collingwood, VIC","name":"Off The Kerb Gallery","url":"https://beat.com.au/directory/off-the-kerb-gallery/"}},{"geo":{"lat":-37.79833,"lon":144.97711},"venue":{"address":"74-76 Johnston St\r\nFitzroy VIC 3065","categories":[{"tag":"Bar"},{"tag":"LiveMusic"}],"city":"Fitzroy, VIC","name":"Old Bar","url":"https://beat.com.au/directory/old-bar/"}},{"geo":{"lat":-38.0541174,"lon":145.3334666},"venue":{"address":"34 Homestead Rd\r\nBerwick VIC 3806","categories":[{"contents":"","tag":"OtherVenue"}],"city":"Berwick, VIC","name":"Old Cheese Factory","url":"https://beat.com.au/directory/old-cheese-factory/"}},{"geo":{"lat":-37.7956786,"lon":144.979077},"venue":{"address":"384 Brunswick St\r\nFitzroy VIC 3065","categories":[{"tag":"Bar"}],"city":"Fitzroy, VIC","name":"Old Plates Record Bar","url":"https://beat.com.au/directory/old-plates-record-bar/"}},{"geo":{"lat":-37.7482449625,"lon":145.00252165},"venue":{"address":"104 High St\r\nPreston VIC 3072","categories":[{"tag":"Bar"},{"tag":"EventVenue"}],"city":"Preston, VIC","name":"Oliva Social","url":"https://beat.com.au/directory/oliva-social/"}},{"geo":{"lat":-37.7892833,"lon":144.9901391},"venue":{"address":"123 Queens Parade\r\nClifton Hill VIC 3068","categories":[{"tag":"Bar"}],"city":"Clifton Hill, VIC","name":"One2Three Bar","url":"https://beat.com.au/directory/one2three-bar/"}},{"geo":{"lat":-37.8525949,"lon":144.9988348},"venue":{"address":"161 High St\r\nPrahran VIC 3181","categories":[{"tag":"Bar"},{"tag":"Club"},{"tag":"LiveMusic"}],"city":"Prahran, VIC","name":"OneSixOne","url":"https://beat.com.au/directory/onesixone/"}},{"geo":{"lat":-37.9034875,"lon":145.0389348701852},"venue":{"address":"483 North Rd\r\nOrmond VIC 3204","categories":[{"tag":"Bar"},{"tag":"LiveMusic"},{"tag":"Pub"}],"city":"Ormond, VIC","name":"OnTop Bar","url":"https://beat.com.au/directory/ontop-bar/"}},{"geo":{"lat":-37.7742773,"lon":144.9981771},"venue":{"address":"204 High St\r\nNorthcote VIC 3070","categories":[{"tag":"Bar"},{"tag":"LiveMusic"}],"city":"Northcote, VIC","name":"Open Studio","url":"https://beat.com.au/directory/open-studio/"}},{"geo":{"lat":-33.8712876,"lon":151.2229519},"venue":{"address":"162 Victoria St\r\nPotts Point NSW 2011","categories":[{"contents":"","tag":"OtherVenue"}],"city":"Sydney, NSW","name":"Original Backpackers","url":"https://beat.com.au/directory/original-backpackers/"}},{"geo":{"lat":-37.098624,"lon":145.0582095},"venue":{"address":"210 Tallarook-Pyalong Rd\r\nTallarook VIC 3659","categories":[{"tag":"LiveMusic"}],"city":"Tallarook, VIC","name":"Our Friend's Farm","url":"https://beat.com.au/directory/our-friends-farm/"}},{"geo":{"lat":-37.839624,"lon":144.9955753},"venue":{"address":"Toorak Rd & Chapel St\r\nSouth Yarra VIC 3141","categories":[{"tag":"TheatreVenue"}],"city":"South Yarra, VIC","name":"Palace Cinema Como","url":"https://beat.com.au/directory/palace-cinema-como/"}},{"geo":{"lat":-37.8667078,"lon":144.9750196},"venue":{"address":"Lower Esplanade, St Kilda VIC","categories":[{"tag":"EventVenue"},{"tag":"LiveMusic"}],"city":"Port Melbourne","name":"Palace Foreshore","url":"https://beat.com.au/directory/palace-foreshore/"}},{"geo":{"lat":-37.3102809,"lon":144.1374536},"venue":{"address":"111 Main Rd\r\nHepburn Springs VIC 3461","categories":[{"tag":"Bar"},{"tag":"EventVenue"},{"tag":"LiveMusic"},{"tag":"TheatreVenue"}],"city":"Hepburn Springs, VIC","name":"Palais-Hepburn","url":"https://beat.com.au/directory/palais-hepburn/"}},{"geo":{"lat":-37.867583041643705,"lon":144.97609011199125},"venue":{"address":"Cnr Lower Esplanade and Cavell St\r\nSt Kilda VIC 3182","categories":[{"tag":"EventVenue"},{"tag":"LiveMusic"}],"city":"St Kilda, VIC","name":"Palais Theatre","url":"https://beat.com.au/directory/palais-theatre/"}},{"geo":{"lat":-37.8138494,"lon":144.9610097},"venue":{"address":"401 Little Bourke St\r\nMelbourne VIC 3000","categories":[{"tag":"Bar"}],"city":"Melbourne, VIC","name":"Palermo","url":"https://beat.com.au/directory/palermo/"}},{"geo":{"lat":-37.8132486,"lon":144.9605705},"venue":{"address":"6 Goldie Pl\r\nMelbourne VIC 3000","categories":[{"tag":"LiveMusic"}],"city":"Melbourne, VIC","name":"Paris Cat Jazz Club","url":"https://beat.com.au/directory/paris-cat-jazz-club/"}},{"geo":{"lat":-37.7170812,"lon":144.9408625},"venue":{"address":"40 Cumberland Rd\r\nPascoe Vale VIC 3044","categories":[{"tag":"LiveMusic"},{"tag":"Pub"}],"city":"Pascoe Vale, VIC","name":"Pascoe Vale RSL","url":"https://beat.com.au/directory/pascoe-vale-rsl/"}},{"geo":{"lat":-37.8687733,"lon":144.9935226},"venue":{"address":"268 Carlisle St\r\nBalaclava VIC 3183","categories":[{"tag":"Bar"},{"tag":"LiveMusic"}],"city":"Balaclava, VIC","name":"Pause Bar","url":"https://beat.com.au/directory/pause-bar/"}},{"geo":{"lat":-37.8484979,"lon":144.9857515},"venue":{"address":"177 Greville St\r\nPrahran VIC 3181","categories":[{"tag":"Bar"},{"tag":"EventVenue"}],"city":"Prahran, VIC","name":"Pawn & Co.","url":"https://beat.com.au/directory/pawn-co/"}},{"geo":{"lat":-37.7679857,"lon":144.9622},"venue":{"address":"420 Sydney Rd\r\nBrunswick VIC 3056","categories":[{"tag":"Bar"},{"tag":"LiveMusic"},{"tag":"Pub"}],"city":"Brunswick, VIC","name":"NONO","url":"https://beat.com.au/directory/penny-black/"}},{"geo":{"lat":-37.8014757,"lon":144.97817073839508},"venue":{"address":"196 Brunswick St\r\nFitzroy VIC 3065","categories":[{"tag":"Pub"}],"city":"Fitzroy, VIC","name":"Perseverance Hotel","url":"https://beat.com.au/directory/perseverance-hotel/"}},{"geo":{"lat":-37.8126385,"lon":144.9724818},"venue":{"address":"530 Little Collins Street\r\nMelbourne VIC 3000","categories":[{"tag":"EventVenue"}],"city":"Melbourne, VIC","name":"Pho Nung Vietnamese Restaurant","url":"https://beat.com.au/directory/pho-nung-vietnamese-restaurant/"}},{"geo":{"lat":-37.8284751,"lon":144.9254729},"venue":{"address":"1 Thackray Rd, Port Melbourne VIC 3207","categories":[{"tag":"EventVenue"},{"tag":"LiveMusic"}],"city":"Port Melbourne","name":"PICA (Port Melbourne Industrial Centre for the Arts)","url":"https://beat.com.au/directory/pica-port-melbourne-industrial-centre-for-the-arts/"}},{"geo":{"lat":-38.1471263,"lon":145.1244456},"venue":{"address":"1 Davey St\r\nFrankston VIC 3199","categories":[{"tag":"LiveMusic"}],"city":"Frankston, VIC","name":"Pier Bandroom","url":"https://beat.com.au/directory/pier-bandroom/"}},{"geo":{"lat":-38.1449481,"lon":145.119855},"venue":{"address":"508 Nepean Hwy\r\nFrankston VIC 3199","categories":[{"tag":"LiveMusic"},{"tag":"Bar"}],"city":"Frankston, VIC","name":"Pier Hotel","url":"https://beat.com.au/directory/pier-hotel/"}},{"geo":{"lat":-38.2678631,"lon":144.5216998},"venue":{"address":"6/63A The Terrace\r\nOcean Grove VIC 3226","categories":[{"tag":"LiveMusic"}],"city":"Ocean Grove, VIC","name":"Piping Hot Chicken and Burger Grill","url":"https://beat.com.au/directory/piping-hot-chicken-and-burger-grill/"}},{"geo":{"lat":-38.1479235,"lon":144.35956680903413},"venue":{"address":"93 Little Malop St\r\nGeelong VIC 3220","categories":[{"tag":"Pub"}],"city":"VIC","name":"Pistol Pete's Food n Blues","url":"https://beat.com.au/directory/pistol-petes-food-n-blues/"}},{"geo":{"lat":-37.815497,"lon":144.967598},"venue":{"address":"191 Collins St\r\nMelbourne VIC 3000","categories":[{"tag":"EventVenue"}],"city":"Melbourne, VIC","name":"Plaza Ballroom","url":"https://beat.com.au/directory/plaza-ballroom/"}},{"geo":{"lat":-37.8253749,"lon":144.9509539},"venue":{"address":"1 Convention Centre Pl\r\nSouth Wharf VIC 3006","categories":[{"tag":"TheatreVenue"}],"city":"VIC","name":"Plenary Theatre","url":"https://beat.com.au/directory/plenary-theatre/"}},{"geo":{"lat":-37.825990273529406,"lon":145.0016586088235},"venue":{"address":"267 Swan Street\r\nRichmond VIC 3121","categories":[{"tag":"Bar"},{"tag":"Club"},{"tag":"EventVenue"},{"tag":"LiveMusic"}],"city":"Richmond, VIC","name":"POME","url":"https://beat.com.au/directory/pome/"}},{"geo":{"lat":-37.7534967,"lon":144.9644769},"venue":{"address":"229-231 Sydney Rd\r\nCoburg VIC 3058","categories":[{"tag":"LiveMusic"},{"tag":"Pub"}],"city":"Coburg, VIC","name":"Post Office Hotel","url":"https://beat.com.au/directory/post-office-hotel/"}},{"geo":{"lat":-37.79990865,"lon":144.90239079583333},"venue":{"address":"1/86-88 Hopkins St\r\nFootscray VIC 3011","categories":[{"tag":"Bar"},{"tag":"Club"},{"tag":"EventVenue"},{"tag":"LiveMusic"}],"city":"Footscray, VIC","name":"Pride Of Our Footscray Community Bar","url":"https://beat.com.au/directory/pride-of-our-footscray-community-bar/"}},{"geo":{"lat":-37.8402429,"lon":144.9408908},"venue":{"address":"355 Bay St, Port Melbourne VIC","categories":[{"tag":"LiveMusic"},{"tag":"Pub"}],"city":"Port Melbourne","name":"Prince Alfred Hotel","url":"https://beat.com.au/directory/prince-alfred-hotel/"}},{"geo":{"lat":-37.8567825,"lon":144.9828155},"venue":{"address":"29 Fitzroy St\r\nSt Kilda VIC 3182","categories":[{"tag":"Bar"},{"tag":"Club"},{"tag":"LiveMusic"}],"city":"St Kilda, VIC","name":"Prince Bandroom","url":"https://beat.com.au/directory/prince-bandroom/"}},{"geo":{"lat":-37.7557014,"lon":145.6742114},"venue":{"address":"3488 Warburton Hwy\r\nWarburton VIC 3799","categories":[{"tag":"EventVenue"}],"city":"Warburton, VIC","name":"Projekt 3488","url":"https://beat.com.au/directory/projekt-3488/"}},{"geo":{"lat":-33.877444049999994,"lon":151.2026992299754},"venue":{"address":"17 Little Pier St\r\nDarling Harbour NSW 2000","categories":[{"tag":"Bar"},{"tag":"EventVenue"},{"tag":"LiveMusic"},{"tag":"Pub"}],"city":"Sydney, NSW","name":"Pumphouse Sydney","url":"https://beat.com.au/directory/pumphouse-sydney/"}},{"geo":{"lat":-37.8108831,"lon":144.9713487},"venue":{"address":"43 Little Bourke St\r\nMelbourne VIC 3000","categories":[{"tag":"Bar"}],"city":"Melbourne, VIC","name":"Punch Lane","url":"https://beat.com.au/directory/punch-lane/"}},{"geo":{"lat":-37.8085963,"lon":144.9603456},"venue":{"address":"Corner of Elizabeth & Victoria Street\r\nMelbourne VIC 3000","categories":[{"contents":"","tag":"OtherVenue"}],"city":"Melbourne, VIC","name":"Queen Vic Market","url":"https://beat.com.au/directory/queen-vic-market/"}},{"geo":{"lat":-37.8123214,"lon":144.9647713},"venue":{"address":"Level 1/243 Swanston St\r\nMelbourne VIC 3000","categories":[{"tag":"Bar"},{"tag":"Club"}],"city":"VIC","name":"Radar Bar & Nightclub","url":"https://beat.com.au/directory/radar-bar-nightclub/"}},{"geo":{"lat":-37.7967357,"lon":144.9787445},"venue":{"address":"357 Brunswick St\r\nFitzroy VIC 3065","categories":[{"tag":"Bar"},{"tag":"LiveMusic"}],"city":"Fitzroy, VIC","name":"Radio Bar","url":"https://beat.com.au/directory/radio-bar/"}},{"geo":{"lat":-37.7310367,"lon":145.0142411},"venue":{"address":"206 Tyler St\r\nPreston VIC 3072","categories":[{"tag":"Bar"},{"tag":"EventVenue"}],"city":"Preston, VIC","name":"Ragtime Tavern","url":"https://beat.com.au/directory/ragtime-tavern/"}},{"geo":{"lat":-37.8389903,"lon":144.9916498},"venue":{"address":"163 Toorak Rd\r\nSouth Yarra VIC 3141","categories":[{"tag":"LiveMusic"},{"tag":"Bar"}],"city":"South Yarra, VIC","name":"Rah Bar","url":"https://beat.com.au/directory/rah-bar/"}},{"geo":{"lat":-37.8353661,"lon":144.95578885531654},"venue":{"address":"280 Ferrars St\r\nSouth Melbourne VIC 3205","categories":[{"tag":"Pub"}],"city":"South Melbourne, VIC","name":"Railway Hotel (South Melbourne)","url":"https://beat.com.au/directory/railway-hotel-south-melbourne/"}},{"geo":{"lat":-37.7930866,"lon":144.9758032},"venue":{"address":"800 Nicholson St\r\nFitzroy North VIC 3068","categories":[{"tag":"Bar"},{"tag":"Pub"}],"city":"Fitzroy North, VIC","name":"Railway Hotel","url":"https://beat.com.au/directory/railway-hotel/"}},{"geo":{"lat":-37.748589623076924,"lon":145.0039717846154},"venue":{"address":"93 Plenty Rd\r\nPreston VIC 3072","categories":[{"tag":"Bar"}],"city":"Preston, VIC","name":"Rebel Rebel","url":"https://beat.com.au/directory/rebel-rebel/"}},{"geo":{"lat":-37.7688516,"lon":144.9618215},"venue":{"address":"859a Sydney Rd\r\nBrunswick VIC 3056","categories":[{"tag":"Bar"},{"tag":"LiveMusic"}],"city":"Brunswick, VIC","name":"Red Betty","url":"https://beat.com.au/directory/red-betty/"}},{"geo":{"lat":-37.815185,"lon":144.9615696},"venue":{"address":"27 McKillop St\r\nMelbourne VIC 3000","categories":[{"contents":"","tag":"OtherVenue"}],"city":"Melbourne, VIC","name":"Red Spice QV","url":"https://beat.com.au/directory/red-spice-qv/"}},{"geo":{"lat":-37.815497,"lon":144.967598},"venue":{"address":"191 Collins St\r\nMelbourne VIC 3000","categories":[{"tag":"TheatreVenue"}],"city":"Melbourne, VIC","name":"Regent Theatre","url":"https://beat.com.au/directory/regent-theatre/"}},{"geo":{"lat":-37.7711432,"lon":144.9615882},"venue":{"address":"280 Sydney Rd\r\nBrunswick VIC 3056","categories":[{"tag":"Pub"},{"tag":"LiveMusic"}],"city":"Brunswick, VIC","name":"Retreat Hotel","url":"https://beat.com.au/directory/retreat-hotel/"}},{"geo":{"lat":-37.6677464,"lon":144.9608789},"venue":{"address":"30A Colbert Rd\r\nCampbellfield VIC 3061","categories":[{"contents":"Café","tag":"OtherVenue"}],"city":"Campbellfield, VIC","name":"Reverence Coffee Roasters","url":"https://beat.com.au/directory/reverence-coffee-roasters/"}},{"geo":{"lat":-37.8506652,"lon":144.993413},"venue":{"address":"229 Chapel St\r\nPrahran VIC 3181","categories":[{"contents":"","tag":"OtherVenue"}],"city":"Prahran, VIC","name":"Revolver Upstairs","url":"https://beat.com.au/directory/revolver-upstairs/"}},{"geo":{"lat":-37.818416299999996,"lon":145.0008425574423},"venue":{"address":"333 Bridge Road\r\nRichmond VIC 3121","categories":[{"contents":"","tag":"OtherVenue"}],"city":"Richmond, VIC","name":"Richmond Town Hall","url":"https://beat.com.au/directory/richmond-town-hall/"}},{"geo":{"lat":-37.7617818,"lon":144.9631913},"venue":{"address":"666 Sydney Rd\r\nBrunswick VIC 3056","categories":[{"tag":"Bar"}],"city":"Brunswick, VIC","name":"Ringo Barr","url":"https://beat.com.au/directory/ringo-barr/"}},{"geo":{"lat":-37.8770056,"lon":144.997997},"venue":{"address":"192 Hotham St\r\nElsternwick VIC 3185","categories":[{"contents":"","tag":"OtherVenue"}],"city":"Elsternwick, VIC","name":"Rippon Lea Estate","url":"https://beat.com.au/directory/rippon-lea-estate/"}},{"geo":{"lat":-37.8360786,"lon":144.9666355},"venue":{"address":"2 Raglan Street\r\nSouth Melbourne VIC 3205","categories":[{"tag":"Pub"}],"city":"South Melbourne, VIC","name":"Rising Sun Hotel","url":"https://beat.com.au/directory/rising-sun-hotel/"}},{"geo":{"lat":-37.8230652,"lon":144.9762123},"venue":{"address":"Olympic Blvd\r\nMelbourne VIC 3001","categories":[{"tag":"LiveMusic"}],"city":"Melbourne, VIC","name":"Rod Laver Arena","url":"https://beat.com.au/directory/rod-laver-arena/"}},{"geo":{"lat":-37.7959296,"lon":144.9772234},"venue":{"address":"60 Rose St\r\nFitzroy VIC 3065","categories":[{"contents":"","tag":"OtherVenue"}],"city":"Fitzroy, VIC","name":"The Rose St Market","url":"https://beat.com.au/directory/rose-street-market/"}},{"geo":{"lat":-37.9220954,"lon":144.9878631},"venue":{"address":"253 Esplanade\r\nBrighton VIC 3186","categories":[{"tag":"Club"}],"city":"Brighton, VIC","name":"Royal Brighton Yacht Club","url":"https://beat.com.au/directory/royal-brighton-yacht-club/"}},{"geo":{"lat":-37.804666850000004,"lon":144.9714669305319},"venue":{"address":"9 Nicholson St\r\nCarlton VIC 3053","categories":[{"tag":"EventVenue"},{"tag":"TheatreVenue"}],"city":"Carlton, VIC","name":"Royal Exhibition Building","url":"https://beat.com.au/directory/royal-exhibition-building/"}},{"geo":{"lat":-37.7555559,"lon":144.9172318},"venue":{"address":"873 Mt Alexander Rd\r\nEssendon VIC 3040","categories":[{"tag":"Bar"},{"tag":"Pub"}],"city":"Essendon, VIC","name":"Royal Hotel (Essendon)","url":"https://beat.com.au/directory/royal-hotel-essendon/"}},{"geo":{"lat":-38.2185087,"lon":145.0335739},"venue":{"address":"770 Esplanade\r\nMornington VIC 3931","categories":[{"tag":"LiveMusic"},{"tag":"Pub"}],"city":"Mornington, VIC","name":"Royal Hotel (Mornington)","url":"https://beat.com.au/directory/royal-hotel-mornington/"}},{"geo":{"lat":-37.8167994,"lon":144.9552063},"venue":{"address":"629 Bourke St\r\nMelbourne VIC 3000","categories":[{"tag":"Bar"},{"tag":"EventVenue"}],"city":"Melbourne, VIC","name":"Royal Melbourne Hotel","url":"https://beat.com.au/directory/royal-melbourne-hotel/"}},{"geo":{"lat":-37.7930866,"lon":144.9758032},"venue":{"address":"442 Nicholson St\r\nFitzroy North VIC 3068","categories":[{"tag":"Pub"}],"city":"Fitzroy North, VIC","name":"Royal Oak Hotel","url":"https://beat.com.au/directory/royal-oak-hotel/"}},{"geo":{"lat":-37.7702892,"lon":144.9607481},"venue":{"address":"36 Phoenix St Brunswick\r\nMelbourne VIC 3056","categories":[{"tag":"Club"},{"tag":"EventVenue"},{"tag":"LiveMusic"}],"city":"Brunswick, VIC","name":"Rubix Warehouse","url":"https://beat.com.au/directory/rubix-warehouse/"}},{"geo":{"lat":-38.5210861,"lon":145.3686991},"venue":{"address":"145 Marine Parade\r\nSan Remo VIC 3925","categories":[{"tag":"Pub"}],"city":"San Remo, VIC","name":"San Remo Hotel-Motel","url":"https://beat.com.au/directory/san-remo-hotel/"}},{"geo":{"lat":-37.8120541,"lon":144.9722144},"venue":{"address":"14 Meyers Pl\r\nMelbourne VIC 3000","categories":[{"contents":"","tag":"OtherVenue"}],"city":"Melbourne, VIC","name":"San Telmo","url":"https://beat.com.au/directory/san-telmo/"}},{"geo":{"lat":-37.9336286,"lon":145.0389339},"venue":{"address":"630 South Rd\r\nMoorabbin VIC 3189","categories":[{"tag":"Bar"},{"tag":"EventVenue"},{"tag":"Pub"}],"city":"Moorabbin, VIC","name":"Sandbelt Club Hotel","url":"https://beat.com.au/directory/sandbelt-club-hotel/"}},{"geo":{"lat":-38.1017104,"lon":145.126086},"venue":{"address":"6R Broughton St\r\nSeaford VIC 3198","categories":[{"tag":"EventVenue"}],"city":"Seaford, VIC","name":"Seaford Community Centre","url":"https://beat.com.au/directory/seaford-community-centre/"}},{"geo":{"lat":-37.8634293,"lon":144.9069007},"venue":{"address":"82 Nelson Pl\r\nWilliamstown VIC 3016","categories":[{"contents":"","tag":"OtherVenue"}],"city":"Williamstown, VIC","name":"Seaworks Maritime Precinct","url":"https://beat.com.au/directory/seaworks-maritime-precinct/"}},{"geo":{"lat":-37.8117457,"lon":144.965405},"venue":{"address":"27-29 Tattersalls Ln\r\nMelbourne VIC 3000","categories":[{"tag":"Bar"},{"tag":"Club"}],"city":"Melbourne, VIC","name":"Section 8","url":"https://beat.com.au/directory/section-8/"}},{"geo":{"lat":-37.75592655,"lon":145.001392343033},"venue":{"address":"744 High St\r\nThornbury VIC 3071","categories":[{"tag":"Bar"}],"city":"VIC","name":"Shotkickers","url":"https://beat.com.au/directory/shotkickers/"}},{"geo":{"lat":-37.806551,"lon":144.983129},"venue":{"address":"60 Smith Street\r\nCollingwood VIC 3066","categories":[{"tag":"Bar"},{"tag":"Club"}],"city":"Collingwood, VIC","name":"SiBar","url":"https://beat.com.au/directory/sibar/"}},{"geo":{"lat":-38.0025723,"lon":145.0840384},"venue":{"address":"501-505 Main Street\r\nMordialloc VIC 3195","categories":[{"tag":"Bar"}],"city":"Mordialloc, VIC","name":"Side Street Lounge","url":"https://beat.com.au/directory/side-street-lounge/"}},{"geo":{"lat":-37.823819181966286,"lon":144.9746525926778},"venue":{"address":"Kings Domain Gardens, Linlithgow Ave\r\nMelbourne VIC 3000","categories":[{"tag":"LiveMusic"},{"tag":"TheatreVenue"}],"city":"Melbourne, VIC","name":"Sidney Myer Music Bowl","url":"https://beat.com.au/directory/sidney-myer-music-bowl/"}},{"geo":{"lat":-37.7686253,"lon":144.9609797},"venue":{"address":"271-273 Albert St\r\nBrunswick VIC 3056","categories":[{"tag":"EventVenue"}],"city":"Brunswick, VIC","name":"Small Time Group","url":"https://beat.com.au/directory/small-time-group/"}},{"geo":{"lat":-37.785666,"lon":144.8836392},"venue":{"address":"01 Rosamond Road\r\nMaribyrnong VIC 3032","categories":[{"tag":"Pub"}],"city":"Maribyrnong, VIC","name":"Smokehouse 101","url":"https://beat.com.au/directory/smokehouse-101/"}},{"geo":{"lat":-37.7892833,"lon":144.9901391},"venue":{"address":"123 Queens Parade\r\nClifton Hill VIC 3068","categories":[{"tag":"Bar"},{"tag":"LiveMusic"}],"city":"Clifton Hill, VIC","name":"Some Velvet Morning","url":"https://beat.com.au/directory/some-velvet-morning/"}},{"geo":{"lat":-37.7310146,"lon":145.0143731},"venue":{"address":"647 Plenty Rd\r\nPreston VIC 3072","categories":[{"contents":"","tag":"OtherVenue"}],"city":"Preston, VIC","name":"Sonny’s Bottega","url":"https://beat.com.au/directory/sonnys-bottega/"}},{"geo":{"lat":-37.9100746,"lon":145.35345070507591},"venue":{"address":"1648 Burwood Hwy\r\nBelgrave VIC 3160","categories":[{"tag":"LiveMusic"},{"tag":"Pub"}],"city":"Belgrave, VIC","name":"Sooki Lounge","url":"https://beat.com.au/directory/sooki-lounge/"}},{"geo":{"lat":-38.3614528,"lon":144.8844988},"venue":{"address":"1625 Point Nepean Rd\r\nCapel Sound VIC 3940","categories":[{"tag":"Bar"},{"tag":"EventVenue"},{"tag":"LiveMusic"}],"city":"Capel Sound, VIC","name":"Sound Bar","url":"https://beat.com.au/directory/sound-bar/"}},{"geo":{"lat":-37.910125,"lon":145.0306252},"venue":{"address":"224 McKinnon Road\r\nMcKinnon VIC 3204","categories":[{"contents":"","tag":"OtherVenue"}],"city":"McKinnon, VIC","name":"Sound Gallery","url":"https://beat.com.au/directory/sound-gallery/"}},{"geo":{"lat":-37.5892718,"lon":144.7160817},"venue":{"address":"1/11 McDougall Rd\r\nSunbury VIC 3429","categories":[{"tag":"Bar"}],"city":"Sunbury, VIC","name":"Sound System Studios","url":"https://beat.com.au/directory/sound-system-studios/"}},{"geo":{"lat":-37.7587219,"lon":145.0849279},"venue":{"address":"9-15 Templestowe Road\r\nBulleen VIC 3105","categories":[{"tag":"EventVenue"},{"tag":"LiveMusic"}],"city":"VIC","name":"Soundgarden Music Club","url":"https://beat.com.au/directory/soundgarden-music-club/"}},{"geo":{"lat":-37.8241554,"lon":144.96813688533382},"venue":{"address":"140 Southbank Blvd\r\nSouthbank VIC 3006","categories":[{"tag":"TheatreVenue"}],"city":"Southbank, VIC","name":"Southbank Theatre","url":"https://beat.com.au/directory/southbank-theatre/"}},{"geo":{"lat":-37.820348,"lon":144.9569204},"venue":{"address":"522 Flinders St\r\nMelbourne VIC 3000","categories":[{"tag":"TheatreVenue"}],"city":"VIC","name":"Speakeasy Theatre","url":"https://beat.com.au/directory/speakeasy-theatre/"}},{"geo":{"lat":-37.8567825,"lon":144.9828155},"venue":{"address":"66 Fitzroy St\r\nSt Kilda VIC 3182","categories":[{"tag":"EventVenue"}],"city":"St Kilda, VIC","name":"St Kilda Sports Club","url":"https://beat.com.au/directory/st-kilda-sports-club/"}},{"geo":{"lat":-37.7209835,"lon":145.1472448},"venue":{"address":"81 Pitt St\r\nEltham VIC 3095","categories":[{"contents":"","tag":"OtherVenue"}],"city":"Eltham, VIC","name":"St Margaret's Anglican Church","url":"https://beat.com.au/directory/st-margarets-anglican-church/"}},{"geo":{"lat":-37.8987585,"lon":145.23014707476773},"venue":{"address":"2/5 Lynton Pl\r\nScoresby VIC 3178","categories":[{"contents":"","tag":"OtherVenue"}],"city":"Scoresby, VIC","name":"Stanley Burgers","url":"https://beat.com.au/directory/stanley-burgers/"}},{"geo":{"lat":-37.809769599999996,"lon":144.96553516995195},"venue":{"address":"328 Swanston St\r\nMelbourne VIC 3000","categories":[{"contents":"","tag":"OtherVenue"}],"city":"Melbourne, VIC","name":"State Library Victoria","url":"https://beat.com.au/directory/state-library-victoria/"}},{"geo":{"lat":-37.7743469,"lon":144.9607404},"venue":{"address":"133 Sydney Rd\r\nBrunswick VIC 3056","categories":[{"tag":"Bar"},{"tag":"LiveMusic"}],"city":"Brunswick, VIC","name":"Stay Gold","url":"https://beat.com.au/directory/stay-gold/"}},{"geo":{"lat":-37.8098002,"lon":144.9715321},"venue":{"address":"185 Lonsdale St\r\nMelbourne VIC 3000","categories":[{"tag":"Bar"}],"city":"Melbourne, VIC","name":"StoryVille","url":"https://beat.com.au/directory/storyville/"}},{"geo":{"lat":-37.85887175,"lon":144.97704253427435},"venue":{"address":"11b/60 Fitzroy St\r\nSt Kilda VIC 3182","categories":[{"contents":"Galleries","tag":"OtherVenue"}],"city":"St Kilda, VIC","name":"Stranger Gallery & Studio","url":"https://beat.com.au/directory/stranger-gallery-studio/"}},{"geo":{"lat":-33.8252964,"lon":151.2008931},"venue":{"address":"116 Willoughby Rd\r\nCrows Nest NSW 2065","categories":[{"contents":"","tag":"OtherVenue"}],"city":"Sydney, NSW","name":"Street Market (NSW)","url":"https://beat.com.au/directory/street-market/"}},{"geo":{"lat":-37.8178113,"lon":144.9643523},"venue":{"address":"Flinders Ct\r\nMelbourne VIC 3000","categories":[{"tag":"Club"}],"city":"Melbourne, VIC","name":"Sub Club","url":"https://beat.com.au/directory/sub-club/"}},{"geo":{"lat":-37.798248,"lon":144.976498},"venue":{"address":"56 Johnston Street\r\nFitzroy VIC 3065","categories":[{"tag":"Bar"}],"city":"Fitzroy, VIC","name":"Sugar Glider","url":"https://beat.com.au/directory/sugar-glider/"}},{"geo":{"lat":-38.0089151,"lon":145.0874778},"venue":{"address":"212 Bay Trail\r\nMordialloc VIC 3195","categories":[{"tag":"Club"}],"city":"Mordialloc, VIC","name":"SunnyBoy Beach Club","url":"https://beat.com.au/directory/sunnyboy-beach-club/"}},{"geo":{"lat":-37.75592655,"lon":145.001392343033},"venue":{"address":"744 High St\r\nThornbury VIC 3071","categories":[{"tag":"Bar"},{"tag":"LiveMusic"}],"city":"Thornbury, VIC","name":"Swamplands Bar","url":"https://beat.com.au/directory/swamplands-bar/"}},{"geo":{"lat":-37.8463775,"lon":144.99042},"venue":{"address":"153 Commercial Rd\r\nSouth Yarra VIC 3141","categories":[{"tag":"Bar"}],"city":"South Yarra, VIC","name":"Talk to Me Bar","url":"https://beat.com.au/directory/talk-to-me-bar/"}},{"geo":{"lat":-37.8431403,"lon":144.9948802},"venue":{"address":"426 Chapel St.\r\nSouth Yarra VIC 3141","categories":[{"tag":"LiveMusic"},{"tag":"Pub"}],"city":"South Yarra, VIC","name":"Temperance Hotel","url":"https://beat.com.au/directory/temperance-hotel/"}},{"geo":{"lat":-37.7620426,"lon":144.9617907},"venue":{"address":"34 Breese St\r\nBrunswick VIC 3056","categories":[{"tag":"Bar"},{"tag":"LiveMusic"}],"city":"Brunswick, VIC","name":"Tempo Rubato","url":"https://beat.com.au/directory/tempo-rubato-2/"}},{"geo":{"lat":-37.8328514,"lon":144.9523349},"venue":{"address":"172 York St, South Melbourne VIC 3205","categories":[{"tag":"Club"},{"tag":"Pub"}],"city":"South Melbourne","name":"The Albion Rooftop & Club","url":"https://beat.com.au/directory/the-albion-rooftop-club/"}},{"geo":{"lat":-37.7783326,"lon":144.9706095},"venue":{"address":"80 Lygon St\r\nBrunswick East VIC 3057","categories":[{"tag":"Bar"},{"tag":"LiveMusic"}],"city":"Brunswick East, VIC","name":"The Beast","url":"https://beat.com.au/directory/the-b-east/"}},{"geo":{"lat":-37.8150816,"lon":144.9642459},"venue":{"address":"24 Block Pl\r\nMelbourne VIC 3000","categories":[{"tag":"LiveMusic"}],"city":"Melbourne, VIC","name":"The Basement Discs","url":"https://beat.com.au/directory/the-basement-discs/"}},{"geo":{"lat":-37.7762687,"lon":144.960725},"venue":{"address":"68 Sydney Rd\r\nBrunswick VIC 3056","categories":[{"tag":"Bar"}],"city":"Brunswick, VIC","name":"The Bergy Seltzer","url":"https://beat.com.au/directory/the-bergy-seltzer/"}},{"geo":{"lat":-37.8240427,"lon":144.9536545},"venue":{"address":"23 S Wharf Promenade\r\nSouth Wharf VIC 3006","categories":[{"tag":"Bar"},{"tag":"EventVenue"}],"city":"VIC","name":"The Boatbuilders Yard","url":"https://beat.com.au/directory/the-boatbuilders-yard/"}},{"geo":{"lat":-37.804781,"lon":144.977216},"venue":{"address":"83 Brunswick St\r\nFitzroy VIC 3065","categories":[{"tag":"EventVenue"}],"city":"Fitzroy, VIC","name":"The Burrow","url":"https://beat.com.au/directory/the-burrow/"}},{"geo":{"lat":-37.815011,"lon":144.9651227},"venue":{"address":"5 Carson Place\r\nMelbourne VIC 3000","categories":[{"tag":"TheatreVenue"},{"tag":"FestivalVenue"},{"tag":"Bar"},{"tag":"EventVenue"}],"city":"Melbourne","name":"The Butterfly Club","url":"https://beat.com.au/directory/the-butterfly-club/"}},{"geo":{"lat":-37.7608913,"lon":145.0988661},"venue":{"address":"113 Swanston St\r\nMelbourne VIC 3000","categories":[{"tag":"TheatreVenue"}],"city":"Melbourne, VIC","name":"The Capitol (RMIT)","url":"https://beat.com.au/directory/the-capitol-rmit/"}},{"geo":{"lat":-37.813096,"lon":144.9676453},"venue":{"address":"193 Bourke St\r\nMelbourne VIC 3000","categories":[{"tag":"Bar"},{"tag":"Club"},{"tag":"LiveMusic"}],"city":"Melbourne, VIC","name":"The Carlton Club","url":"https://beat.com.au/directory/the-carlton/"}},{"geo":{"lat":-37.8071561,"lon":144.9918686},"venue":{"address":"228 Langridge St\r\nAbbotsford VIC 3067","categories":[{"tag":"Pub"}],"city":"Abbotsford, VIC","name":"The Carringbush Hotel","url":"https://beat.com.au/directory/the-carringbush-hotel/"}},{"geo":{"lat":-37.805788500000006,"lon":144.97515565},"venue":{"address":"30 Gertrude St\r\nFitzroy VIC 3065","categories":[{"tag":"Bar"},{"tag":"LiveMusic"}],"city":"Fitzroy, VIC","name":"The Catfish","url":"https://beat.com.au/directory/the-catfish/"}},{"geo":{"lat":-37.8044987,"lon":144.9495319},"venue":{"address":"26 Errol St\r\nNorth Melbourne VIC 3051","categories":[{"tag":"Bar"},{"tag":"Club"}],"city":"North Melbourne, VIC","name":"The Comic's Lounge","url":"https://beat.com.au/directory/the-comics-lounge/"}},{"geo":{"lat":-37.8074223,"lon":144.9688742},"venue":{"address":"282 Exhibition St\r\nMelbourne VIC 3000","categories":[{"tag":"Pub"}],"city":"Melbourne, VIC","name":"The Coopers Inn","url":"https://beat.com.au/directory/the-coopers-inn/"}},{"geo":{"lat":-37.8345462,"lon":144.94639242913667},"venue":{"address":"1 Crockford St, Port Melbourne VIC 3207","categories":[{"tag":"LiveMusic"},{"tag":"Pub"}],"city":"Port Melbourne","name":"The Cornerstone","url":"https://beat.com.au/directory/the-cornerstone/"}},{"geo":{"lat":-38.0400055,"lon":145.1447877},"venue":{"address":"170 Riverend Rd\r\nBangholme VIC 3175","categories":[{"tag":"EventVenue"}],"city":null,"name":"The Craft & Co Farm","url":"https://beat.com.au/directory/the-craft-co-farm/"}},{"geo":{"lat":-37.8136466,"lon":144.9682102},"venue":{"address":"127 Russell St\r\nMelbourne VIC 3000","categories":[{"tag":"Brewery"}],"city":"Melbourne, VIC","name":"The Crafty Squire","url":"https://beat.com.au/directory/the-crafty-squire/"}},{"geo":{"lat":-37.8120888,"lon":144.9691113},"venue":{"address":"21 Croft Alley\r\nMelbourne VIC 3000","categories":[{"tag":"EventVenue"}],"city":"Melbourne, VIC","name":"The Croft Institute","url":"https://beat.com.au/directory/the-croft-institute/"}},{"geo":{"lat":-37.8614311,"lon":144.9742284},"venue":{"address":"14 Fitzroy Street\r\nSt Kilda VIC 3182","categories":[{"tag":"Bar"}],"city":"St Kilda, VIC","name":"The Cross","url":"https://beat.com.au/directory/the-cross/"}},{"geo":{"lat":-37.762376950000004,"lon":144.99959550357977},"venue":{"address":"607 High St\r\nThornbury VIC 3071","categories":[{"tag":"LiveMusic"}],"city":"Thornbury, VIC","name":"The Croxton","url":"https://beat.com.au/directory/the-croxton/"}},{"geo":{"lat":-37.8061581,"lon":144.9657057},"venue":{"address":"29 Lygon St\r\nCarlton VIC 3053","categories":[{"tag":"Bar"},{"tag":"LiveMusic"}],"city":"Carlton, VIC","name":"The Curtin","url":"https://beat.com.au/directory/the-curtin/"}},{"geo":{"lat":-37.8133906,"lon":144.937505},"venue":{"address":"440 Docklands Drive\r\nDocklands VIC 3008","categories":[{"contents":"","tag":"OtherVenue"}],"city":"Docklands, VIC","name":"The District Docklands","url":"https://beat.com.au/directory/the-district-docklands/"}},{"geo":{"lat":-37.8066759,"lon":144.9555612},"venue":{"address":"65 Peel St\r\nWest Melbourne VIC 3003","categories":[{"tag":"LiveMusic"},{"tag":"Pub"}],"city":"West Melbourne, VIC","name":"The Drunken Poet","url":"https://beat.com.au/directory/the-drunken-poet/"}},{"geo":{"lat":-37.811917,"lon":144.970217},"venue":{"address":"94-96 Bourke St\r\nMelbourne VIC 3000","categories":[{"tag":"LiveMusic"},{"tag":"Pub"}],"city":"Melbourne, VIC","name":"The Elephant and Wheelbarrow","url":"https://beat.com.au/directory/the-elephant-and-wheelbarrow/"}},{"geo":{"lat":-31.9466817,"lon":115.8643082},"venue":{"address":"191 Beaufort St\r\nPerth WA 6000","categories":[{"contents":"","tag":"OtherVenue"}],"city":"Perth, WA","name":"The Ellington Jazz Club","url":"https://beat.com.au/directory/the-ellington-jazz-club/"}},{"geo":{"lat":-37.8354094,"lon":144.9616864},"venue":{"address":"415 Clarendon St, South Melbourne VIC 3205","categories":[{"tag":"LiveMusic"},{"tag":"Pub"}],"city":"South Melbourne","name":"The Emerald Hotel","url":"https://beat.com.au/directory/the-emerald-hotel/"}},{"geo":{"lat":-37.8115275,"lon":144.9655203},"venue":{"address":"233 Lonsdale St\r\nMelbourne VIC 3000","categories":[{"tag":"Bar"},{"tag":"LiveMusic"}],"city":"Melbourne, VIC","name":"The Emerald Peacock","url":"https://beat.com.au/directory/the-emerald-peacock/"}},{"geo":{"lat":-37.8463775,"lon":144.99042},"venue":{"address":"145 Commercial Rd\r\nSouth Yarra","categories":[{"tag":"Bar"},{"tag":"Club"}],"city":"South Yarra, VIC","name":"The Emerson","url":"https://beat.com.au/directory/the-emerson/"}},{"geo":{"lat":-37.8402429,"lon":144.9408908},"venue":{"address":"39 Bay St, Port Melbourne VIC 3207","categories":[{"tag":"LiveMusic"},{"tag":"Pub"}],"city":"Port Melbourne","name":"The Exchange Hotel","url":"https://beat.com.au/directory/the-exchange-hotel/"}},{"geo":{"lat":-37.85887175,"lon":144.97704253427435},"venue":{"address":"3/60 Fitzroy St, St Kilda VIC","categories":[{"tag":"LiveMusic"},{"tag":"Pub"}],"city":"St Kilda","name":"The Fifth Province","url":"https://beat.com.au/directory/the-fifth-province/"}},{"geo":{"lat":-37.8062207,"lon":144.9825807},"venue":{"address":"243/245 Gertrude St\r\nFitzroy VIC 3065","categories":[{"tag":"Bar"},{"tag":"Pub"}],"city":"Fitzroy, VIC","name":"The Fitzroy Beer Garden","url":"https://beat.com.au/directory/the-fitzroy-beer-garden/"}},{"geo":{"lat":-37.7827901,"lon":144.9840598},"venue":{"address":"251 St Georges Rd\r\nFitzroy North VIC 3068","categories":[{"tag":"Bar"},{"tag":"LiveMusic"},{"tag":"Pub"}],"city":"Fitzroy North, VIC","name":"The Fitzroy Pinnacle","url":"https://beat.com.au/directory/the-fitzroy-pinnacle/"}},{"geo":{"lat":-37.7945395,"lon":144.98797584284364},"venue":{"address":"351 Wellington St\r\nCollingwood VIC 3066","categories":[{"tag":"Bar"},{"tag":"LiveMusic"},{"tag":"Pub"}],"city":"Collingwood, VIC","name":"The Fox Hotel","url":"https://beat.com.au/directory/the-fox-hotel/"}},{"geo":{"lat":-37.8154393,"lon":144.9715781},"venue":{"address":"2 Malthouse Ln\r\nMelbourne VIC 3000","categories":[{"contents":"","tag":"OtherVenue"}],"city":"Melbourne, VIC","name":"The French Brasserie","url":"https://beat.com.au/directory/the-french-brasserie/"}},{"geo":{"lat":-37.8653305,"lon":144.9910701},"venue":{"address":"34 Inkerman St\r\nSt Kilda VIC 3182","categories":[{"tag":"LiveMusic"},{"tag":"Bar"}],"city":"St Kilda, VIC","name":"The Fyrefly","url":"https://beat.com.au/directory/the-fyrefly/"}},{"geo":{"lat":-37.4722766,"lon":144.2968174},"venue":{"address":"189 Simmons Reef Rd\r\nBlackwood VIC 3458","categories":[{"contents":"","tag":"OtherVenue"}],"city":"Blackwood, VIC","name":"The Garden of St Erth","url":"https://beat.com.au/directory/the-garden-of-st-erth/"}},{"geo":{"lat":-37.8567825,"lon":144.9828155},"venue":{"address":"Basement/127 Fitzroy St, St Kilda VIC 3182","categories":[{"tag":"LiveMusic"},{"tag":"Pub"}],"city":"St Kilda","name":"The George Lounge","url":"https://beat.com.au/directory/the-george-lounge/"}},{"geo":{"lat":-37.8190194,"lon":144.9545555},"venue":{"address":"162-168 Collins St\r\nMelbourne VIC 3000","categories":[{"tag":"Bar"}],"city":"Melbourne, VIC","name":"The George On Collins","url":"https://beat.com.au/directory/the-george-on-collins/"}},{"geo":{"lat":-37.9505927,"lon":145.0034466},"venue":{"address":"19-21 Melrose Street \r\nSandringham VIC 3191","categories":[{"tag":"Pub"}],"city":"Sandringham, VIC","name":"The Hobson Stores","url":"https://beat.com.au/directory/the-hobson-stores/"}},{"geo":{"lat":-37.798965,"lon":144.9854369},"venue":{"address":"20 Johnston Street\r\nCollingwood VIC 3066","categories":[{"tag":"LiveMusic"}],"city":"Collingwood, VIC","name":"The Horn African Cafe & Restaurant","url":"https://beat.com.au/directory/the-horn-african-cafe-restaurant/"}},{"geo":{"lat":-37.91372355,"lon":145.13337431967784},"venue":{"address":"48 Exhibition Walk\r\nClayton VIC 3800","categories":[{"tag":"TheatreVenue"}],"city":"Clayton, VIC","name":"The Ian Potter Centre for Performing Arts","url":"https://beat.com.au/directory/the-ian-potter-centre-for-performing-arts/"}},{"geo":{"lat":-37.8121675,"lon":144.9720579},"venue":{"address":"1/19 Meyers Pl\r\nMelbourne VIC 3000","categories":[{"tag":"TheatreVenue"}],"city":"VIC","name":"The Improv Conspiracy","url":"https://beat.com.au/directory/the-improv-conspiracy/"}},{"geo":{"lat":-37.73195965,"lon":144.95216827702365},"venue":{"address":"5-7 Louvain St\r\nCoburg North VIC 3058","categories":[{"tag":"EventVenue"}],"city":"VIC","name":"The Industrique","url":"https://beat.com.au/directory/the-industrique/"}},{"geo":{"lat":-37.7669571,"lon":144.958676},"venue":{"address":"27 Leslie St\r\nBrunswick VIC 3056","categories":[{"tag":"LiveMusic"}],"city":"Brunswick, VIC","name":"The Jazzlab","url":"https://beat.com.au/directory/the-jazzlab/"}},{"geo":{"lat":-37.815675150000004,"lon":144.98323249011264},"venue":{"address":"192 Wellington Parade\r\nEast Melbourne VIC 3002","categories":[{"contents":"Galleries","tag":"OtherVenue"}],"city":"Melbourne, VIC","name":"The Johnston Collection","url":"https://beat.com.au/directory/the-johnston-collection/"}},{"geo":{"lat":-37.8174426,"lon":144.9643336},"venue":{"address":"35 Elizabeth St\r\nMelbourne VIC 3000","categories":[{"tag":"Bar"}],"city":"Melbourne, VIC","name":"The Joint","url":"https://beat.com.au/directory/the-joint/"}},{"geo":{"lat":-37.7468183,"lon":145.0058527},"venue":{"address":"Unit 1/188 Plenty Rd\r\nPreston VIC 3072","categories":[{"tag":"Bar"}],"city":"Preston, VIC","name":"The Keys","url":"https://beat.com.au/directory/the-keys/"}},{"geo":{"lat":-37.8813252,"lon":144.9916954},"venue":{"address":"164A Tennyson St\r\nElwood VIC 3184","categories":[{"tag":"EventVenue"}],"city":"VIC","name":"The King of Tonga","url":"https://beat.com.au/directory/the-king-of-tonga/"}},{"geo":{"lat":-37.8059962,"lon":144.9585654},"venue":{"address":"238 Victoria St\r\nNorth Melbourne VIC 3051","categories":[{"tag":"LiveMusic"}],"city":"North Melbourne, VIC","name":"The Last Chance Rock & Roll Bar","url":"https://beat.com.au/directory/the-last-chance-rock-roll-bar/"}},{"geo":{"lat":-37.8044662,"lon":144.9645597},"venue":{"address":"91 Cardigan St\r\nCarlton VIC 3053","categories":[{"tag":"Pub"}],"city":"Carlton, VIC","name":"The Lincoln","url":"https://beat.com.au/directory/the-lincoln/"}},{"geo":{"lat":-37.8140656,"lon":144.9715791},"venue":{"address":"188 Collins St\r\nMelbourne VIC 3000","categories":[{"tag":"EventVenue"},{"tag":"LiveMusic"},{"tag":"TheatreVenue"}],"city":"Melbourne, VIC","name":"The Little Ath","url":"https://beat.com.au/directory/the-little-ath/"}},{"geo":{"lat":-37.8694894,"lon":144.9993268},"venue":{"address":"184 Carlisle St, St Kilda East VIC 3183","categories":[{"tag":"Bar"}],"city":"St Kilda East","name":"The Local Taphouse","url":"https://beat.com.au/directory/the-local-taphouse/"}},{"geo":{"lat":-37.842734899999996,"lon":144.93888379999999},"venue":{"address":"22-24 Bay St, Port Melbourne VIC 3207","categories":[{"tag":"LiveMusic"},{"tag":"Pub"}],"city":"Port Melbourne","name":"The Local","url":"https://beat.com.au/directory/the-local/"}},{"geo":{"lat":-37.76711995,"lon":144.98000674626056},"venue":{"address":"225 Nicholson St\r\nBrunswick East VIC 3057","categories":[{"tag":"Pub"},{"tag":"LiveMusic"}],"city":"Brunswick East, VIC","name":"The Lomond Hotel","url":"https://beat.com.au/directory/the-lomond-hotel/"}},{"geo":{"lat":-37.8126385,"lon":144.9724818},"venue":{"address":"212 Little Collins St\r\nMelbourne VIC 3000","categories":[{"tag":"Bar"}],"city":"Melbourne","name":"The LuWOW","url":"https://beat.com.au/directory/the-luwow/"}},{"geo":{"lat":-37.8510689,"lon":144.9952245},"venue":{"address":"1/48 Clifton St\r\nPrahran VIC 3181","categories":[{"tag":"EventVenue"}],"city":"Prahran, VIC","name":"The MC Showroom","url":"https://beat.com.au/directory/the-mc-showroom/"}},{"geo":{"lat":-37.8193692,"lon":144.9571797},"venue":{"address":"135 Flinders Ln\r\nMelbourne VIC 3000","categories":[{"tag":"Bar"}],"city":"Melbourne, VIC","name":"The Meatball and Wine Bar","url":"https://beat.com.au/directory/the-meatball-and-wine-bar/"}},{"geo":{"lat":-37.7505509,"lon":144.9879283},"venue":{"address":"15 Gilbert Road\r\nPreston VIC 3072","categories":[{"tag":"Bar"}],"city":"Preston, VIC","name":"The Merri Clan","url":"https://beat.com.au/directory/the-merri-clan/"}},{"geo":{"lat":-37.7794807,"lon":144.9968036},"venue":{"address":"111 High St\r\nNorthcote VIC 3070","categories":[{"tag":"LiveMusic"}],"city":"Northcote, VIC","name":"The Merri Creek Tavern","url":"https://beat.com.au/directory/the-merri-creek-tavern/"}},{"geo":{"lat":-37.81659445,"lon":144.89899276549633},"venue":{"address":"238 Whitehall St\r\nYarraville VIC 3013","categories":[{"tag":"Pub"}],"city":"Yarraville, VIC","name":"The Mersh","url":"https://beat.com.au/directory/the-mersh/"}},{"geo":{"lat":-37.7663699,"lon":144.9243785},"venue":{"address":"690-694 Mt Alexander Rd\r\nMoonee Ponds VIC 3039","categories":[{"tag":"Pub"}],"city":"Moonee Ponds, VIC","name":"The Mighty Moonee Ponds","url":"https://beat.com.au/directory/the-mighty-moonee-ponds/"}},{"geo":{"lat":-37.7125259,"lon":145.1496717},"venue":{"address":"70 Commercial Pl\r\nEltham VIC 3095","categories":[{"tag":"Bar"}],"city":"Eltham, VIC","name":"The Missing Gorilla Bar","url":"https://beat.com.au/directory/the-missing-gorilla-bar/"}},{"geo":{"lat":-37.7783326,"lon":144.9706095},"venue":{"address":"120 Lygon St\r\nBrunswick East VIC 3057","categories":[{"tag":"Bar"}],"city":"VIC","name":"The Moldy Fig","url":"https://beat.com.au/directory/the-moldy-fig/"}},{"geo":{"lat":-37.7973184,"lon":144.9708437},"venue":{"address":"118 Elgin St\r\nCarlton VIC 3053","categories":[{"tag":"TheatreVenue"},{"tag":"EventVenue"}],"city":"Carlton, VIC","name":"The Motley Bauhaus","url":"https://beat.com.au/directory/the-motley-bauhaus/"}},{"geo":{"lat":-37.8678067,"lon":144.9865719},"venue":{"address":"20 Carlisle St\r\nSt Kilda VIC 3182","categories":[{"tag":"TheatreVenue"}],"city":"St Kilda, VIC","name":"The National Theatre","url":"https://beat.com.au/directory/the-national-theatre-melbourne/"}},{"geo":{"lat":-37.7574078,"lon":145.3527441},"venue":{"address":"243 Main St\r\nLilydale VIC 3140","categories":[{"contents":"","tag":"OtherVenue"}],"city":"Lilydale, VIC","name":"The New Yorker Bar","url":"https://beat.com.au/directory/the-new-yorker-bar/"}},{"geo":{"lat":-37.8031571,"lon":144.8989665},"venue":{"address":"228 Nicholson St\r\nFootscray VIC 3011","categories":[{"tag":"Bar"},{"tag":"EventVenue"}],"city":"Footscray, VIC","name":"The Night Heron","url":"https://beat.com.au/directory/the-night-heron/"}},{"geo":{"lat":-37.8340778,"lon":144.9501508619565},"venue":{"address":"505-507 City Rd, South Melbourne VIC 3205","categories":[{"tag":"LiveMusic"},{"tag":"Pub"}],"city":"South Melbourne","name":"The Palace Hotel","url":"https://beat.com.au/directory/the-palace-hotel/"}},{"geo":{"lat":-37.7679857,"lon":144.9622},"venue":{"address":"420 Sydney Rd\r\nBrunswick VIC 3056","categories":[{"tag":"Bar"},{"tag":"Club"},{"tag":"EventVenue"}],"city":"Brunswick, VIC","name":"The Penny Black","url":"https://beat.com.au/directory/the-penny-black/"}},{"geo":{"lat":-37.7494409,"lon":144.9183635},"venue":{"address":"12-14 Napier Street\r\nEssendon VIC 3040","categories":[{"contents":"","tag":"OtherVenue"}],"city":"Essendon, VIC","name":"The Pepper Tree (Essendon)","url":"https://beat.com.au/directory/the-pepper-tree-essendon/"}},{"geo":{"lat":-37.8090307,"lon":144.9878006099882},"venue":{"address":"135 Victoria Parade\r\nCollingwood VIC 3066","categories":[{"tag":"Pub"}],"city":"VIC","name":"The Prince Patrick","url":"https://beat.com.au/directory/the-prince-patrick/"}},{"geo":{"lat":-37.7783326,"lon":144.9706095},"venue":{"address":"101 Lygon St\r\nBrunswick East VIC 3057","categories":[{"tag":"Bar"},{"tag":"LiveMusic"},{"tag":"Pub"}],"city":"Brunswick East, VIC","name":"The Quarry Hotel","url":"https://beat.com.au/directory/the-quarry-hotel/"}},{"geo":{"lat":-37.7874445,"lon":144.9234062},"venue":{"address":"271 Racecourse Rd\r\nFlemington VIC 3031","categories":[{"tag":"Pub"}],"city":"Flemington, VIC","name":"The Quiet Man Irish Pub","url":"https://beat.com.au/directory/the-quiet-man-irish-pub/"}},{"geo":{"lat":-37.9066288,"lon":145.34457146363638},"venue":{"address":"3/1545 Burwood Hwy\r\nTecoma VIC 3160","categories":[{"tag":"Pub"}],"city":"Tecoma, VIC","name":"The Railyard Saloon","url":"https://beat.com.au/directory/the-railyard-saloon/"}},{"geo":{"lat":-37.80058375,"lon":144.97939602156094},"venue":{"address":"27 St David St\r\nFitzroy VIC 3065","categories":[{"tag":"Bar"},{"tag":"LiveMusic"},{"tag":"Pub"}],"city":"Fitzroy, VIC","name":"The Rainbow Hotel","url":"https://beat.com.au/directory/the-rainbow-hotel/"}},{"geo":{"lat":-37.8182627,"lon":145.0361655},"venue":{"address":"Shop 6 / 672 Glenferrie Rd\r\nHawthorn VIC 3122","categories":[{"tag":"Bar"},{"tag":"EventVenue"}],"city":"Hawthorn, VIC","name":"The Resistance Bar and Cafe","url":"https://beat.com.au/directory/the-resistance-bar-and-cafe/"}},{"geo":{"lat":-37.7988316,"lon":144.9830837},"venue":{"address":"182 Johnston St\r\nFitzroy VIC 3065","categories":[{"tag":"Pub"}],"city":"Fitzroy, VIC","name":"The Rochester","url":"https://beat.com.au/directory/the-rochester/"}},{"geo":{"lat":-37.8014128,"lon":144.9775864},"venue":{"address":"201 Brunswick Street\r\nFitzroy VIC 3065","categories":[{"tag":"Bar"},{"tag":"EventVenue"},{"tag":"LiveMusic"}],"city":"Fitzroy, VIC","name":"The Rooks Return","url":"https://beat.com.au/directory/the-rooks-return/"}},{"geo":{"lat":-37.7982227,"lon":144.976029},"venue":{"address":"36 Johnston St\r\nFitzroy VIC 3065","categories":[{"tag":"Pub"}],"city":"Fitzroy, VIC","name":"The Shady Lady","url":"https://beat.com.au/directory/the-shady-lady/"}},{"geo":{"lat":-38.401806,"lon":144.9523262},"venue":{"address":"365 Purves Road\r\nMain Ridge VIC 3928","categories":[{"tag":"Bar"},{"tag":"EventVenue"},{"tag":"LiveMusic"},{"tag":"Pub"},{"tag":"FestivalVenue"},{"tag":"TheatreVenue"}],"city":"Main Ridge, VIC","name":"The Shed @ The Pig & Whistle","url":"https://beat.com.au/directory/the-shed-the-pig-whistle/"}},{"geo":{"lat":-37.800751500000004,"lon":144.9768316068748},"venue":{"address":"293 Fitzroy St\r\nFitzroy VIC 3065","categories":[{"tag":"LiveMusic"},{"tag":"Pub"}],"city":"Fitzroy, VIC","name":"The Standard Hotel","url":"https://beat.com.au/directory/the-standard-hotel/"}},{"geo":{"lat":-37.7491289,"lon":145.0038141},"venue":{"address":"197 Plenty Rd\r\nPreston VIC 3072","categories":[{"tag":"Pub"}],"city":"Preston, VIC","name":"The Stolberg","url":"https://beat.com.au/directory/the-stolberg/"}},{"geo":{"lat":-37.8442106,"lon":144.8829759490136},"venue":{"address":"1 Market St\r\nNewport VIC 3015","categories":[{"tag":"EventVenue"}],"city":"Newport, VIC","name":"The Substation","url":"https://beat.com.au/directory/the-substation/"}},{"geo":{"lat":-37.794959750000004,"lon":144.93665199999998},"venue":{"address":"290 Macaulay Rd\r\nNorth Melbourne VIC 3051","categories":[{"tag":"EventVenue"}],"city":"North Melbourne, VIC","name":"The Third Day","url":"https://beat.com.au/directory/the-third-day/"}},{"geo":{"lat":-37.75727334842702,"lon":145.02737506965843},"venue":{"address":"The Thorn, 300 COLLINS ST, THORNBURY VIC 3071","categories":[{"tag":"Bar"},{"tag":"LiveMusic"}],"city":"Thornbury","name":"The Thorn","url":"https://beat.com.au/directory/the-thorn/"}},{"geo":{"lat":-37.76165125,"lon":144.99987967655426},"venue":{"address":"635 High St\r\nThornbury VIC 3071","categories":[{"tag":"Bar"}],"city":"Thornbury, VIC","name":"The Thornbury Local","url":"https://beat.com.au/directory/the-thornbury-local/"}},{"geo":{"lat":-37.7546577,"lon":145.0010957},"venue":{"address":"859 High St\r\nThornbury VIC 3071","categories":[{"tag":"TheatreVenue"}],"city":"Thornbury, VIC","name":"The Thornbury Theatre","url":"https://beat.com.au/directory/the-thornbury-theatre/"}},{"geo":{"lat":-37.8326711,"lon":144.92121264355478},"venue":{"address":"351 Plummer St\r\nPort Melbourne VIC 3207","categories":[{"tag":"EventVenue"}],"city":"Port Melbourne, VIC","name":"The Timber Yard","url":"https://beat.com.au/directory/the-timber-yard/"}},{"geo":{"lat":-37.8119429,"lon":144.9651425},"venue":{"address":"2f/252 Swanston St\r\nMelbourne VIC 3000","categories":[{"tag":"Bar"},{"tag":"Club"}],"city":"Melbourne, VIC","name":"The Toff In Town","url":"https://beat.com.au/directory/the-toff-in-town/"}},{"geo":{"lat":-37.7989941,"lon":144.9846126},"venue":{"address":"67-71 Johnston St\r\nCollingwood VIC 3066","categories":[{"tag":"Bar"},{"tag":"LiveMusic"},{"tag":"Pub"}],"city":"Collingwood, VIC","name":"The Tote Hotel","url":"https://beat.com.au/directory/the-tote-hotel/"}},{"geo":{"lat":-37.8347704,"lon":144.9639303},"venue":{"address":"256 Moray St\r\nSouth Melbourne VIC 3205","categories":[{"tag":"Pub"}],"city":"South Melbourne, VIC","name":"The Water Rat Hotel","url":"https://beat.com.au/directory/the-water-rat-hotel/"}},{"geo":{"lat":-37.8101765,"lon":144.9652219},"venue":{"address":"176 Little Lonsdale St\r\nMelbourne VIC 3000","categories":[{"contents":"","tag":"OtherVenue"}],"city":"Melbourne, VIC","name":"The Wheeler Centre","url":"https://beat.com.au/directory/the-wheeler-centre/"}},{"geo":{"lat":-38.148189099999996,"lon":144.35930244033386},"venue":{"address":"90 Little Malop St\r\nGeelong VIC 3220","categories":[{"tag":"Bar"},{"tag":"LiveMusic"}],"city":"Geelong, VIC","name":"The Workers Club Geelong","url":"https://beat.com.au/directory/the-workers-club-geelong/"}},{"geo":{"lat":-37.800341,"lon":144.996401},"venue":{"address":"295 Johnston St\r\nAbbotsford VIC 3067","categories":[{"tag":"LiveMusic"},{"tag":"Pub"}],"city":"Abbotsford, VIC","name":"The Yarra Hotel","url":"https://beat.com.au/directory/the-yarra-hotel/"}},{"geo":{"lat":-37.807338,"lon":144.992077},"venue":{"address":"48 Hoddle St\r\nAbbotsford VIC 3067","categories":[{"tag":"Bar"},{"tag":"Pub"}],"city":"Abbotsford, VIC","name":"The Yorkshire Hotel","url":"https://beat.com.au/directory/the-yorkshire-hotel/"}},{"geo":{"lat":-37.807338,"lon":144.992077},"venue":{"address":"48 Hoddle St\r\nAbbotsford VIC 3067","categories":[{"tag":"Pub"}],"city":"Abbotsford, VIC","name":"The Yorkshire Stingo Hotel","url":"https://beat.com.au/directory/the-yorkshire-stingo-hotel/"}},{"geo":{"lat":-37.0651041,"lon":144.2195296},"venue":{"address":"30 Hargraves Street\r\nCastlemaine VIC 3450","categories":[{"tag":"Bar"},{"tag":"EventVenue"},{"tag":"TheatreVenue"}],"city":"VIC","name":"Theatre Royal Castlemaine","url":"https://beat.com.au/directory/theatre-royal-castlemaine/"}},{"geo":{"lat":-37.86415685,"lon":144.97609390481176},"venue":{"address":"14 Acland St\r\nSt Kilda VIC 3182","categories":[{"tag":"TheatreVenue"}],"city":"St Kilda, VIC","name":"Theatre Works","url":"https://beat.com.au/directory/theatre-works/"}},{"geo":{"lat":-37.7783326,"lon":144.9706095},"venue":{"address":"289 Lygon St \r\nBrunswick East VIC 3057","categories":[{"contents":"Galleries","tag":"OtherVenue"}],"city":"Brunswick East, VIC","name":"This is Not A Toy Store","url":"https://beat.com.au/directory/this-is-not-a-toy-store/"}},{"geo":{"lat":-37.7588241,"lon":144.9985126},"venue":{"address":"27 Ballantyne Street\r\nThornbury VIC 3071","categories":[{"tag":"EventVenue"}],"city":"Thornbury, VIC","name":"Thornbury Bowls Club","url":"https://beat.com.au/directory/thornbury-bowls-club/"}},{"geo":{"lat":-37.8277075,"lon":144.9918073},"venue":{"address":"69 Dover St\r\nCremorne VIC 3121","categories":[{"tag":"EventVenue"}],"city":"Cremorne, VIC","name":"Thought Forms Gallery","url":"https://beat.com.au/directory/thought-forms-gallery/"}},{"geo":{"lat":-37.7773164,"lon":144.9701744},"venue":{"address":"130 Barkly St\r\nBrunswick VIC 3056","categories":[{"tag":"Brewery"}],"city":"Brunswick, VIC","name":"Thunder Road  Brewing Company","url":"https://beat.com.au/directory/thunder-road-brewing-company/"}},{"geo":{"lat":-37.819203,"lon":144.9575115},"venue":{"address":"Geddes Ln\r\nMelbourne VIC 3000","categories":[{"tag":"Bar"},{"tag":"EventVenue"}],"city":"Melbourne, VIC","name":"Top Yard Rooftop","url":"https://beat.com.au/directory/top-yard-rooftop/"}},{"geo":{"lat":-37.8115275,"lon":144.9655203},"venue":{"address":"233 Lonsdale St\r\nMelbourne VIC 3000","categories":[{"contents":"","tag":"OtherVenue"}],"city":"Melbourne, VIC","name":"Touché Hombre","url":"https://beat.com.au/directory/touche-hombre/"}},{"geo":{"lat":-37.80420155,"lon":144.94904484115614},"venue":{"address":"33 Errol St\r\nNorth Melbourne VIC 3051","categories":[{"tag":"LiveMusic"},{"tag":"Pub"}],"city":"North Melbourne, VIC","name":"Town Hall Hotel","url":"https://beat.com.au/directory/town-hall-hotel/"}},{"geo":{"lat":-37.8408224,"lon":145.0081284},"venue":{"address":"445 Toorak Rd\r\nToorak VIC 3142","categories":[{"tag":"Bar"},{"tag":"Club"}],"city":"Toorak, VIC","name":"Trak Live Lounge Bar","url":"https://beat.com.au/directory/trak-live-lounge-bar/"}},{"geo":{"lat":-37.7801461,"lon":144.9807148},"venue":{"address":"165 Rae St\r\nFitzroy North VIC 3068","categories":[{"tag":"LiveMusic"},{"tag":"Pub"}],"city":"Fitzroy North, VIC","name":"Tramway Hotel","url":"https://beat.com.au/directory/tramway-hotel/"}},{"geo":{"lat":-37.8088493,"lon":144.9591089},"venue":{"address":"167 Franklin Street\r\nMelbourne VIC 3000","categories":[{"tag":"Bar"},{"tag":"Club"},{"tag":"EventVenue"}],"city":"Melbourne, VIC","name":"Transistor Social","url":"https://beat.com.au/directory/transistor-social/"}},{"geo":{"lat":-37.815525199999996,"lon":144.9556294},"venue":{"address":"577 Little Bourke St\r\nMelbourne VIC 3004","categories":[{"tag":"Club"}],"city":"Melbourne, VIC","name":"Treat Danceclub","url":"https://beat.com.au/directory/treat-danceclub/"}},{"geo":{"lat":-37.8064145,"lon":144.982446},"venue":{"address":"234 Gertrude St\r\nFitzroy VIC 3065","categories":[{"contents":"","tag":"OtherVenue"}],"city":"Fitzroy, VIC","name":"Trippy Taco","url":"https://beat.com.au/directory/trippy-taco/"}},{"geo":{"lat":-37.8074223,"lon":144.9688742},"venue":{"address":"275 Exhibition St\r\nMelbourne VIC 3000","categories":[{"tag":"Bar"}],"city":"Melbourne, VIC","name":"Trunk Restaurant & Bar","url":"https://beat.com.au/directory/trunk-restaurant-bar/"}},{"geo":{"lat":-37.809746028,"lon":144.99399889286275},"venue":{"address":"449 Victoria St\r\nAbbotsford VIC 3067","categories":[{"contents":"Café","tag":"OtherVenue"}],"city":"Abbotsford, VIC","name":"Undercover Roasters","url":"https://beat.com.au/directory/undercover-roasters/"}},{"geo":{"lat":-37.7734411,"lon":144.9531861},"venue":{"address":"109 Union St\r\nBrunswick VIC 3056","categories":[{"tag":"Bar"},{"tag":"LiveMusic"}],"city":"Brunswick, VIC","name":"Union Hotel Brunswick","url":"https://beat.com.au/directory/union-hotel-brunswick/"}},{"geo":{"lat":-37.7738352,"lon":144.9585706},"venue":{"address":"34 Union St\r\nBrunswick VIC 3056","categories":[{"contents":"","tag":"OtherVenue"}],"city":"Brunswick, VIC","name":"Union St Brewers","url":"https://beat.com.au/directory/union-st-brewers/"}},{"geo":{"lat":-37.802145,"lon":144.97764},"venue":{"address":"177 Brunswick St\r\nFitzroy VIC 3065","categories":[{"tag":"LiveMusic"}],"city":"Fitzroy, VIC","name":"Uptown Jazz Café","url":"https://beat.com.au/directory/uptown-jazz-cafe/"}},{"geo":{"lat":-37.8995478,"lon":145.0900034},"venue":{"address":"17-21 Eaton Mall\r\nOakleigh VIC 3166","categories":[{"contents":"","tag":"OtherVenue"}],"city":"Oakleigh, VIC","name":"Vanilla Lounge","url":"https://beat.com.au/directory/vanilla-lounge/"}},{"geo":{"lat":-32.0558419,"lon":115.7421141},"venue":{"address":"179 High St\r\nFremantle WA 6160","categories":[{"contents":"","tag":"OtherVenue"}],"city":"Fremantle, WA","name":"Victoria Hall","url":"https://beat.com.au/directory/victoria-hall/"}},{"geo":{"lat":-37.8072166,"lon":144.9664108},"venue":{"address":"31 Victoria St\r\nMelbourne VIC 3000","categories":[{"tag":"TheatreVenue"}],"city":"Melbourne, VIC","name":"Victorian Opera","url":"https://beat.com.au/directory/victorian-opera/"}},{"geo":{"lat":-37.8567825,"lon":144.9828155},"venue":{"address":"79/81 Fitzroy St\r\nSt Kilda VIC 3182","categories":[{"contents":"Galleries","tag":"OtherVenue"}],"city":"St Kilda, VIC","name":"Victorian Pride Centre","url":"https://beat.com.au/directory/victorian-pride-centre/"}},{"geo":{"lat":-37.8190194,"lon":144.9545555},"venue":{"address":"416 Collins St\r\nMelbourne VIC 3000","categories":[{"tag":"LiveMusic"}],"city":"Melbourne, VIC","name":"Victory Lounge","url":"https://beat.com.au/directory/victory-lounge/"}},{"geo":{"lat":-37.9035668,"lon":145.1603807},"venue":{"address":"Springvale Rd & Ferntree Gully Rd\r\nMulgrave VIC 3170","categories":[{"contents":"","tag":"OtherVenue"}],"city":"Mulgrave, VIC","name":"Village Green","url":"https://beat.com.au/directory/village-green/"}},{"geo":{"lat":-37.8720088,"lon":144.9896039},"venue":{"address":"143 Chapel St\r\nSt Kilda VIC 3182","categories":[{"tag":"Bar"},{"tag":"EventVenue"},{"tag":"LiveMusic"},{"contents":"Café","tag":"OtherVenue"}],"city":"St Kilda, VIC","name":"Voodoo Love Child Speakeasy","url":"https://beat.com.au/directory/voodoo-love-child-speakeasy/"}},{"geo":{"lat":-37.8378371,"lon":145.1105351},"venue":{"address":"Riversdale Rd\r\nBurwood VIC 3125","categories":[{"contents":"","tag":"OtherVenue"}],"city":"Burwood, VIC","name":"Wattle Park","url":"https://beat.com.au/directory/wattle-park/"}},{"geo":{"lat":-37.7729204,"lon":144.9983987},"venue":{"address":"250 High St\r\nNorthcote VIC 3070","categories":[{"tag":"Pub"},{"tag":"LiveMusic"}],"city":"Northcote, VIC","name":"Wesley Anne","url":"https://beat.com.au/directory/wesley-anne/"}},{"geo":{"lat":-37.8490731,"lon":144.99074987323303},"venue":{"address":"115-117 Greville St\r\nPrahran VIC 3181","categories":[{"tag":"Bar"}],"city":"Prahran, VIC","name":"White Oaks Saloon Bar & Dining","url":"https://beat.com.au/directory/white-oaks-saloon-bar-dining/"}},{"geo":{"lat":-37.8125531,"lon":144.9618426},"venue":{"address":"22 Whitehart Ln\r\nMelbourne VIC 3000","categories":[{"tag":"Bar"},{"tag":"EventVenue"},{"tag":"LiveMusic"}],"city":"Melbourne, VIC","name":"Whitehart Bar","url":"https://beat.com.au/directory/whitehart-bar/"}},{"geo":{"lat":-37.7783326,"lon":144.9706095},"venue":{"address":"524 Lygon St\r\nBrunswick East VIC 3057","categories":[{"tag":"Bar"},{"tag":"LiveMusic"}],"city":"Brunswick East, VIC","name":"Whole Lotta Love","url":"https://beat.com.au/directory/whole-lotta-love/"}},{"geo":{"lat":-37.8105322,"lon":144.9644178},"venue":{"address":"288 Little Lonsdale St\r\nMelbourne VIC 3000","categories":[{"contents":"","tag":"OtherVenue"}],"city":"Melbourne, VIC","name":"Wings of Glory","url":"https://beat.com.au/directory/wings-of-glory/"}},{"geo":{"lat":-37.7955977,"lon":144.9790863},"venue":{"address":"386-388 Brunswick Street\r\nFitzroy VIC 3065","categories":[{"tag":"Bar"},{"tag":"LiveMusic"}],"city":"Fitzroy, VIC","name":"Wolfhound on Brunswick","url":"https://beat.com.au/directory/wolfhound-on-brunswick/"}},{"geo":{"lat":-37.869169,"lon":144.9918764},"venue":{"address":"29 Woodstock St\r\nBalaclava VIC 3183","categories":[{"tag":"LiveMusic"}],"city":"VIC","name":"Woodstock Recording Studios","url":"https://beat.com.au/directory/woodstock-recording-studios/"}},{"geo":{"lat":-37.80624775,"lon":144.98331211946754},"venue":{"address":"64 Smith St\r\nCollingwood VIC 3066","categories":[{"tag":"Bar"},{"tag":"LiveMusic"}],"city":"Collingwood, VIC","name":"Woody's Bar","url":"https://beat.com.au/directory/woodys-bar/"}},{"geo":{"lat":-38.145904,"lon":144.35919307952156},"venue":{"address":"44 Corio St\r\nGeelong VIC 3220","categories":[{"tag":"EventVenue"}],"city":"Geelong, VIC","name":"Wool Exchange","url":"https://beat.com.au/directory/wool-exchange/"}},{"geo":{"lat":-37.8055776,"lon":144.9769450659087},"venue":{"address":"51 Brunswick Street\r\nFitzroy VIC 3065","categories":[{"tag":"Bar"},{"tag":"LiveMusic"},{"tag":"Pub"}],"city":"Fitzroy, VIC","name":"The Workers Club","url":"https://beat.com.au/directory/workers-club/"}},{"geo":{"lat":-37.8062832,"lon":144.9596154},"venue":{"address":"1/413 Elizabeth St\r\nMelbourne VIC 3000","categories":[{"tag":"Bar"}],"city":"Melbourne, VIC","name":"Workshop Bar","url":"https://beat.com.au/directory/workshop-bar/"}},{"geo":{"lat":-37.8059664,"lon":144.9828623},"venue":{"address":"97B Smith St\r\nFitzroy VIC 3065","categories":[{"tag":"Bar"},{"tag":"Club"},{"tag":"LiveMusic"},{"tag":"TheatreVenue"}],"city":"Fitzroy, VIC","name":"Wows","url":"https://beat.com.au/directory/wows/"}},{"geo":{"lat":-37.8119153,"lon":144.863788},"venue":{"address":"8C Whitely Parade\r\nWest Footscray VIC 3011","categories":[{"tag":"Club"}],"city":"Footscray, VIC","name":"Wrangler Studios","url":"https://beat.com.au/directory/wrangler-studios/"}},{"geo":{"lat":-37.8275188,"lon":144.9582422},"venue":{"address":"344 City Rd\r\nSouthbank VIC 3006","categories":[{"tag":"Bar"},{"tag":"Club"}],"city":"Southbank, VIC","name":"Xe54","url":"https://beat.com.au/directory/xe54/"}},{"geo":{"lat":-37.8041303,"lon":144.9827552},"venue":{"address":"99 Little Smith St\r\nFitzroy VIC 3065","categories":[{"tag":"Bar"},{"tag":"Club"},{"tag":"LiveMusic"}],"city":"Fitzroy, VIC","name":"Yah Yah's","url":"https://beat.com.au/directory/yah-yahs/"}},{"geo":{"lat":-37.8151254,"lon":144.8946587},"venue":{"address":"135 Stephen St\r\nYarraville VIC 3013","categories":[{"tag":"Pub"}],"city":"Yarraville, VIC","name":"Yarraville Club","url":"https://beat.com.au/directory/yarraville-club/"}},{"geo":{"lat":-37.7959296,"lon":144.9772234},"venue":{"address":"60 Rose Street\r\nFitzroy VIC 3065","categories":[{"contents":"","tag":"OtherVenue"}],"city":"Fitzroy, VIC","name":"Young Bloods","url":"https://beat.com.au/directory/young-bloods/"}},{"geo":{"lat":-38.14158355,"lon":145.12605979117023},"venue":{"address":"12 Young St\r\nFrankston VIC 3199","categories":[{"contents":"","tag":"OtherVenue"}],"city":"Frankston, VIC","name":"Young Street Supper Club","url":"https://beat.com.au/directory/young-street-supper-club/"}},{"geo":{"lat":-37.80457385,"lon":144.96115137736732},"venue":{"address":"229 Queensberry St\r\nCarlton VIC 3053","categories":[{"tag":"Club"}],"city":"Carlton, VIC","name":"Yours & Mine","url":"https://beat.com.au/directory/yours-mine/"}}]