[{"geo":{"lat":-37.8120109,"lon":144.9679369},"venue":{"address":"170 Russell St\nMelbourne VIC 3000","categories":[{"tag":"Club"},{"tag":"LiveMusic"}],"city":"Melbourne, VIC","name":"170 Russell","url":"https://beat.com.au/directory/170-russell/"}},{"geo":{"lat":-37.9427036,"lon":145.0688006},"venue":{"address":"4 Joyner St\nMoorabbin VIC 3189","categories":[{"tag":"LiveMusic"},{"tag":"Brewery"}],"city":"Moorabbin, VIC","name":"2 Brothers Brewery","url":"https://beat.com.au/directory/2-brothers-brewery/"}},{"geo":{"lat":-37.7691418,"lon":144.9982614},"venue":{"address":"2 Arthurton Rd\nNorthcote VIC 3070","categories":[{"tag":"Bar"},{"tag":"Club"}],"city":"Northcote, VIC","name":"24 Moons","url":"https://beat.com.au/directory/24-moons/"}},{"geo":{"lat":-37.7705166,"lon":144.9613613},"venue":{"address":"303 Sydney Rd\nBrunswick VIC 3056","categories":[{"tag":"Bar"},{"tag":"Club"},{"tag":"EventVenue"},{"tag":"LiveMusic"}],"city":"Brunswick, VIC","name":"303 Sydney Road","url":"https://beat.com.au/directory/303-sydney-road/"}},{"geo":{"lat":-37.8203757,"lon":144.9568048},"venue":{"address":"524 Flinders St\nMelbourne VIC 3000","categories":[{"tag":"EventVenue"}],"city":"Melbourne, VIC","name":"524 Flinders","url":"https://beat.com.au/directory/524-flinders/"}},{"geo":{"lat":-37.7967026,"lon":144.9052464},"venue":{"address":"8 Lynch Street\nFootscray VIC 3011","categories":[{"tag":"EventVenue"},{"tag":"LiveMusic"}],"city":"Footscray, VIC","name":"56K Records","url":"https://beat.com.au/directory/56k-records/"}},{"geo":{"lat":-37.7854317,"lon":144.980757},"venue":{"address":"75 Reid St\nFitzroy North VIC 3068","categories":[{"tag":"EventVenue"}],"city":"Fitzroy North, VIC","name":"75 Reid St","url":"https://beat.com.au/directory/75-reid-st/"}},{"geo":{"lat":-37.7854317,"lon":144.980757},"venue":{"address":"75 Reid St\nFitzroy North VIC 3068","categories":[{"tag":"EventVenue"}],"city":"Fitzroy North, VIC","name":"75 Reid Street","url":"https://beat.com.au/directory/75-reid-street/"}},{"geo":{"lat":-37.8241987,"lon":144.9857436},"venue":{"address":"Olympic Blvd\nMelbourne VIC 3000","categories":[{"tag":"EventVenue"},{"tag":"LiveMusic"}],"city":"Melbourne, VIC","name":"AAMI Park","url":"https://beat.com.au/directory/aami-park/"}},{"geo":{"lat":-37.8099501,"lon":144.9964032},"venue":{"address":"329-341 Victoria St\nAbbotsford VIC 3067","categories":[{"tag":"EventVenue"}],"city":"Abbotsford, VIC","name":"Abbots Yard","url":"https://beat.com.au/directory/abbots-yard/"}},{"geo":{"lat":-37.8035316,"lon":145.0048929},"venue":{"address":"1 St Heliers St\nAbbotsford VIC 3067","categories":[{"contents":"","tag":"OtherVenue"}],"city":"Abbotsford, VIC","name":"Abbotsford Convent","url":"https://beat.com.au/directory/abbotsford-convent/"}},{"geo":{"lat":-37.81843,"lon":144.968386},"venue":{"address":"Federation Square, Flinders St\nMelbourne VIC 3000","categories":[{"tag":"EventVenue"},{"tag":"TheatreVenue"}],"city":"Melbourne, VIC","name":"ACMI","url":"https://beat.com.au/directory/acmi/"}},{"geo":{"lat":-37.8346119,"lon":144.9630361},"venue":{"address":"206 Park Street\nSouth Melbourne VIC 3205","categories":[{"tag":"LiveMusic"},{"contents":"Record Store","tag":"OtherVenue"}],"city":"South Melbourne, VIC","name":"Acoustic Centre","url":"https://beat.com.au/directory/acoustic-centre/"}},{"geo":{"lat":-37.8065461,"lon":144.9829625},"venue":{"address":"103-105 Smith St\nFitzroy VIC 3065","categories":[{"tag":"Bar"},{"tag":"Pub"}],"city":"Fitzroy, VIC","name":"ADAM at Sircuit","url":"https://beat.com.au/directory/adam-at-sircuit/"}},{"geo":{"lat":-37.7682897,"lon":144.9586172},"venue":{"address":"307 Albert St\nBrunswick VIC 3056","categories":[{"contents":"","tag":"OtherVenue"}],"city":"Brunswick, VIC","name":"Albert Street Gallery","url":"https://beat.com.au/directory/albert-street-gallery/"}},{"geo":{"lat":-37.8120109,"lon":144.9679369},"venue":{"address":"170 Russell St\nMelbourne VIC 3000","categories":[{"tag":"Club"},{"tag":"LiveMusic"}],"city":"Melbourne, VIC","name":"170 Russell","url":"https://beat.com.au/directory/170-russell/"}},{"geo":{"lat":-37.9427036,"lon":145.0688006},"venue":{"address":"4 Joyner St\nMoorabbin VIC 3189","categories":[{"tag":"LiveMusic"},{"tag":"Brewery"}],"city":"Moorabbin, VIC","name":"2 Brothers Brewery","url":"https://beat.com.au/directory/2-brothers-brewery/"}},{"geo":{"lat":-37.7691418,"lon":144.9982614},"venue":{"address":"2 Arthurton Rd\nNorthcote VIC 3070","categories":[{"tag":"Bar"},{"tag":"Club"}],"city":"Northcote, VIC","name":"24 Moons","url":"https://beat.com.au/directory/24-moons/"}},{"geo":{"lat":-37.7705166,"lon":144.9613613},"venue":{"address":"303 Sydney Rd\nBrunswick VIC 3056","categories":[{"tag":"Bar"},{"tag":"Club"},{"tag":"EventVenue"},{"tag":"LiveMusic"}],"city":"Brunswick, VIC","name":"303 Sydney Road","url":"https://beat.com.au/directory/303-sydney-road/"}},{"geo":{"lat":-37.8203757,"lon":144.9568048},"venue":{"address":"524 Flinders St\nMelbourne VIC 3000","categories":[{"tag":"EventVenue"}],"city":"Melbourne, VIC","name":"524 Flinders","url":"https://beat.com.au/directory/524-flinders/"}},{"geo":{"lat":-37.7967026,"lon":144.9052464},"venue":{"address":"8 Lynch Street\nFootscray VIC 3011","categories":[{"tag":"EventVenue"},{"tag":"LiveMusic"}],"city":"Footscray, VIC","name":"56K Records","url":"https://beat.com.au/directory/56k-records/"}},{"geo":{"lat":-37.7854317,"lon":144.980757},"venue":{"address":"75 Reid St\nFitzroy North VIC 3068","categories":[{"tag":"EventVenue"}],"city":"Fitzroy North, VIC","name":"75 Reid St","url":"https://beat.com.au/directory/75-reid-st/"}},{"geo":{"lat":-37.7854317,"lon":144.980757},"venue":{"address":"75 Reid St\nFitzroy North VIC 3068","categories":[{"tag":"EventVenue"}],"city":"Fitzroy North, VIC","name":"75 Reid Street","url":"https://beat.com.au/directory/75-reid-street/"}},{"geo":{"lat":-37.8241987,"lon":144.9857436},"venue":{"address":"Olympic Blvd\nMelbourne VIC 3000","categories":[{"tag":"EventVenue"},{"tag":"LiveMusic"}],"city":"Melbourne, VIC","name":"AAMI Park","url":"https://beat.com.au/directory/aami-park/"}},{"geo":{"lat":-37.8099501,"lon":144.9964032},"venue":{"address":"329-341 Victoria St\nAbbotsford VIC 3067","categories":[{"tag":"EventVenue"}],"city":"Abbotsford, VIC","name":"Abbots Yard","url":"https://beat.com.au/directory/abbots-yard/"}},{"geo":{"lat":-37.8035316,"lon":145.0048929},"venue":{"address":"1 St Heliers St\nAbbotsford VIC 3067","categories":[{"contents":"","tag":"OtherVenue"}],"city":"Abbotsford, VIC","name":"Abbotsford Convent","url":"https://beat.com.au/directory/abbotsford-convent/"}},{"geo":{"lat":-37.81843,"lon":144.968386},"venue":{"address":"Federation Square, Flinders St\nMelbourne VIC 3000","categories":[{"tag":"EventVenue"},{"tag":"TheatreVenue"}],"city":"Melbourne, VIC","name":"ACMI","url":"https://beat.com.au/directory/acmi/"}},{"geo":{"lat":-37.8346119,"lon":144.9630361},"venue":{"address":"206 Park Street\nSouth Melbourne VIC 3205","categories":[{"tag":"LiveMusic"},{"contents":"Record Store","tag":"OtherVenue"}],"city":"South Melbourne, VIC","name":"Acoustic Centre","url":"https://beat.com.au/directory/acoustic-centre/"}},{"geo":{"lat":-37.8065461,"lon":144.9829625},"venue":{"address":"103-105 Smith St\nFitzroy VIC 3065","categories":[{"tag":"Bar"},{"tag":"Pub"}],"city":"Fitzroy, VIC","name":"ADAM at Sircuit","url":"https://beat.com.au/directory/adam-at-sircuit/"}},{"geo":{"lat":-37.7682897,"lon":144.9586172},"venue":{"address":"307 Albert St\nBrunswick VIC 3056","categories":[{"contents":"","tag":"OtherVenue"}],"city":"Brunswick, VIC","name":"Albert Street Gallery","url":"https://beat.com.au/directory/albert-street-gallery/"}},{"geo":{"lat":-37.778276,"lon":144.9706211},"venue":{"address":"396 Lygon St, Brunswick East VIC 3057","categories":[{"tag":"Brewery"}],"city":null,"name":"Alchemy Brewing","url":"https://beat.com.au/directory/alchemy-brewing/"}},{"geo":{"lat":-37.815815,"lon":144.967378},"venue":{"address":"Level 1/205 Collins St\nMelbourne VIC 3000","categories":[{"contents":"","tag":"OtherVenue"}],"city":"Melbourne, VIC","name":"Allegro Restaurant","url":"https://beat.com.au/directory/allegro-restaurant/"}},{"geo":{"lat":-37.8616991,"lon":144.9787899},"venue":{"address":"51 Grey St\nSt Kilda VIC 3182","categories":[{"tag":"EventVenue"}],"city":"St Kilda, VIC","name":"Alliance Française de Melbourne","url":"https://beat.com.au/directory/alliance-francaise-de-melbourne/"}},{"geo":{"lat":-37.8153918,"lon":144.9706706},"venue":{"address":"l2/195 Flinders Ln\nMelbourne VIC 3000","categories":[{"tag":"EventVenue"}],"city":"Melbourne, VIC","name":"ALPHA60 Chapter House","url":"https://beat.com.au/directory/alpha60-chapter-house/"}},{"geo":{"lat":-37.811331,"lon":144.972501},"venue":{"address":"12 Bourke St\nMelbourne VIC 3000","categories":[{"tag":"Bar"}],"city":"Melbourne, VIC","name":"Angel Music Bar","url":"https://beat.com.au/directory/angel-music-bar/"}},{"geo":{"lat":-37.7425412,"lon":145.0032413},"venue":{"address":"213a High St\nPreston VIC 3072","categories":[{"tag":"EventVenue"}],"city":"Preston, VIC","name":"APAX Warehouse","url":"https://beat.com.au/directory/apax-warehouse/"}},{"geo":{"lat":-38.5479635,"lon":145.5633428},"venue":{"address":"89-91 Archies Creek Rd\nArchies Creek VIC 3995","categories":[{"tag":"Bar"}],"city":"Archies Creek, VIC","name":"Archies Creek Hotel","url":"https://beat.com.au/directory/archies-creek-hotel/"}},{"geo":{"lat":-37.9470459,"lon":145.0800451},"venue":{"address":"8 Arco Lane\nHeatherton VIC 3202","categories":[{"tag":"EventVenue"},{"tag":"LiveMusic"},{"tag":"Pub"},{"tag":"Bar"}],"city":"Heatherton, VIC","name":"Arcobar","url":"https://beat.com.au/directory/arcobar/"}},{"geo":{"lat":-37.799354,"lon":145.2815608},"venue":{"address":"212 Mt Dandenong Road\nCroydon VIC 3136","categories":[{"tag":"EventVenue"}],"city":"Croydon, VIC","name":"Ariette's Concert Lounge","url":"https://beat.com.au/directory/ariettes-concert-lounge/"}},{"geo":{"lat":-37.8055511,"lon":144.9633148},"venue":{"address":"488 Swanston St\nCarlton VIC 3053","categories":[{"tag":"EventVenue"}],"city":"Carlton, VIC","name":"Arrow on Swanston","url":"https://beat.com.au/directory/arrow-on-swanston/"}},{"geo":{"lat":-37.8157569,"lon":144.9640901},"venue":{"address":"92/94 Elizabeth St\nMelbourne VIC 3000","categories":[{"contents":"","tag":"OtherVenue"}],"city":"Melbourne, VIC","name":"Art Masterclass","url":"https://beat.com.au/directory/art-masterclass/"}},{"geo":{"lat":-37.8201575,"lon":144.9679835},"venue":{"address":"100 St Kilda Rd\nMelbourne VIC 3004","categories":[{"tag":"LiveMusic"},{"tag":"TheatreVenue"}],"city":"Melbourne, VIC","name":"Arts Centre Melbourne","url":"https://beat.com.au/directory/arts-centre-melbourne/"}},{"geo":{"lat":-37.8032773,"lon":144.9500257},"venue":{"address":"521 Queensberry St\nNorth Melbourne VIC 3051","categories":[{"tag":"TheatreVenue"}],"city":"North Melbourne, VIC","name":"Arts House","url":"https://beat.com.au/directory/arts-house/"}},{"geo":{"lat":-37.7730441,"lon":144.9268536},"venue":{"address":"447 Mt Alexander Rd\nAscot Vale VIC 3032","categories":[{"tag":"Bar"},{"tag":"LiveMusic"},{"tag":"Pub"}],"city":"Ascot Vale, VIC","name":"Ascot Vale Hotel","url":"https://beat.com.au/directory/ascot-vale-hotel/"}},{"geo":{"lat":51.9777416,"lon":0.5325123},"venue":{"address":"31 Tattersalls Lane","categories":[{"contents":"","tag":"OtherVenue"}],"city":"Melbourne","name":"Aster","url":"https://beat.com.au/directory/aster/"}},{"geo":{"lat":27.008141,"lon":-82.0218553},"venue":{"address":"31 Tattersall Lane, 3000","categories":[{"tag":"Bar"},{"tag":"EventVenue"}],"city":"Melbourne","name":"Aster","url":"https://beat.com.au/directory/aster-2/"}},{"geo":{"lat":-37.8063277,"lon":144.9812424},"venue":{"address":"Level 1/198 Gertrude St\nFitzroy VIC 3065","categories":[{"contents":"","tag":"OtherVenue"}],"city":"Fitzroy, VIC","name":"At The Above","url":"https://beat.com.au/directory/at-the-above/"}},{"geo":{"lat":-37.7562323,"lon":145.0192156},"venue":{"address":"188 Collins St\nMelbourne VIC 3000","categories":[{"tag":"TheatreVenue"}],"city":"Melbourne, VIC","name":"Athenaeum Theatre","url":"https://beat.com.au/directory/athenaeum-theatre/"}},{"geo":{"lat":-37.8004117,"lon":144.8997171},"venue":{"address":"30 Chambers St\nFootscray VIC 3011","categories":[{"tag":"Bar"}],"city":"Footscray, VIC","name":"Baby Snakes Bar","url":"https://beat.com.au/directory/baby-snakes-bar/"}},{"geo":{"lat":-37.7978602,"lon":144.9861091},"venue":{"address":"25 Easey St\nCollingwood VIC 3066","categories":[{"tag":"EventVenue"}],"city":"Collingwood, VIC","name":"Backwoods Gallery","url":"https://beat.com.au/directory/backwoods-gallery/"}},{"geo":{"lat":-37.798246,"lon":144.9762881},"venue":{"address":"46 Johnston St\nFitzroy VIC 3065","categories":[{"tag":"Bar"}],"city":"Fitzroy, VIC","name":"Bad Decisions Bar","url":"https://beat.com.au/directory/bad-decisions-bar/"}},{"geo":{"lat":-37.8120553,"lon":144.9684781},"venue":{"address":"2 Coverlid Pl\nMelbourne VIC 3000","categories":[{"tag":"Bar"}],"city":"Melbourne, VIC","name":"Ballers Clubhouse","url":"https://beat.com.au/directory/ballers-clubhouse/"}},{"geo":{"lat":-37.7170591,"lon":145.0121081},"venue":{"address":"204 Broadway\nReservoir VIC 3073","categories":[{"tag":"Bar"}],"city":"Reservoir, VIC","name":"Bar 204","url":"https://beat.com.au/directory/bar-204/"}},{"geo":{"lat":-37.7713296,"lon":144.9982812},"venue":{"address":"303 High St\nNorthcote VIC 3070","categories":[{"tag":"Bar"},{"tag":"LiveMusic"}],"city":"Northcote, VIC","name":"Bar 303","url":"https://beat.com.au/directory/bar-303/"}},{"geo":{"lat":-37.7807053,"lon":144.9966061},"venue":{"address":"61 High St\nNorthcote VIC 3070","categories":[{"tag":"Bar"}],"city":"Northcote, VIC","name":"Bar 61","url":"https://beat.com.au/directory/bar-61/"}},{"geo":{"lat":-37.79773,"lon":144.978425},"venue":{"address":"317 Brunswick St\nFitzroy VIC 3065","categories":[{"tag":"Bar"},{"tag":"LiveMusic"}],"city":"Fitzroy, VIC","name":"Bar Open","url":"https://beat.com.au/directory/bar-open/"}},{"geo":{"lat":-37.7618155,"lon":144.9628753},"venue":{"address":"653 Sydney Rd\nBrunswick VIC 3056","categories":[{"tag":"Bar"},{"tag":"LiveMusic"}],"city":"Brunswick, VIC","name":"Bar Oussou","url":"https://beat.com.au/directory/bar-oussou/"}},{"geo":{"lat":-37.8113837,"lon":144.9711923},"venue":{"address":"24 Crossley St\nMelbourne VIC 3000","categories":[{"tag":"Bar"}],"city":"VIC","name":"Bard's Apothecary","url":"https://beat.com.au/directory/bards-apothecary/"}},{"geo":{"lat":-37.7533867,"lon":145.0017098},"venue":{"address":"816/818 High St, Thornbury VIC 3071","categories":[{"contents":"","tag":"OtherVenue"}],"city":"Thornbury","name":"Barton Fink","url":"https://beat.com.au/directory/barton-fink/"}},{"geo":{"lat":-38.1629265,"lon":144.353924},"venue":{"address":"509 Moorabool St\nSouth Geelong VIC 3220","categories":[{"tag":"Pub"}],"city":"South Geelong, VIC","name":"Barwon Club Hotel","url":"https://beat.com.au/directory/barwon-club-hotel/"}},{"geo":{"lat":-38.3361568,"lon":144.9886215},"venue":{"address":"40 Collins Rd\nDromana VIC 3936","categories":[{"tag":"Brewery"}],"city":"Dromana, VIC","name":"Bass & Flinders Distillery","url":"https://beat.com.au/directory/bass-flinders-distillery/"}},{"geo":{"lat":-37.7981225,"lon":144.978682},"venue":{"address":"302 Brunswick St\nFitzroy VIC 3065","categories":[{"tag":"Bar"},{"tag":"EventVenue"}],"city":"Fitzroy, VIC","name":"Baxter's Lot","url":"https://beat.com.au/directory/baxters-lot/"}},{"geo":{"lat":-37.7258704,"lon":145.1342323},"venue":{"address":"48 Kirwana Grove\nMontmorency VIC 3094","categories":[{"contents":"Record Store","tag":"OtherVenue"}],"city":"Montmorency, VIC","name":"Beat Tank Productions - Recording Studio","url":"https://beat.com.au/directory/beat-tank-productions-recording-studio/"}},{"geo":{"lat":-37.8177397,"lon":144.9691559},"venue":{"address":"Federation Square \nMelbourne VIC 3000","categories":[{"tag":"Bar"}],"city":"Melbourne, VIC","name":"Beer Deluxe","url":"https://beat.com.au/directory/beer-deluxe/"}},{"geo":{"lat":-38.1379811,"lon":144.609835},"venue":{"address":"2270 Portarlington Road\nBellarine VIC 3222","categories":[{"tag":"EventVenue"},{"tag":"LiveMusic"},{"tag":"Brewery"}],"city":"Bellarine, VIC","name":"Bellarine Estate","url":"https://beat.com.au/directory/bellarine-estate/"}},{"geo":{"lat":-37.7996488,"lon":144.9891167},"venue":{"address":"125 Johnston St\nCollingwood VIC 3066","categories":[{"tag":"Pub"},{"tag":"LiveMusic"}],"city":"Collingwood, VIC","name":"Bendigo Hotel","url":"https://beat.com.au/directory/bendigo-hotel/"}},{"geo":{"lat":-37.8128788,"lon":144.9630786},"venue":{"address":"Shop 3, Driver Lane\nMelbourne VIC 3000","categories":[{"tag":"Bar"}],"city":"Melbourne, VIC","name":"Beneath Driver Lane","url":"https://beat.com.au/directory/beneath-driver-lane/"}},{"geo":{"lat":-37.778276,"lon":144.9706211},"venue":{"address":"285 Lygon St, Brunswick East VIC 3057","categories":[{"contents":"","tag":"OtherVenue"}],"city":"Brunswick East","name":"Benjys Karaoke Bar","url":"https://beat.com.au/directory/benjys-karaoke-bar/"}},{"geo":{"lat":-37.776327,"lon":144.9607158},"venue":{"address":"64 Sydney Rd, Brunswick VIC","categories":[{"contents":"","tag":"OtherVenue"}],"city":"Brunswick, VIC","name":"Bergy Bandroom","url":"https://beat.com.au/directory/bergy-bandroom/"}},{"geo":{"lat":-37.8250066,"lon":144.9674045},"venue":{"address":"45 Sturt St\nSouthbank VIC 3006","categories":[{"contents":"Café","tag":"OtherVenue"}],"city":"Southbank, VIC","name":"Betwixt Cafe & Bar","url":"https://beat.com.au/directory/betwixt-cafe-bar/"}},{"geo":{"lat":-37.8111442,"lon":144.9568039},"venue":{"address":"11 Singers Ln, \nMelbourne VIC 3000","categories":[{"tag":"Bar"},{"tag":"LiveMusic"}],"city":"Melbourne, VIC","name":"Bird's Basement","url":"https://beat.com.au/directory/birds-basement/"}},{"geo":{"lat":-37.8142454,"lon":144.9631732},"venue":{"address":"Melbourne VIC 3004","categories":[{"contents":"","tag":"OtherVenue"}],"city":"Melbourne, VIC","name":"Birrarung Marr","url":"https://beat.com.au/directory/birrarung-marr/"}},{"geo":{"lat":-38.3366915,"lon":143.7858966},"venue":{"address":"42-44 Main Street\nBirregurra VIC 3242","categories":[{"tag":"EventVenue"}],"city":"Birregurra, VIC","name":"Birregurra Mechanics Hall","url":"https://beat.com.au/directory/birregurra-mechanics-hall/"}},{"geo":{"lat":-37.805885,"lon":144.9796248},"venue":{"address":"153 Gertrude St\nFitzroy VIC 3065","categories":[{"tag":"Pub"}],"city":"Fitzroy, VIC","name":"Bistro Sousou","url":"https://beat.com.au/directory/bistro-sousou/"}},{"geo":{"lat":-37.8463908,"lon":144.9943806},"venue":{"address":"364 Chapel St\nSouth Yarra VIC 3141","categories":[{"tag":"Bar"}],"city":"South Yarra, VIC","name":"Black Magic Bar","url":"https://beat.com.au/directory/black-magic-bar/"}},{"geo":{"lat":-37.8156884,"lon":144.9646279},"venue":{"address":"282 Collins St\nMelbourne VIC 3000","categories":[{"tag":"EventVenue"}],"city":"VIC","name":"Block Arcade","url":"https://beat.com.au/directory/block-arcade/"}},{"geo":{"lat":-37.8076069,"lon":144.9660168},"venue":{"address":"380 Russell St\nMelbourne VIC 3000","categories":[{"tag":"Bar"}],"city":"Melbourne, VIC","name":"Blue Moon Karaoke Bar","url":"https://beat.com.au/directory/blue-moon-karaoke-bar/"}},{"geo":{"lat":-33.883412,"lon":151.0463754},"venue":{"address":"2/4 College St\nSydney NSW 2000","categories":[{"tag":"Bar"}],"city":"Sydney, NSW","name":"Bodhi Restaurant and Bar","url":"https://beat.com.au/directory/bodhi-restaurant-bar/"}},{"geo":{"lat":-37.8001115,"lon":144.9945274},"venue":{"address":"245 Johnston St\nAbbotsford VIC 3067","categories":[{"tag":"LiveMusic"},{"tag":"Pub"}],"city":"Abbotsford, VIC","name":"Bodriggy Brewing Company","url":"https://beat.com.au/directory/bodriggy-brewing-company/"}},{"geo":{"lat":-37.7705166,"lon":144.9613613},"venue":{"address":"303 Sydney Rd\nBrunswick VIC 3056","categories":[{"tag":"Bar"},{"tag":"LiveMusic"}],"city":"Brunswick, VIC","name":"Bombay Rock","url":"https://beat.com.au/directory/bombay-rock/"}},{"geo":{"lat":-37.8128595,"lon":144.9713425},"venue":{"address":"68 Little Collins St\nMelbourne VIC 3000","categories":[{"tag":"Bar"},{"tag":"Club"},{"tag":"LiveMusic"}],"city":"Melbourne, VIC","name":"Boney","url":"https://beat.com.au/directory/boney/"}},{"geo":{"lat":-37.8176673,"lon":144.9555369},"venue":{"address":"579 Little Collins St\nMelbourne VIC 3000","categories":[{"tag":"LiveMusic"},{"tag":"Pub"}],"city":"Melbourne, VIC","name":"Bottom End","url":"https://beat.com.au/directory/bottom-end/"}},{"geo":{"lat":-37.8158067,"lon":144.9595177},"venue":{"address":"501 Bourke St\nMelbourne VIC 3000","categories":[{"tag":"EventVenue"},{"tag":"LiveMusic"}],"city":"Melbourne, VIC","name":"Bourke Street Courtyard","url":"https://beat.com.au/directory/bourke-street-courtyard/"}},{"geo":{"lat":-37.745294,"lon":144.8023878},"venue":{"address":"33 Princess Street\nSt Albans VIC 3021","categories":[{"tag":"TheatreVenue"}],"city":"St Albans, VIC","name":"Bowery Theatre","url":"https://beat.com.au/directory/bowery-theatre/"}},{"geo":{"lat":-37.8252636,"lon":145.1227673},"venue":{"address":"470 Station St\nBox Hill VIC 3128","categories":[{"contents":"","tag":"OtherVenue"}],"city":"VIC","name":"Box Hill Community Arts Centre","url":"https://beat.com.au/directory/box-hill-community-arts-centre/"}},{"geo":{"lat":-36.7264615,"lon":146.9617587},"venue":{"address":"121 Great Alpine Road\nBright VIC 3741","categories":[{"tag":"Brewery"}],"city":"Bright, VIC","name":"Bright Brewery","url":"https://beat.com.au/directory/bright-brewery/"}},{"geo":{"lat":-37.79824,"lon":144.976186},"venue":{"address":"42 Johnston St\nFitzroy VIC 3065","categories":[{"tag":"Bar"},{"tag":"LiveMusic"}],"city":"Fitzroy, VIC","name":"Brothers Public House","url":"https://beat.com.au/directory/brothers-public-house/"}},{"geo":{"lat":-37.8146155,"lon":144.9552495},"venue":{"address":"585 Lonsdale St\nMelbourne VIC 3000","categories":[{"tag":"LiveMusic"},{"tag":"Club"}],"city":"Melbourne, VIC","name":"Brown Alley","url":"https://beat.com.au/directory/brown-alley/"}},{"geo":{"lat":-37.8166899,"lon":144.9657924},"venue":{"address":"250 Flinders Ln\nMelbourne VIC 3000","categories":[{"contents":"","tag":"OtherVenue"}],"city":"Melbourne, VIC","name":"Brunetti","url":"https://beat.com.au/directory/brunetti/"}},{"geo":{"lat":-37.7704205,"lon":144.9617083},"venue":{"address":"316 Sydney Rd\nBrunswick VIC 3056","categories":[{"tag":"Bar"},{"tag":"EventVenue"},{"tag":"LiveMusic"}],"city":"Brunswick, VIC","name":"Brunswick Artists' Bar","url":"https://beat.com.au/directory/brunswick-artists-bar/"}},{"geo":{"lat":-37.7704205,"lon":144.9617083},"venue":{"address":"314 Sydney Rd\nBrunswick VIC 3056","categories":[{"tag":"Bar"},{"tag":"LiveMusic"}],"city":"Brunswick, VIC","name":"Brunswick Ballroom","url":"https://beat.com.au/directory/brunswick-ballroom/"}},{"geo":{"lat":-37.7701405,"lon":144.9614487},"venue":{"address":"313 Sydney Rd\nBrunswick VIC 3056","categories":[{"tag":"Bar"},{"tag":"LiveMusic"}],"city":"Brunswick, VIC","name":"Brunswick Green","url":"https://beat.com.au/directory/brunswick-green/"}},{"geo":{"lat":-37.7713516,"lon":144.9617439},"venue":{"address":"270 Sydney Rd\nBrunswick VIC 3056","categories":[{"tag":"EventVenue"},{"tag":"TheatreVenue"}],"city":"Brunswick, VIC","name":"Brunswick Mechanics Institute","url":"https://beat.com.au/directory/brunswick-mechanics-institute/"}},{"geo":{"lat":-37.7581914,"lon":144.9636576},"venue":{"address":"214 Sydney Rd\nBrunswick VIC 3056","categories":[{"contents":"","tag":"OtherVenue"}],"city":"Brunswick, VIC","name":"Brunswick Uniting Church","url":"https://beat.com.au/directory/brunswick-uniting-church/"}},{"geo":{"lat":-38.0198585,"lon":145.2994259},"venue":{"address":"2 Patrick NE Dr\nNarre Warren VIC 3805","categories":[{"tag":"TheatreVenue"}],"city":"Narre Warren, VIC","name":"Bunjil Place","url":"https://beat.com.au/directory/bunjil-place/"}},{"geo":{"lat":-37.8132446,"lon":144.9699475},"venue":{"address":"118 Little Collins St\nMelbourne VIC 3000","categories":[{"contents":"","tag":"OtherVenue"}],"city":"Melbourne, VIC","name":"Burma Lane","url":"https://beat.com.au/directory/burma-lane/"}},{"geo":{"lat":-37.8536968,"lon":145.0069874},"venue":{"address":"209 High St\nPrahran VIC 3181","categories":[{"tag":"Bar"},{"tag":"Club"},{"tag":"EventVenue"},{"tag":"Pub"}],"city":null,"name":"Burner Bar","url":"https://beat.com.au/directory/burner-bar/"}},{"geo":{"lat":-37.8141746,"lon":144.9662185},"venue":{"address":"11 Rainbow Alley\nMelbourne VIC 3000","categories":[{"tag":"Bar"}],"city":"Melbourne, VIC","name":"Cabinet Bar & Balcony","url":"https://beat.com.au/directory/cabinet-bar-balcony/"}},{"geo":{"lat":-37.7612582,"lon":145.0004166},"venue":{"address":"614 High St\nThornbury VIC 3071","categories":[{"tag":"Bar"},{"tag":"EventVenue"},{"tag":"LiveMusic"}],"city":"Thornbury, VIC","name":"Cactus Room","url":"https://beat.com.au/directory/cactus-room/"}},{"geo":{"lat":-37.7592368,"lon":145.0002585},"venue":{"address":"711 High St\nThornbury VIC 3071","categories":[{"tag":"Bar"},{"tag":"EventVenue"}],"city":"Thornbury, VIC","name":"Cafe Gummo","url":"https://beat.com.au/directory/cafe-gummo/"}},{"geo":{"lat":-37.8133467,"lon":144.9610948},"venue":{"address":"23-25 Hardware Ln\nMelbourne VIC 3000","categories":[{"tag":"Bar"}],"city":"Melbourne, VIC","name":"Campari House","url":"https://beat.com.au/directory/campari-house/"}},{"geo":{"lat":-37.8656234,"lon":144.9720318},"venue":{"address":"10/10-18 Jacka Blvd, St Kilda VIC 3182","categories":[{"tag":"Bar"}],"city":"St Kilda","name":"Captain Baxter","url":"https://beat.com.au/directory/captain-baxter/"}},{"geo":{"lat":-37.9184714,"lon":145.0236215},"venue":{"address":"1 Victor Rd\nBentleigh East VIC 3165","categories":[{"tag":"LiveMusic"}],"city":"Bentleigh East, VIC","name":"Caravan Music Club","url":"https://beat.com.au/directory/caravan-music-club/"}},{"geo":{"lat":-37.8101111,"lon":145.0033352},"venue":{"address":"24 Thompson St\nAbbotsford VIC 3067","categories":[{"tag":"Bar"},{"tag":"Brewery"}],"city":"Abbotsford, VIC","name":"Carlton Brewhouse","url":"https://beat.com.au/directory/carlton-brewhouse/"}},{"geo":{"lat":-37.795818,"lon":144.9687346},"venue":{"address":"180 Palmerston St\nCarlton VIC 3053","categories":[{"contents":"","tag":"OtherVenue"}],"city":"Carlton, VIC","name":"Carlton Church Of All Nations","url":"https://beat.com.au/directory/carlton-church-of-all-nations/"}},{"geo":{"lat":-38.1143487,"lon":145.2952806},"venue":{"address":"65 Berwick-Cranbourne Rd\nCranbourne East VIC 3977","categories":[{"tag":"LiveMusic"}],"city":"VIC","name":"Casey Radio","url":"https://beat.com.au/directory/casey-radio/"}},{"geo":{"lat":-37.88397,"lon":145.0031046},"venue":{"address":"4 St Georges Rd\nElsternwick VIC 3185","categories":[{"tag":"Pub"}],"city":"Elsternwick, VIC","name":"Caulfield RSL","url":"https://beat.com.au/directory/caulfield-rsl/"}},{"geo":{"lat":-37.8059236,"lon":144.9832619},"venue":{"address":"80 Smith St\nCollingwood VIC 3066","categories":[{"tag":"Bar"}],"city":"Collingwood, VIC","name":"Caz Reitop's Dirty Secrets","url":"https://beat.com.au/directory/caz-reitops-dirty-secrets/"}},{"geo":{"lat":-37.8652468,"lon":145.0505075},"venue":{"address":"148 Burke Rd\nMalvern East VIC 3145","categories":[{"contents":"","tag":"OtherVenue"}],"city":"Malvern East, VIC","name":"Central Park (Malvern East)","url":"https://beat.com.au/directory/central-park-malvern-east/"}},{"geo":{"lat":-37.8161014,"lon":144.9609318},"venue":{"address":"105 Queen St\nMelbourne VIC 3000","categories":[{"tag":"Bar"},{"tag":"Club"}],"city":"Melbourne, VIC","name":"Chaise Lounge","url":"https://beat.com.au/directory/chaise-lounge/"}},{"geo":{"lat":-37.8476521,"lon":144.9951224},"venue":{"address":"12 Little Chapel St\nPrahran VIC 3181","categories":[{"tag":"EventVenue"},{"tag":"LiveMusic"}],"city":"Prahran, VIC","name":"Chapel Off Chapel","url":"https://beat.com.au/directory/chapel-off-chapel/"}},{"geo":{"lat":-37.7748361,"lon":144.9632853},"venue":{"address":"27 Weston St\nBrunswick VIC 3056","categories":[{"tag":"Bar"},{"tag":"LiveMusic"}],"city":"Brunswick, VIC","name":"Charles Weston Hotel","url":"https://beat.com.au/directory/charles-weston-hotel/"}},{"geo":{"lat":-37.8459118,"lon":144.9945123},"venue":{"address":"386 Chapel St\nSouth Yarra VIC 3141","categories":[{"tag":"Bar"},{"tag":"Club"}],"city":"South Yarra, VIC","name":"Chasers Nightclub","url":"https://beat.com.au/directory/chasers-nightclub/"}},{"geo":{"lat":-37.8128595,"lon":144.9713425},"venue":{"address":"68 Little Collins Street\nMelbourne VIC 3000","categories":[{"tag":"Bar"},{"tag":"LiveMusic"}],"city":"Melbourne, VIC","name":"Cherry Bar","url":"https://beat.com.au/directory/cherry-bar/"}},{"geo":{"lat":-37.8298987,"lon":144.9930671},"venue":{"address":"53 Balmain Street\nCremorne 3121","categories":[{"tag":"Pub"}],"city":"Cremorne, VIC","name":"Cherry Tree Hotel","url":"https://beat.com.au/directory/cherry-tree-hotel/"}},{"geo":{"lat":-37.7742829,"lon":144.9601606},"venue":{"address":"3 Union St\nBrunswick VIC 3056","categories":[{"contents":"","tag":"OtherVenue"}],"city":"Brunswick, VIC","name":"Ciao Mamma!","url":"https://beat.com.au/directory/ciao-mamma/"}},{"geo":{"lat":-37.7296494,"lon":144.9500667},"venue":{"address":"146 Sussex St\nPascoe Vale VIC 3044","categories":[{"contents":"","tag":"OtherVenue"}],"city":"Pascoe Vale, VIC","name":"Ciccio Pizza","url":"https://beat.com.au/directory/ciccio-pizza/"}},{"geo":{"lat":-37.797858,"lon":144.968289},"venue":{"address":"380 Lygon St\nCarlton VIC 3053","categories":[{"tag":"TheatreVenue"}],"city":"Carlton, VIC","name":"Cinema Nova","url":"https://beat.com.au/directory/cinema-nova/"}},{"geo":{"lat":-37.8838373,"lon":145.0006883},"venue":{"address":"9 Gordon Street\nElsternwick VIC 3185","categories":[{"tag":"LiveMusic"}],"city":"Elsternwick, VIC","name":"Classic Southside","url":"https://beat.com.au/directory/classic-southside/"}},{"geo":{"lat":-37.7897383,"lon":144.9890945},"venue":{"address":"89 Queens Parade\nClifton Hill VIC 3068","categories":[{"tag":"Brewery"},{"tag":"Pub"}],"city":"Clifton Hill, VIC","name":"Clifton Hill Brewpub","url":"https://beat.com.au/directory/clifton-hill-brewpub/"}},{"geo":{"lat":-37.7656716,"lon":144.9248037},"venue":{"address":"750 Mt Alexander Road\nMoonee Ponds VIC 3039","categories":[{"contents":"","tag":"OtherVenue"}],"city":"Moonee Ponds, VIC","name":"Clocktower Centre","url":"https://beat.com.au/directory/clocktower-centre/"}},{"geo":{"lat":-37.8611703,"lon":145.3769063},"venue":{"address":"89 Olinda-Monbulk Rd\nOlinda VIC 3788","categories":[{"contents":"","tag":"OtherVenue"}],"city":"Olinda, VIC","name":"Cloudehill Gardens","url":"https://beat.com.au/directory/cloudehill-gardens/"}},{"geo":{"lat":-37.8317594,"lon":144.9655776},"venue":{"address":"127 Dorcas St\nSouth Melbourne VIC 3205","categories":[{"tag":"Club"},{"tag":"EventVenue"}],"city":"South Melbourne, VIC","name":"Club Pandora","url":"https://beat.com.au/directory/club-pandora/"}},{"geo":{"lat":-37.8042459,"lon":144.9501312},"venue":{"address":"1st Floor/14 Raglan St\nNorth Melbourne VIC 3051","categories":[{"tag":"LiveMusic"}],"city":"North Melbourne, VIC","name":"Club Voltaire","url":"https://beat.com.au/directory/club-voltaire/"}},{"geo":{"lat":-37.7459437,"lon":144.9655685},"venue":{"address":"323 Sydney Rd\nCoburg VIC 3058","categories":[{"tag":"Club"}],"city":"Coburg, VIC","name":"Coburg RSL Club","url":"https://beat.com.au/directory/coburg-rsl-club/"}},{"geo":{"lat":-37.8030033,"lon":145.0057542},"venue":{"address":"18 St Heliers St\nAbbotsford VIC 3067","categories":[{"tag":"FestivalVenue"}],"city":"VIC","name":"Collingwood Children’s Farm","url":"https://beat.com.au/directory/collingwood-childrens-farm/"}},{"geo":{"lat":-37.7993391,"lon":144.9864551},"venue":{"address":"35 Johnston St\nCollingwood VIC 3066","categories":[{"tag":"EventVenue"}],"city":"VIC","name":"Collingwood Yards","url":"https://beat.com.au/directory/collingwood-yards/"}},{"geo":{"lat":-37.8045738,"lon":144.9611514},"venue":{"address":"229 Queensberry St\nCarlton VIC 3053","categories":[{"tag":"Bar"},{"tag":"Club"}],"city":"Carlton, VIC","name":"Colour Club","url":"https://beat.com.au/directory/colour-club/"}},{"geo":{"lat":-37.8102912,"lon":144.9700374},"venue":{"address":"240 Exhibition St\nMelbourne VIC 3000","categories":[{"tag":"TheatreVenue"}],"city":"Melbourne, VIC","name":"Comedy Theatre","url":"https://beat.com.au/directory/comedy-theatre/"}},{"geo":{"lat":-37.778276,"lon":144.9706211},"venue":{"address":"319 Lygon St\nBrunswick East VIC 3057","categories":[{"tag":"LiveMusic"}],"city":"Brunswick East, VIC","name":"Compass Pizza","url":"https://beat.com.au/directory/compass-pizza/"}},{"geo":{"lat":-37.8065461,"lon":144.9829625},"venue":{"address":"139 Smith St\nFitzroy VIC 3065","categories":[{"tag":"Bar"},{"tag":"LiveMusic"}],"city":"Fitzroy, VIC","name":"Copacabana International","url":"https://beat.com.au/directory/copacabana-international/"}},{"geo":{"lat":-37.8248893,"lon":144.9926664},"venue":{"address":"57 Swan St\nRichmond VIC 3121","categories":[{"tag":"Bar"},{"tag":"LiveMusic"}],"city":"Richmond, VIC","name":"Corner Hotel","url":"https://beat.com.au/directory/corner-hotel/"}},{"geo":{"lat":-37.778276,"lon":144.9706211},"venue":{"address":"140 Lygon St\nBrunswick East VIC 3057","categories":[{"tag":"Bar"},{"tag":"EventVenue"},{"tag":"Pub"}],"city":"Brunswick East, VIC","name":"Creature Bar","url":"https://beat.com.au/directory/creature-bar/"}},{"geo":{"lat":-37.7975956,"lon":144.9784379},"venue":{"address":"319 Brunswick St\nFitzroy VIC 3065","categories":[{"tag":"Bar"},{"tag":"LiveMusic"}],"city":"Fitzroy, VIC","name":"Creatures of Habit Bar & Bandroom","url":"https://beat.com.au/directory/creatures-of-habit-bar-bandroom/"}},{"geo":{"lat":-37.7689698,"lon":144.9747815},"venue":{"address":"16-22 Cross St\nBrunswick East VIC 3057","categories":[{"tag":"LiveMusic"}],"city":"Brunswick East, VIC","name":"Cross Street Music Hall","url":"https://beat.com.au/directory/cross-street-music-hall/"}},{"geo":{"lat":-37.7567448,"lon":144.9637507},"venue":{"address":"833 Sydney Rd\nBrunswick VIC 3056","categories":[{"tag":"Bar"},{"tag":"EventVenue"},{"tag":"LiveMusic"}],"city":"Brunswick, VIC","name":"Culture Club","url":"https://beat.com.au/directory/culture-club/"}},{"geo":{"lat":-37.818194,"lon":144.9602606},"venue":{"address":"408 Flinders Ln\nMelbourne VIC 3000","categories":[{"tag":"Bar"},{"tag":"LiveMusic"}],"city":"VIC","name":"Curious","url":"https://beat.com.au/directory/curious/"}},{"geo":{"lat":-37.8630972,"lon":144.904029},"venue":{"address":"161 Nelson Pl\nWilliamstown VIC 3016","categories":[{"tag":"LiveMusic"},{"tag":"Pub"}],"city":"Williamstown, VIC","name":"Customs House Hotel","url":"https://beat.com.au/directory/customs-house-hotel/"}},{"geo":{"lat":-37.3414953,"lon":144.1430697},"venue":{"address":"2 Burke Square\nDaylesford VIC 3460","categories":[{"tag":"Pub"}],"city":"Daylesford, VIC","name":"Daylesford Hotel","url":"https://beat.com.au/directory/daylesford-hotel/"}},{"geo":{"lat":-37.7606795,"lon":144.9213475},"venue":{"address":"595 Mt Alexander Rd\nMoonee Ponds VIC 3039","categories":[{"tag":"Bar"}],"city":"Moonee Ponds, VIC","name":"Deluxe Bar & Lounge","url":"https://beat.com.au/directory/deluxe-bar-lounge/"}},{"geo":{"lat":-37.728938,"lon":145.0173599},"venue":{"address":"715 Plenty Road\nReservoir VIC 3073","categories":[{"tag":"LiveMusic"},{"contents":"Record Store","tag":"OtherVenue"}],"city":"Reservoir, VIC","name":"Desert Highways","url":"https://beat.com.au/directory/desert-highways/"}},{"geo":{"lat":-37.8581323,"lon":144.9959904},"venue":{"address":"Dandenong Rd\nWindsor VIC 3181","categories":[{"tag":"TheatreVenue"}],"city":"Windsor, VIC","name":"Developing Dancers Melbourne","url":"https://beat.com.au/directory/developing-dancers-melbourne/"}},{"geo":{"lat":-37.8219355,"lon":144.969591},"venue":{"address":"417 St Kilda Rd, Melbourne VIC 3004","categories":[{"contents":"","tag":"OtherVenue"}],"city":"Melbourne","name":"Dingo Ate My Taco","url":"https://beat.com.au/directory/dingo-ate-my-taco/"}},{"geo":{"lat":-38.0248796,"lon":145.3107778},"venue":{"address":"14-22 Lauderdale Rd\nNarre Warren VIC 3805","categories":[{"tag":"Club"}],"city":"Narre Warren, VIC","name":"District 14","url":"https://beat.com.au/directory/empire-nightclub/"}},{"geo":{"lat":-37.8663225,"lon":144.9779203},"venue":{"address":"54 Acland St\nSt Kilda VIC 3182","categories":[{"tag":"Bar"}],"city":"St Kilda, VIC","name":"Dogs Bar","url":"https://beat.com.au/directory/dogs-bar/"}},{"geo":{"lat":-37.799833,"lon":144.9941396},"venue":{"address":"274 Johnston St\nAbbotsford VIC 3067","categories":[{"tag":"Bar"},{"tag":"Club"},{"tag":"EventVenue"},{"tag":"LiveMusic"}],"city":"Abbotsford, VIC","name":"Dr Morse","url":"https://beat.com.au/directory/dr-morse/"}},{"geo":{"lat":-37.7929991,"lon":144.9758231},"venue":{"address":"442 Nicholson St\nFitzroy North VIC 3068","categories":[{"tag":"Bar"},{"tag":"Pub"}],"city":"Fitzroy North, VIC","name":"Dr. Freeman","url":"https://beat.com.au/directory/dr-freeman/"}},{"geo":{"lat":-37.8294844,"lon":144.8721486},"venue":{"address":"23 Vernon St\nSouth Kingsville VIC 3015","categories":[{"tag":"Bar"},{"tag":"EventVenue"},{"tag":"LiveMusic"}],"city":"VIC","name":"Dukkah Restaurant","url":"https://beat.com.au/directory/dukkah/"}},{"geo":{"lat":-37.868967,"lon":145.0498034},"venue":{"address":"92 Burke Road \nEast Malvern VIC 3145","categories":[{"tag":"EventVenue"},{"tag":"LiveMusic"},{"contents":"Galleries","tag":"OtherVenue"}],"city":"East Malvern, VIC","name":"Duldig Studio","url":"https://beat.com.au/directory/duldig-studio/"}},{"geo":{"lat":-37.7645382,"lon":144.9802464},"venue":{"address":"127-149 Nicholson St\nBrunswick East VIC 3057","categories":[{"contents":"","tag":"OtherVenue"}],"city":"Brunswick East, VIC","name":"East Brunswick Village","url":"https://beat.com.au/directory/east-brunswick-village/"}},{"geo":{"lat":-37.8717669,"lon":145.0670958},"venue":{"address":"Stanley Grose Dr\nMalvern East VIC 3145","categories":[{"tag":"LiveMusic"},{"tag":"Pub"}],"city":"VIC","name":"East Malvern RSL","url":"https://beat.com.au/directory/east-malvern-rsl/"}},{"geo":{"lat":-37.9481381,"lon":145.0592077},"venue":{"address":"168 Chesterville Rd\nCheltenham VIC 3192","categories":[{"tag":"Bar"}],"city":"Cheltenham, VIC","name":"Eddie's Bandroom","url":"https://beat.com.au/directory/eddies-bandroom/"}},{"geo":{"lat":-37.8052787,"lon":144.9834548},"venue":{"address":"108 Smith St\nCollingwood VIC 3066","categories":[{"tag":"Bar"},{"tag":"Club"},{"tag":"EventVenue"}],"city":"Collingwood, VIC","name":"EDEN","url":"https://beat.com.au/directory/eden/"}},{"geo":{"lat":-37.760963,"lon":144.9627513},"venue":{"address":"681 Sydney Rd\nBrunswick VIC 3056","categories":[{"tag":"LiveMusic"},{"tag":"Pub"}],"city":"Brunswick, VIC","name":"Edinburgh Castle Hotel","url":"https://beat.com.au/directory/edinburgh-castle-hotel/"}},{"geo":{"lat":-37.7932647,"lon":144.9793312},"venue":{"address":"578 Brunswick Street\nFitzroy North VIC 3068","categories":[{"contents":"","tag":"OtherVenue"}],"city":"Fitzroy North, VIC","name":"Edinburgh Gardens","url":"https://beat.com.au/directory/edinburgh-gardens/"}},{"geo":{"lat":-37.8835267,"lon":144.994374},"venue":{"address":"49-51 Glen Huntly Rd\nElwood VIC 3184","categories":[{"contents":"","tag":"OtherVenue"}],"city":"Elwood, VIC","name":"Elwood Lounge","url":"https://beat.com.au/directory/elwood-lounge/"}},{"geo":{"lat":-37.778276,"lon":144.9706211},"venue":{"address":"60 Lygon St\nBrunswick East VIC 3057","categories":[{"contents":"","tag":"OtherVenue"}],"city":"Brunswick East, VIC","name":"Etta","url":"https://beat.com.au/directory/etta/"}},{"geo":{"lat":-37.7965465,"lon":144.9785611},"venue":{"address":"351 Brunswick St\nFitzroy VIC 3065","categories":[{"tag":"Bar"},{"tag":"LiveMusic"}],"city":"Brunswick, VIC","name":"Evelyn Hotel","url":"https://beat.com.au/directory/evelyn-hotel/"}},{"geo":{"lat":-37.8064025,"lon":144.9822972},"venue":{"address":"230/232 Gertrude St\nFitzroy VIC 3065","categories":[{"tag":"Bar"}],"city":"Fitzroy, VIC","name":"Evie's Disco Diner","url":"https://beat.com.au/directory/evies-disco-diner/"}},{"geo":{"lat":-37.8112208,"lon":144.9684346},"venue":{"address":"14 Corrs Ln\nMelbourne VIC 3000","categories":[{"tag":"Bar"},{"tag":"EventVenue"},{"tag":"LiveMusic"}],"city":"Melbourne, VIC","name":"FAD Gallery","url":"https://beat.com.au/directory/fad-gallery/"}},{"geo":{"lat":-37.8120832,"lon":144.9710491},"venue":{"address":"Level 1/79 Bourke St\nMelbourne VIC 3000","categories":[{"contents":"","tag":"OtherVenue"}],"city":"Melbourne, VIC","name":"Fancy Hank’s","url":"https://beat.com.au/directory/fancy-hanks/"}},{"geo":{"lat":-37.8118962,"lon":144.9655789},"venue":{"address":"31 Tattersalls Ln\nMelbourne VIC 3000","categories":[{"tag":"Bar"},{"tag":"Club"},{"tag":"LiveMusic"}],"city":"Melbourne, VIC","name":"Ferdydurke","url":"https://beat.com.au/directory/ferdydurke/"}},{"geo":{"lat":-37.8892578,"lon":145.2972083},"venue":{"address":"1130 Burwood Hwy\nFerntree Gully VIC 3156","categories":[{"tag":"Bar"}],"city":"Ferntree Gully, VIC","name":"Ferntree Gully Hotel","url":"https://beat.com.au/directory/ferntree-gully-hotel/"}},{"geo":{"lat":-37.8106039,"lon":144.9489214},"venue":{"address":"300 Dudley St\nWest Melbourne VIC 3003","categories":[{"tag":"LiveMusic"}],"city":"West Melbourne, VIC","name":"Festival Hall","url":"https://beat.com.au/directory/festival-hall/"}},{"geo":{"lat":-37.8147564,"lon":144.9655738},"venue":{"address":"267 Little Collins St\nMelbourne VIC 3000","categories":[{"tag":"Bar"},{"tag":"Club"}],"city":"Melbourne, VIC","name":"Fika Island","url":"https://beat.com.au/directory/fika-island/"}},{"geo":{"lat":-37.9334203,"lon":145.0358258},"venue":{"address":"979-985 Nepean Hwy\nMoorabbin VIC 3189","categories":[{"tag":"LiveMusic"}],"city":"Moorabbin, VIC","name":"Flying Saucer Club","url":"https://beat.com.au/directory/flying-saucer-club/"}},{"geo":{"lat":-37.8033391,"lon":144.9073334},"venue":{"address":"45 Moreland Street\nFootscray VIC 3011","categories":[{"contents":"","tag":"OtherVenue"}],"city":"Footscray, VIC","name":"Footscray Community Arts","url":"https://beat.com.au/directory/footscray-community-arts/"}},{"geo":{"lat":-37.8148148,"lon":144.9730268},"venue":{"address":"45 Flinders Ln\nMelbourne VIC 3000","categories":[{"tag":"EventVenue"},{"tag":"TheatreVenue"}],"city":"Melbourne, VIC","name":"fortyfivedownstairs","url":"https://beat.com.au/directory/fortyfivedownstairs/"}},{"geo":{"lat":-37.8164414,"lon":144.9693768},"venue":{"address":"154 Flinders St\nMelbourne VIC 3000","categories":[{"tag":"LiveMusic"}],"city":"Melbourne, VIC","name":"Forum Melbourne","url":"https://beat.com.au/directory/forum-melbourne/"}},{"geo":{"lat":-37.8067875,"lon":144.9853693},"venue":{"address":"63 Wellington St\nCollingwood VIC 3066","categories":[{"contents":"Galleries","tag":"OtherVenue"}],"city":"Collingwood, VIC","name":"Fox Galleries","url":"https://beat.com.au/directory/fox-galleries/"}},{"geo":{"lat":-37.7735921,"lon":144.998294},"venue":{"address":"222-224 High St\nNorthcote VIC 3070","categories":[{"tag":"Bar"},{"tag":"Club"}],"city":"Northcote, VIC","name":"Francesca's Bar","url":"https://beat.com.au/directory/francescas-bar/"}},{"geo":{"lat":-37.8217066,"lon":144.9618119},"venue":{"address":"Shop 16R, Level 1/1 Freshwater Pl\nSouthbank VIC 3006","categories":[{"tag":"LiveMusic"}],"city":"Southbank, VIC","name":"Frankie Upstairs / Nadi Studios","url":"https://beat.com.au/directory/frankie-upstairs-nadi-studios/"}},{"geo":{"lat":-38.1461351,"lon":145.1232659},"venue":{"address":"27-37 Davey St\nFrankston VIC 3199","categories":[{"tag":"EventVenue"}],"city":"Frankston, VIC","name":"Frankston Arts Centre","url":"https://beat.com.au/directory/frankston-arts-centre/"}},{"geo":{"lat":-37.8597831,"lon":144.9777885},"venue":{"address":"125 Fitzroy St, St Kilda VIC 3182","categories":[{"tag":"LiveMusic"},{"tag":"Pub"}],"city":"St Kilda","name":"Freddie Wimpoles","url":"https://beat.com.au/directory/freddie-wimpoles/"}},{"geo":{"lat":-37.7942616,"lon":144.9853531},"venue":{"address":"484 Smith St\nCollingwood VIC 3066","categories":[{"tag":"Bar"},{"tag":"Club"},{"tag":"LiveMusic"}],"city":"Collingwood, VIC","name":"Gasometer Hotel","url":"https://beat.com.au/directory/gasometer-hotel/"}},{"geo":{"lat":-37.8432917,"lon":144.9463874},"venue":{"address":"21 Graham St\nAlbert Park VIC 3206","categories":[{"tag":"TheatreVenue"}],"city":"Albert Park, VIC","name":"Gasworks Arts Park","url":"https://beat.com.au/directory/gasworks-arts-park/"}},{"geo":{"lat":-37.8190329,"lon":144.9574332},"venue":{"address":"2 Geddes Ln\nMelbourne VIC 3000","categories":[{"tag":"LiveMusic"}],"city":"Melbourne, VIC","name":"Geddes Lane Ballroom","url":"https://beat.com.au/directory/geddes-lane-ballroom/"}},{"geo":{"lat":-37.7963739,"lon":144.9875792},"venue":{"address":"289 Wellington St\nCollingwood VIC 3066","categories":[{"tag":"Bar"},{"tag":"LiveMusic"}],"city":"Collingwood, VIC","name":"Gem Bar","url":"https://beat.com.au/directory/gem-bar/"}},{"geo":{"lat":-37.8185934,"lon":144.9590886},"venue":{"address":"12a/45 William St\nMelbourne VIC 3000","categories":[{"tag":"FestivalVenue"},{"tag":"TheatreVenue"}],"city":"Melbourne, VIC","name":"General Assembly Melbourne","url":"https://beat.com.au/directory/general-assembly-melbourne/"}},{"geo":{"lat":-37.8599731,"lon":144.9780305},"venue":{"address":"1 George Ln\nSt Kilda VIC 3182","categories":[{"tag":"Bar"},{"tag":"LiveMusic"},{"tag":"Pub"}],"city":"VIC","name":"George Lane","url":"https://beat.com.au/directory/george-lane/"}},{"geo":{"lat":-37.7985086,"lon":144.9789458},"venue":{"address":"120 Johnston St\nFitzroy VIC 3065","categories":[{"tag":"Bar"}],"city":"Fitzroy, VIC","name":"George's Bar","url":"https://beat.com.au/directory/georges-bar/"}},{"geo":{"lat":-37.9582132,"lon":145.0398792},"venue":{"address":"4/1-5 Hamlet St\nCheltenham Vic 3192","categories":[{"contents":"","tag":"OtherVenue"}],"city":"Cheltenham, VIC","name":"Gintonica","url":"https://beat.com.au/directory/gintonica/"}},{"geo":{"lat":-37.7954205,"lon":144.9787378},"venue":{"address":"393 Brunswick St\nFitzroy VIC 3065","categories":[{"tag":"Club"}],"city":"Fitzroy, VIC","name":"Glamorama","url":"https://beat.com.au/directory/glamorama/"}},{"geo":{"lat":-37.8147564,"lon":144.9655738},"venue":{"address":"Level 2/267 Little Collins St\nMelbourne VIC 3000","categories":[{"tag":"Bar"}],"city":"Melbourne, VIC","name":"Glamp Cocktail Bar","url":"https://beat.com.au/directory/glamp-cocktail-bar/"}},{"geo":{"lat":-37.6971557,"lon":144.9237197},"venue":{"address":"6 Ash Court\nGlenroy VIC 3046","categories":[{"tag":"EventVenue"},{"tag":"LiveMusic"},{"tag":"Club"}],"city":"Glenroy, VIC","name":"Glenroy Bowls Club","url":"https://beat.com.au/directory/glenroy-bowls-club/"}},{"geo":{"lat":-37.8791417,"lon":145.0236548},"venue":{"address":"241 Hawthorn Rd\nCaulfield North VIC 3161","categories":[{"contents":"Galleries","tag":"OtherVenue"}],"city":"Caulfield North, VIC","name":"Glimmer Gallery","url":"https://beat.com.au/directory/glimmer-gallery/"}},{"geo":{"lat":-37.8122037,"lon":144.9655634},"venue":{"address":"Level 1 Globe Alley\nMelbourne VIC 3000","categories":[{"tag":"LiveMusic"}],"city":"Melbourne, VIC","name":"Globe Alley","url":"https://beat.com.au/directory/globe-alley/"}},{"geo":{"lat":-37.831777,"lon":144.959768},"venue":{"address":"238 Clarendon St\nSouth Melbourne VIC 3205","categories":[{"tag":"Bar"},{"tag":"Club"},{"tag":"EventVenue"},{"tag":"Pub"}],"city":"South Melbourne, VIC","name":"Golden Gate Hotel","url":"https://beat.com.au/directory/golden-gate-hotel/"}},{"geo":{"lat":-37.8128532,"lon":144.9610158},"venue":{"address":"Basement / 389 Lonsdale Street\nMelbourne VIC 3000","categories":[{"tag":"Bar"}],"city":"Melbourne, VIC","name":"Golden Monkey","url":"https://beat.com.au/directory/golden-monkey/"}},{"geo":{"lat":-37.8120832,"lon":144.9710491},"venue":{"address":"Level 2/79 Bourke St\nMelbourne VIC 3000","categories":[{"tag":"Bar"},{"tag":"LiveMusic"}],"city":"Melbourne, VIC","name":"Good Heavens","url":"https://beat.com.au/directory/good-heavens/"}},{"geo":{"lat":-37.8463247,"lon":144.9913512},"venue":{"address":"147 Commercial Rd\nSouth Yarra VIC 3141","categories":[{"tag":"EventVenue"},{"tag":"Bar"},{"tag":"Club"}],"city":"VIC","name":"Good Things Bar","url":"https://beat.com.au/directory/good-things-bar/"}},{"geo":{"lat":-37.804851,"lon":144.983442},"venue":{"address":"114 Smith St\nCollingwood VIC 3066","categories":[{"tag":"Bar"},{"tag":"LiveMusic"},{"tag":"Pub"}],"city":"Collingwood, VIC","name":"Grace Darling Hotel","url":"https://beat.com.au/directory/grace-darling-hotel/"}},{"geo":{"lat":-38.2199606,"lon":145.039122},"venue":{"address":"124 Main St\nMornington VIC 3931","categories":[{"tag":"Bar"},{"tag":"EventVenue"},{"tag":"Pub"}],"city":"Melbourne, VIC","name":"Grand Hotel Mornington","url":"https://beat.com.au/directory/grand-hotel-mornington/"}},{"geo":{"lat":-37.8159588,"lon":144.9610992},"venue":{"address":"420 Little Collins Street, Melbourne, 3000","categories":[{"contents":"","tag":"OtherVenue"}],"city":"Melbourne, VIC","name":"Gravity Club","url":"https://beat.com.au/directory/gravity-club/"}},{"geo":{"lat":-37.8301071,"lon":144.8935874},"venue":{"address":"20 Booker St\nSpotswood VIC 3015","categories":[{"tag":"Bar"},{"tag":"EventVenue"},{"tag":"LiveMusic"}],"city":"Spotswood, VIC","name":"Grazeland","url":"https://beat.com.au/directory/grazeland/"}},{"geo":{"lat":-37.80524,"lon":144.983027},"venue":{"address":"125 Smith St\nFitzroy VIC 3065","categories":[{"tag":"Bar"},{"tag":"EventVenue"},{"tag":"LiveMusic"}],"city":"Fitzroy, VIC","name":"Grumpy's Green","url":"https://beat.com.au/directory/grumpys-green/"}},{"geo":{"lat":-37.8201575,"lon":144.9679835},"venue":{"address":"100 St Kilda Rd\nMelbourne VIC 3004","categories":[{"tag":"LiveMusic"},{"tag":"TheatreVenue"}],"city":"Melbourne, VIC","name":"Hamer Hall (Arts Centre Melbourne)","url":"https://beat.com.au/directory/hamer-hall-arts-centre-melbourne/"}},{"geo":{"lat":-37.7308463,"lon":145.0150943},"venue":{"address":"670 Plenty Rd\nPreston VIC 3072","categories":[{"tag":"Bar"}],"city":"Preston, VIC","name":"HARDOUT","url":"https://beat.com.au/directory/hardout/"}},{"geo":{"lat":-37.7980197,"lon":144.9768672},"venue":{"address":"63 Johnston St\nFitzroy VIC 3065","categories":[{"tag":"TheatreVenue"}],"city":"Fitzroy, VIC","name":"Harehole.Melbourne","url":"https://beat.com.au/directory/harehole-melbourne/"}},{"geo":{"lat":-37.7552371,"lon":145.0095397},"venue":{"address":"71 Collins St\nMelbourne VIC 3000","categories":[{"tag":"Bar"}],"city":"Melbourne, VIC","name":"Harley House Bar and Grill","url":"https://beat.com.au/directory/harley-house-bar-and-grill/"}},{"geo":{"lat":-37.826795,"lon":144.9979343},"venue":{"address":"447 Church St\nRichmond VIC 3121","categories":[{"tag":"Bar"}],"city":"Richmond, VIC","name":"Harlow","url":"https://beat.com.au/directory/harlow/"}},{"geo":{"lat":-37.8230335,"lon":145.0358857},"venue":{"address":"360 Burwood Rd\nHawthorn VIC 3122","categories":[{"tag":"EventVenue"}],"city":"Hawthorn, VIC","name":"Hawthorn Arts Centre","url":"https://beat.com.au/directory/hawthorn-arts-centre/"}},{"geo":{"lat":-37.7586271,"lon":145.0842075},"venue":{"address":"7 Templestowe Rd\nBulleen VIC 3105","categories":[{"contents":"","tag":"OtherVenue"}],"city":"Bulleen, VIC","name":"Heide Museum of Modern Art","url":"https://beat.com.au/directory/heide-museum-of-modern-art/"}},{"geo":{"lat":-37.812681,"lon":144.967523},"venue":{"address":"188 Bourke St\nMelbourne VIC 3000","categories":[{"tag":"Bar"},{"tag":"EventVenue"}],"city":"Melbourne, VIC","name":"Heroes Karaoke & Rooftop Bar","url":"https://beat.com.au/directory/heroes-karaoke-rooftop-bar/"}},{"geo":{"lat":-38.3438898,"lon":144.9435374},"venue":{"address":"105 Latrobe Parade\nDromana VIC 3936","categories":[{"contents":"","tag":"OtherVenue"}],"city":"Dromana, VIC","name":"Heronswood House and Garden","url":"https://beat.com.au/directory/heronswood-house-gardens/"}},{"geo":{"lat":-37.8429767,"lon":145.0472743},"venue":{"address":"Buley St\nHawthorn East VIC 3123","categories":[{"tag":"LiveMusic"}],"city":"Hawthorn East, VIC","name":"HideOut Music","url":"https://beat.com.au/directory/hideout-music/"}},{"geo":{"lat":-37.7277328,"lon":145.0055794},"venue":{"address":"817 High Street\nReservoir VIC 3073","categories":[{"tag":"EventVenue"},{"tag":"Bar"},{"tag":"LiveMusic"},{"tag":"Pub"},{"tag":"TheatreVenue"},{"contents":"Café","tag":"OtherVenue"},{"contents":"Galleries","tag":"OtherVenue"}],"city":"Reservoir, VIC","name":"High and Wild Bar & Cafe","url":"https://beat.com.au/directory/high-and-wild-bar-cafe/"}},{"geo":{"lat":-37.7736456,"lon":144.9982831},"venue":{"address":"220 High St, Northcote VIC 3070","categories":[{"tag":"Bar"},{"tag":"LiveMusic"}],"city":"Northcote","name":"High Note","url":"https://beat.com.au/directory/high-note/"}},{"geo":{"lat":-37.8201768,"lon":144.966393},"venue":{"address":"MR5/3 Southgate Ave\nSouthbank VIC 3006","categories":[{"tag":"Bar"},{"tag":"Pub"}],"city":"VIC","name":"Hophaus Bar Bistro","url":"https://beat.com.au/directory/hophaus-bar-bistro/"}},{"geo":{"lat":-37.8118452,"lon":144.9601792},"venue":{"address":"397 Little Lonsdale St\nMelbourne VIC 3000","categories":[{"tag":"Bar"},{"tag":"LiveMusic"}],"city":"Melbourne, VIC","name":"Horse Bazaar","url":"https://beat.com.au/directory/horse-bazaar/"}},{"geo":{"lat":-37.8640582,"lon":144.973013},"venue":{"address":"11 The Esplanade\nSt Kilda VIC 3182","categories":[{"tag":"Bar"},{"tag":"Club"},{"tag":"EventVenue"},{"tag":"LiveMusic"}],"city":"St Kilda, VIC","name":"Hotel Esplanade (aka The Espy)","url":"https://beat.com.au/directory/hotel-esplanade/"}},{"geo":{"lat":-37.7683282,"lon":144.9599645},"venue":{"address":"291 Albert St, Brunswick VIC 3056","categories":[{"tag":"Pub"}],"city":"Brunswick","name":"Hotel Railway","url":"https://beat.com.au/directory/hotel-railway/"}},{"geo":{"lat":-37.805046,"lon":144.904588},"venue":{"address":"28 Napier St\nFootscray VIC 3011","categories":[{"tag":"Pub"}],"city":"Footscray, VIC","name":"Hotel Westwood","url":"https://beat.com.au/directory/hotel-westwood/"}},{"geo":{"lat":-37.797861,"lon":144.9414818},"venue":{"address":"222 Macaulay Rd\nNorth Melbourne VIC 3051","categories":[{"contents":"","tag":"OtherVenue"}],"city":"North Melbourne, VIC","name":"House Of Usher – Funeral Services","url":"https://beat.com.au/directory/house-of-usher-funeral-services/"}},{"geo":{"lat":-37.7720304,"lon":144.9596527},"venue":{"address":"7-11 Dawson St\nBrunswick VIC 3056","categories":[{"tag":"Bar"},{"tag":"LiveMusic"}],"city":"Brunswick, VIC","name":"Howler","url":"https://beat.com.au/directory/howler/"}},{"geo":{"lat":-37.7450434,"lon":144.9680058},"venue":{"address":"19 Harding St\nCoburg VIC 3058","categories":[{"tag":"LiveMusic"}],"city":"Coburg, VIC","name":"Hume Blues Club","url":"https://beat.com.au/directory/hume-blues-club/"}},{"geo":{"lat":-37.8811235,"lon":145.2938639},"venue":{"address":"2 Francis Cres\nFerntree Gully VIC 3156","categories":[{"tag":"LiveMusic"},{"tag":"EventVenue"}],"city":"Ferntree Gully, VIC","name":"IFTI Community Hub","url":"https://beat.com.au/directory/ifti-community-hub/"}},{"geo":{"lat":-37.764631,"lon":144.9026754},"venue":{"address":"180 Holmes Road\nAberfeldie VIC 3040","categories":[{"contents":"Galleries","tag":"OtherVenue"}],"city":"Aberfeldie, VIC","name":"Incinerator Gallery","url":"https://beat.com.au/directory/incinerator-gallery/"}},{"geo":{"lat":-37.8188809,"lon":144.9571785},"venue":{"address":"60 King St\nMelbourne VIC 3000","categories":[{"tag":"Bar"}],"city":"VIC","name":"Inflation Entertainment Complex","url":"https://beat.com.au/directory/inflation-entertainment-complex/"}},{"geo":{"lat":-37.866444,"lon":144.9979972},"venue":{"address":"375 Inkerman Street\nSt Kilda East VIC 3183","categories":[{"tag":"Pub"}],"city":"St Kilda East, VIC","name":"Inkerman Hotel","url":"https://beat.com.au/directory/inkerman-hotel/"}},{"geo":{"lat":-37.6377311,"lon":145.5810917},"venue":{"address":"316-334 Maroondah Hwy\nHealesville VIC 3777","categories":[{"tag":"Brewery"}],"city":"Healesville, VIC","name":"Innocent Bystander","url":"https://beat.com.au/directory/innocent-bystander/"}},{"geo":{"lat":-37.8259027,"lon":145.0015846},"venue":{"address":"269 Swan Street\nRichmond VIC 3121","categories":[{"tag":"Bar"},{"tag":"LiveMusic"}],"city":"Richmond, VIC","name":"Jimmy Hornet","url":"https://beat.com.au/directory/jimmy-hornet/"}},{"geo":{"lat":-37.8230506,"lon":144.9761619},"venue":{"address":"Olympic Blvd\nMelbourne VIC 3001","categories":[{"tag":"EventVenue"}],"city":"VIC","name":"John Cain Arena","url":"https://beat.com.au/directory/john-cain-arena/"}},{"geo":{"lat":-37.8570587,"lon":144.9922023},"venue":{"address":"17 Chapel St\nWindsor VIC 3181","categories":[{"tag":"Bar"}],"city":"Windsor, VIC","name":"John Doe","url":"https://beat.com.au/directory/john-doe/"}},{"geo":{"lat":-37.8487441,"lon":144.9874881},"venue":{"address":"157-159 Greville Street\nPrahran VIC 3181","categories":[{"tag":"Bar"},{"tag":"Club"},{"tag":"EventVenue"},{"tag":"LiveMusic"}],"city":"Prahran, VIC","name":"Jono's Piano Bar","url":"https://beat.com.au/directory/jonos-piano-bar/"}},{"geo":{"lat":-37.7994887,"lon":144.9882379},"venue":{"address":"101 Johnston St\nCollingwood VIC 3066","categories":[{"contents":"","tag":"OtherVenue"}],"city":"Collingwood, VIC","name":"Just Another Agency","url":"https://beat.com.au/directory/just-another-agency/"}},{"geo":{"lat":-37.8079157,"lon":144.9620073},"venue":{"address":"79-81 Franklin St\nMelbourne VIC 3000","categories":[{"contents":"","tag":"OtherVenue"}],"city":"VIC","name":"Kadampa Meditation Centre Melbourne","url":"https://beat.com.au/directory/kadampa-meditation-centre-melbourne/"}},{"geo":{"lat":-37.9110679,"lon":145.1077503},"venue":{"address":"27 Hume St, Huntingdale VIC 3166","categories":[{"contents":"","tag":"OtherVenue"}],"city":null,"name":"Kaiju Cantina","url":"https://beat.com.au/directory/kaiju-cantina/"}},{"geo":{"lat":-37.798248,"lon":144.976498},"venue":{"address":"56 Johnston St\nFitzroy VIC 3065","categories":[{"tag":"Bar"},{"tag":"LiveMusic"}],"city":"Fitzroy, VIC","name":"Kanela Bar","url":"https://beat.com.au/directory/kanela-bar/"}},{"geo":{"lat":-27.600177,"lon":152.8711962},"venue":{"address":"1 Kerwick Street\nRedbank QLD 4301","categories":[{"tag":"Pub"}],"city":"QLD","name":"Kerwick Hotel","url":"https://beat.com.au/directory/kerwick-hotel/"}},{"geo":{"lat":-37.8067273,"lon":145.0314658},"venue":{"address":"186 High St\nKew VIC 3101","categories":[{"tag":"TheatreVenue"},{"tag":"LiveMusic"}],"city":"Kew","name":"Kew Court House","url":"https://beat.com.au/directory/kew-court-house/"}},{"geo":{"lat":-37.7960561,"lon":144.9790327},"venue":{"address":"376 Brunswick St\nFitzroy VIC 3065","categories":[{"tag":"Bar"}],"city":"Fitzroy, VIC","name":"Kewpie","url":"https://beat.com.au/directory/bimbo/"}},{"geo":{"lat":-37.8134633,"lon":144.9610875},"venue":{"address":"43 Hardware Ln\nMelbourne VIC 3000","categories":[{"tag":"Club"},{"tag":"EventVenue"},{"tag":"LiveMusic"}],"city":"Melbourne, VIC","name":"Khokolat Bar","url":"https://beat.com.au/directory/khokolat-bar/"}},{"geo":{"lat":-37.9334203,"lon":145.0358258},"venue":{"address":"979-985 Nepean Hwy\nMoorabbin VIC 3189","categories":[{"tag":"EventVenue"}],"city":"Moorabbin, VIC","name":"Kingston City Hall","url":"https://beat.com.au/directory/kingston-city-hall/"}},{"geo":{"lat":-37.8155252,"lon":144.9556294},"venue":{"address":"577 Little Bourke St\nMelbourne VIC 3000","categories":[{"tag":"Bar"},{"tag":"Club"}],"city":"Melbourne, VIC","name":"La Di Da","url":"https://beat.com.au/directory/la-di-da/"}},{"geo":{"lat":-37.7977034,"lon":144.9687111},"venue":{"address":"349 Drummond St \nCarlton VIC 3053","categories":[{"tag":"TheatreVenue"}],"city":"Carlton, VIC","name":"La Mama Theatre","url":"https://beat.com.au/directory/la-mama-theatre/"}},{"geo":{"lat":-37.797054,"lon":144.9786905},"venue":{"address":"197A Brunswick St\nFitzroy VIC 3065","categories":[{"tag":"Bar"},{"tag":"LiveMusic"}],"city":"Fitzroy, VIC","name":"Labour in Vain","url":"https://beat.com.au/directory/labour-in-vain/"}},{"geo":{"lat":-37.798248,"lon":144.976354},"venue":{"address":"50 Johnston St\nFitzroy VIC 3065","categories":[{"tag":"Bar"},{"tag":"Club"},{"tag":"LiveMusic"}],"city":"Fitzroy, VIC","name":"Laundry Bar","url":"https://beat.com.au/directory/laundry-bar/"}},{"geo":{"lat":-37.8554813,"lon":145.0194079},"venue":{"address":"926 High St\nArmadale VIC 3143","categories":[{"tag":"EventVenue"}],"city":"Armadale, VIC","name":"Le Plonc","url":"https://beat.com.au/directory/le-plonc/"}},{"geo":{"lat":-37.8107158,"lon":145.0008148},"venue":{"address":"1 Church St\nRichmond VIC 3121","categories":[{"tag":"Pub"}],"city":"Richmond, VIC","name":"Leadbeater Hotel","url":"https://beat.com.au/directory/leadbeater-hotel/"}},{"geo":{"lat":-37.8205529,"lon":145.0355738},"venue":{"address":"675 Glenferrie Rd\nHawthorn VIC 3122","categories":[{"tag":"LiveMusic"}],"city":"Hawthorn, VIC","name":"Lido Jazz Room","url":"https://beat.com.au/directory/lido-jazz-room/"}},{"geo":{"lat":-38.3854865,"lon":142.4818078},"venue":{"address":"185 Timor St\nWarrnambool VIC 3280","categories":[{"tag":"TheatreVenue"}],"city":"Warrnambool, VIC","name":"Lighthouse Theatre","url":"https://beat.com.au/directory/lighthouse-theatre/"}},{"geo":{"lat":-37.865052,"lon":144.976647},"venue":{"address":"26 Acland St\nSt Kilda VIC 3182","categories":[{"contents":"","tag":"OtherVenue"}],"city":"St Kilda, VIC","name":"Linden New Art","url":"https://beat.com.au/directory/linden-new-art/"}},{"geo":{"lat":-38.1654387,"lon":144.3615344},"venue":{"address":"221 Swanston St\nGeelong VIC 3220","categories":[{"tag":"Brewery"}],"city":"Geelong, VIC","name":"Little Creatures Brewery","url":"https://beat.com.au/directory/little-creatures-brewery/"}},{"geo":{"lat":-37.8090286,"lon":144.9633226},"venue":{"address":"1/401 Swanston St\nMelbourne VIC 3000","categories":[{"tag":"Bar"},{"tag":"Pub"}],"city":"Melbourne, VIC","name":"Little Jax","url":"https://beat.com.au/directory/little-jax/"}},{"geo":{"lat":-37.7998276,"lon":144.8968178},"venue":{"address":"223 Barkly St\nFootscray VIC 3011","categories":[{"tag":"Bar"}],"city":"Footscray, VIC","name":"Littlefoot Bar","url":"https://beat.com.au/directory/littlefoot-bar/"}},{"geo":{"lat":-37.7934356,"lon":144.9871717},"venue":{"address":"3 Hilton Street\nClifton Hill 3068","categories":[{"tag":"Bar"},{"tag":"Brewery"}],"city":"Clifton Hill, VIC","name":"Local Brewing Co. Taproom","url":"https://beat.com.au/directory/local-brewing-co-taproom/"}},{"geo":{"lat":-37.7803966,"lon":144.9866077},"venue":{"address":"318 St Georges Rd\nFitzroy North VIC 3068","categories":[{"tag":"EventVenue"}],"city":"Fitzroy North, VIC","name":"LongPlay","url":"https://beat.com.au/directory/longplay/"}},{"geo":{"lat":-37.8121163,"lon":144.9721574},"venue":{"address":"23 Meyers Pl\nMelbourne VIC 3000","categories":[{"tag":"Bar"},{"tag":"Club"},{"tag":"LiveMusic"}],"city":"Melbourne, VIC","name":"Loop Project Space & Bar","url":"https://beat.com.au/directory/loop-project-space-bar/"}},{"geo":{"lat":-37.8698642,"lon":144.9805139},"venue":{"address":"211 Barkly Street\nSt Kilda VIC 3182","categories":[{"tag":"Bar"}],"city":"St Kilda, VIC","name":"Lost","url":"https://beat.com.au/directory/lost/"}},{"geo":{"lat":-37.8519486,"lon":144.9931623},"venue":{"address":"179 Chapel St\nWindsor VIC 3181","categories":[{"tag":"Bar"},{"tag":"Club"},{"tag":"LiveMusic"}],"city":"Windsor, VIC","name":"Lucky Coq","url":"https://beat.com.au/directory/lucky-coq/"}},{"geo":{"lat":-37.759013,"lon":145.0003201},"venue":{"address":"719 High St\nThornbury VIC 3071","categories":[{"tag":"Bar"}],"city":"Thornbury, VIC","name":"Lucky Schmuck","url":"https://beat.com.au/directory/lucky-schmuck/"}},{"geo":{"lat":-37.8000264,"lon":144.9936498},"venue":{"address":"225 Johnston St\nAbbotsford VIC 3067","categories":[{"tag":"Bar"}],"city":"Abbotsford, VIC","name":"Lulie Tavern","url":"https://beat.com.au/directory/lulie-tavern/"}},{"geo":{"lat":-37.8766692,"lon":144.9970761},"venue":{"address":"61 Glen Eira Rd\nRipponlea VIC 3185","categories":[{"tag":"EventVenue"}],"city":"Ripponlea, VIC","name":"Lyrebird Lounge","url":"https://beat.com.au/directory/lyrebird-lounge/"}},{"geo":{"lat":-37.8022392,"lon":144.8975289},"venue":{"address":"42A Albert Street\nFootscray VIC 3011","categories":[{"tag":"Bar"},{"tag":"EventVenue"},{"tag":"LiveMusic"},{"tag":"Pub"}],"city":"Footscray, VIC","name":"Mamma Chen's","url":"https://beat.com.au/directory/mamma-chens/"}},{"geo":{"lat":-37.8206276,"lon":144.8947563},"venue":{"address":"10A Campbell St, Yarraville VIC","categories":[{"tag":"Bar"},{"tag":"LiveMusic"}],"city":"Yarraville","name":"Mantra Studio","url":"https://beat.com.au/directory/mantra-studio/"}},{"geo":{"lat":-37.8230506,"lon":144.9761619},"venue":{"address":"Olympic Blvd\nMelbourne VIC 3001","categories":[{"tag":"LiveMusic"}],"city":"Melbourne, VIC","name":"Margaret Court Arena","url":"https://beat.com.au/directory/margaret-court-arena/"}},{"geo":{"lat":-37.7845065,"lon":144.9855953},"venue":{"address":"1 Mark St\nFitzroy North VIC 3068","categories":[{"tag":"EventVenue"}],"city":"Fitzroy North, VIC","name":"Mark Street Hall","url":"https://beat.com.au/directory/mark-street-hall/"}},{"geo":{"lat":-37.816529,"lon":144.947517},"venue":{"address":"740 Bourke St\nDocklands VIC 3008","categories":[{"tag":"EventVenue"},{"tag":"LiveMusic"}],"city":"Docklands, VIC","name":"Marvel Stadium","url":"https://beat.com.au/directory/marvel-stadium/"}},{"geo":{"lat":-37.8764952,"lon":145.0918914},"venue":{"address":"667 Warrigal Rd\nChadstone VIC 3148","categories":[{"tag":"Bar"},{"tag":"LiveMusic"}],"city":"Chadstone, VIC","name":"Matthew Flinders Hotel","url":"https://beat.com.au/directory/matthew-flinders-hotel/"}},{"geo":{"lat":-33.9197588,"lon":151.2292859},"venue":{"address":"UNSW Sydney\nBarker St\nKensington NSW 2052","categories":[{"tag":"FestivalVenue"},{"tag":"TheatreVenue"}],"city":"NSW","name":"Matzah Productions","url":"https://beat.com.au/directory/matzah-productions/"}},{"geo":{"lat":-37.8147453,"lon":144.9658499},"venue":{"address":"125 Swanston St\nMelbourne VIC 3000","categories":[{"tag":"LiveMusic"}],"city":"VIC","name":"Max Watt's (Melbourne)","url":"https://beat.com.au/directory/max-watts-melbourne/"}},{"geo":{"lat":-37.8147453,"lon":144.9658499},"venue":{"address":"125 Swanston St, Melbourne VIC 3000","categories":[{"contents":"","tag":"OtherVenue"}],"city":"Melbourne","name":"Max Watt’s","url":"https://beat.com.au/directory/max-watts/"}},{"geo":{"lat":-38.1461902,"lon":145.1752318},"venue":{"address":"390 McClelland Drive\nLangwarrin VIC 3910","categories":[{"contents":"Café","tag":"OtherVenue"},{"contents":"Galleries","tag":"OtherVenue"}],"city":"Langwarrin, VIC","name":"McClelland Sculpture Park + Gallery","url":"https://beat.com.au/directory/mcclelland-sculpture-park-gallery/"}},{"geo":{"lat":-37.8141094,"lon":144.9677371},"venue":{"address":"195 Little Collins St\nMelbourne VIC 3000","categories":[{"contents":"","tag":"OtherVenue"}],"city":"Melbourne, VIC","name":"Meatmaiden","url":"https://beat.com.au/directory/meatmaiden/"}},{"geo":{"lat":-37.8230506,"lon":144.9761619},"venue":{"address":"Olympic Blvd\nMelbourne VIC 3001","categories":[{"tag":"LiveMusic"}],"city":"Melbourne, VIC","name":"Melbourne Arena","url":"https://beat.com.au/directory/melbourne-arena/"}},{"geo":{"lat":-37.8251062,"lon":144.9500106},"venue":{"address":"1 Convention Centre Place\nSouth Wharf VIC 3006","categories":[{"tag":"EventVenue"},{"tag":"LiveMusic"},{"tag":"TheatreVenue"}],"city":"Melbourne, VIC","name":"Melbourne Convention & Exhibition Centre (MCEC)","url":"https://beat.com.au/directory/melbourne-convention-exhibition-centre-mcec/"}},{"geo":{"lat":-37.801596,"lon":144.9543074},"venue":{"address":"3 Blackwood Street\nNorth Melbourne VIC 3051","categories":[{"contents":"","tag":"OtherVenue"}],"city":"VIC","name":"Melbourne Meat Market","url":"https://beat.com.au/directory/melbourne-meat-market/"}},{"geo":{"lat":-37.8240849,"lon":144.9675876},"venue":{"address":"31 Sturt St\nSouthbank VIC 3006","categories":[{"tag":"LiveMusic"}],"city":"Southbank, VIC","name":"Melbourne Recital Centre","url":"https://beat.com.au/directory/melbourne-recital-centre/"}},{"geo":{"lat":-37.7746114,"lon":144.9090494},"venue":{"address":"Epsom Rd, Ascot Vale","categories":[{"contents":"","tag":"OtherVenue"}],"city":"VIC","name":"Melbourne Showgrounds","url":"https://beat.com.au/directory/melbourne-showgrounds/"}},{"geo":{"lat":-37.8146299,"lon":144.9664313},"venue":{"address":"90-130 Swanston St\nMelbourne VIC 3000","categories":[{"tag":"EventVenue"},{"tag":"FestivalVenue"}],"city":"Melbourne, VIC","name":"Melbourne Town Hall","url":"https://beat.com.au/directory/melbourne-town-hall/"}},{"geo":{"lat":-37.7892176,"lon":144.9478093},"venue":{"address":"Elliott Ave\nParkville VIC 3052","categories":[{"contents":"","tag":"OtherVenue"}],"city":"Parkville, VIC","name":"Melbourne Zoo","url":"https://beat.com.au/directory/melbourne-zoo/"}},{"geo":{"lat":-37.8675008,"lon":144.9790251},"venue":{"address":"88 Acland St\nSt Kilda VIC 3182","categories":[{"tag":"LiveMusic"}],"city":"St Kilda, VIC","name":"Memo Music Hall","url":"https://beat.com.au/directory/memo-music-hall/"}},{"geo":{"lat":-37.8999129,"lon":145.3567326},"venue":{"address":"65-71 Monbulk Road\nBelgrave VIC 3160","categories":[{"tag":"Bar"},{"tag":"EventVenue"},{"tag":"LiveMusic"},{"tag":"Pub"}],"city":"Belgrave, VIC","name":"Micawber Tavern","url":"https://beat.com.au/directory/micawber-tavern/"}},{"geo":{"lat":-38.026568,"lon":145.1316386},"venue":{"address":"4 Springvale Rd\nAspendale Gardens VIC 3195","categories":[{"contents":"","tag":"OtherVenue"}],"city":"Aspendale Gardens, VIC","name":"Michelangelo’s Italian Restaurant","url":"https://beat.com.au/directory/michelangelos-italian-restaurant/"}},{"geo":{"lat":-37.7547114,"lon":144.9780378},"venue":{"address":"Ground Floor/2 Mill Pl, Melbourne VIC 3000","categories":[{"contents":"","tag":"OtherVenue"}],"city":"VIC","name":"Mill Place Merchants","url":"https://beat.com.au/directory/mill-place-merchants/"}},{"geo":{"lat":-37.8090135,"lon":144.9632494},"venue":{"address":"2/401 Swanston St\nMelbourne VIC 3004","categories":[{"tag":"Bar"},{"tag":"Club"}],"city":"Melbourne, VIC","name":"Miscellania","url":"https://beat.com.au/directory/miscellania/"}},{"geo":{"lat":-37.8004117,"lon":144.8997171},"venue":{"address":"30 Chambers St, Footscray, 3011","categories":[{"contents":"","tag":"OtherVenue"}],"city":"Footscray","name":"Misfits","url":"https://beat.com.au/directory/misfits/"}},{"geo":{"lat":-37.7635382,"lon":144.9625908},"venue":{"address":"581 Sydney Rd\nBrunswick VIC 3056","categories":[{"tag":"Bar"}],"city":"Brunswick, VIC","name":"Miss Moses","url":"https://beat.com.au/directory/miss-moses/"}},{"geo":{"lat":-37.7127303,"lon":145.1494311},"venue":{"address":"1/70 Commercial Pl\nEltham VIC 3095","categories":[{"tag":"Bar"},{"tag":"LiveMusic"},{"contents":"Café","tag":"OtherVenue"}],"city":"Eltham, VIC","name":"Missing Gorilla","url":"https://beat.com.au/directory/missing-gorilla/"}},{"geo":{"lat":-37.8211068,"lon":144.9546069},"venue":{"address":"717 Flinders St\nDocklands VIC 3008","categories":[{"tag":"EventVenue"}],"city":"Docklands, VIC","name":"Mission to Seafarers","url":"https://beat.com.au/directory/mission-to-seafarers/"}},{"geo":{"lat":-37.7278042,"lon":145.1537051},"venue":{"address":"7 Hillcrest Avenue\nEltham VIC 3095","categories":[{"tag":"EventVenue"},{"tag":"LiveMusic"},{"tag":"FestivalVenue"},{"contents":"Galleries","tag":"OtherVenue"}],"city":"Eltham, VIC","name":"Montsalvat Arts Centre","url":"https://beat.com.au/directory/montsalvat-arts-centre/"}},{"geo":{"lat":-42.7352431,"lon":147.2545797},"venue":{"address":"76a Cove Hill Rd\nBridgewater TAS 7030","categories":[{"tag":"Bar"},{"tag":"EventVenue"},{"tag":"Pub"},{"tag":"Brewery"}],"city":"TAS","name":"Moo Brew Brewery","url":"https://beat.com.au/directory/moo-brew-brewery/"}},{"geo":{"lat":-37.812902,"lon":144.9712356},"venue":{"address":"120 Exhibition St\nMelbourne VIC 3000","categories":[{"tag":"Bar"},{"tag":"Club"},{"tag":"LiveMusic"}],"city":"Melbourne, VIC","name":"Morris House","url":"https://beat.com.au/directory/morris-house/"}},{"geo":{"lat":-37.8523331,"lon":144.9930936},"venue":{"address":"163 Chapel St\nWindsor VIC 3181","categories":[{"tag":"Bar"}],"city":"Windsor, VIC","name":"Morris Jones","url":"https://beat.com.au/directory/morris-jones/"}},{"geo":{"lat":-37.8142454,"lon":144.9631732},"venue":{"address":"Melbourne VIC 3004","categories":[{"tag":"FestivalVenue"}],"city":"Melbourne, VIC","name":"MPavilion","url":"https://beat.com.au/directory/mpavilion/"}},{"geo":{"lat":-37.80245,"lon":144.992953},"venue":{"address":"160 Hoddle St\nAbbotsford VIC 3067","categories":[{"tag":"LiveMusic"},{"tag":"Bar"}],"city":"Abbotsford, VIC","name":"Mr Boogie Man BAR","url":"https://beat.com.au/directory/mr-boogie-man-bar/"}},{"geo":{"lat":-38.0683516,"lon":145.142317},"venue":{"address":"Shop 4/21 Thompson Rd\nPatterson Lakes VIC 3197","categories":[{"contents":"Café","tag":"OtherVenue"}],"city":"Patterson Lakes, VIC","name":"Mr Patterson Café","url":"https://beat.com.au/directory/mr-patterson-cafe/"}},{"geo":{"lat":-37.8418689,"lon":144.9362675},"venue":{"address":"67 Beach St\nPort Melbourne VIC 3207","categories":[{"tag":"Pub"}],"city":"Port Melbourne, VIC","name":"Mr. Lawrence","url":"https://beat.com.au/directory/mr-lawrence/"}},{"geo":{"lat":-37.9072281,"lon":145.1905894},"venue":{"address":"860 Ferntree Gully Rd, Wheelers Hill, Victoria","categories":[{"contents":"Galleries","tag":"OtherVenue"}],"city":null,"name":"Museum of Australian Photography (MAPh)","url":"https://beat.com.au/directory/museum-of-australian-photography-maph/"}},{"geo":{"lat":-37.6958845,"lon":144.9587682},"venue":{"address":"1359 Sydney Rd\nFawkner VIC 3060","categories":[{"contents":"","tag":"OtherVenue"}],"city":"Fawkner, VIC","name":"MusicLand Fawkner Music Complex","url":"https://beat.com.au/directory/musicland-fawkner-music-complex/"}},{"geo":{"lat":-37.7581838,"lon":144.9634643},"venue":{"address":"791 Sydney Rd\nBrunswick VIC 3056","categories":[{"tag":"Club"}],"city":"Brunswick, VIC","name":"My Aeon","url":"https://beat.com.au/directory/my-aeon/"}},{"geo":{"lat":-37.6917258,"lon":145.4129639},"venue":{"address":"10 St Huberts Rd\nColdstream VIC 3770","categories":[{"tag":"Brewery"}],"city":"Coldstream, VIC","name":"Napoleone Cider","url":"https://beat.com.au/directory/napoleone-cider/"}},{"geo":{"lat":-33.5134431,"lon":151.3341648},"venue":{"address":"5 Broken Bay Rd\nEttalong Beach NSW 2257","categories":[{"tag":"Bar"},{"tag":"Club"},{"tag":"EventVenue"},{"tag":"LiveMusic"},{"tag":"TheatreVenue"}],"city":"NSW","name":"Naughty Noodle Fun Haus","url":"https://beat.com.au/directory/naughty-noodle-fun-haus/"}},{"geo":{"lat":-37.8554053,"lon":145.0212222},"venue":{"address":"1013 High Street, Armadale VIC 3143","categories":[{"contents":"","tag":"OtherVenue"}],"city":"Armadale, VIC","name":"NEUW Denim","url":"https://beat.com.au/directory/neuw-denim/"}},{"geo":{"lat":-37.8062477,"lon":144.9833121},"venue":{"address":"64 Smith St\nCollingwood VIC 3000","categories":[{"tag":"Bar"},{"tag":"Club"}],"city":"VIC","name":"New Guernica","url":"https://beat.com.au/directory/new-guernica/"}},{"geo":{"lat":-37.8439028,"lon":144.8823845},"venue":{"address":"4 Market St\nNewport VIC 3015","categories":[{"tag":"EventVenue"}],"city":"Newport, VIC","name":"Newport Bowling Club","url":"https://beat.com.au/directory/newport-bowling-club/"}},{"geo":{"lat":-37.8226599,"lon":144.9689204},"venue":{"address":"180 St Kilda Rd\nMelbourne VIC 3006","categories":[{"tag":"EventVenue"}],"city":"Melbourne, VIC","name":"NGV - National Gallery of Victoria","url":"https://beat.com.au/directory/ngv-national-gallery-of-victoria/"}},{"geo":{"lat":-37.7993224,"lon":144.9895284},"venue":{"address":"136 Johnston St\nCollingwood VIC 3066","categories":[{"tag":"Bar"},{"tag":"LiveMusic"}],"city":"Collingwood, VIC","name":"Nighthawks","url":"https://beat.com.au/directory/nighthawks/"}},{"geo":{"lat":-37.7679775,"lon":144.9621651},"venue":{"address":"420 Sydney Rd\nBrunswick VIC 3056","categories":[{"tag":"Bar"},{"tag":"LiveMusic"},{"tag":"Pub"}],"city":"Brunswick, VIC","name":"NONO","url":"https://beat.com.au/directory/penny-black/"}},{"geo":{"lat":-37.7868523,"lon":144.9795135},"venue":{"address":"296 Rae St\nFitzroy North VIC 3068","categories":[{"tag":"Pub"}],"city":"Fitzroy North, VIC","name":"North Fitzroy Arms Hotel","url":"https://beat.com.au/directory/north-fitzroy-arms-hotel/"}},{"geo":{"lat":-37.771471,"lon":144.998414},"venue":{"address":"301 High St\nNorthcote VIC 3070","categories":[{"tag":"Bar"},{"tag":"LiveMusic"},{"tag":"Pub"}],"city":"Northcote, VIC","name":"Northcote Social Club","url":"https://beat.com.au/directory/northcote-social-club/"}},{"geo":{"lat":-37.7737068,"lon":144.9982706},"venue":{"address":"216 High St\nNorthcote VIC 3070","categories":[{"tag":"TheatreVenue"}],"city":"Northcote, VIC","name":"Northcote Theatre","url":"https://beat.com.au/directory/northcote-theatre/"}},{"geo":{"lat":-37.7745111,"lon":144.9976902},"venue":{"address":"189 High St\nNorthcote VIC 3070","categories":[{"tag":"EventVenue"},{"tag":"FestivalVenue"},{"tag":"TheatreVenue"}],"city":"Northcote, VIC","name":"Northcote Town Hall","url":"https://beat.com.au/directory/northcote-town-hall/"}},{"geo":{"lat":-37.8999688,"lon":145.1296549},"venue":{"address":"260-262 Ferntree Gully Rd\nNotting Hill VIC 3168","categories":[{"tag":"LiveMusic"},{"tag":"Pub"}],"city":"Notting Hill, VIC","name":"Notting Hill Hotel","url":"https://beat.com.au/directory/notting-hill-hotel/"}},{"geo":{"lat":-37.8968576,"lon":145.0896374},"venue":{"address":"95-97 Drummond St\nOakleigh VIC 3166","categories":[{"tag":"Bar"},{"tag":"Club"},{"tag":"EventVenue"},{"tag":"LiveMusic"}],"city":"Oakleigh, VIC","name":"Oakleigh Lounge","url":"https://beat.com.au/directory/oakleigh-lounge/"}},{"geo":{"lat":-37.8968576,"lon":145.0896374},"venue":{"address":"95-97 Drummond St\nOakleigh VIC 3166","categories":[{"tag":"Pub"}],"city":"Oakleigh, VIC","name":"Oakleigh-Carnegie RSL","url":"https://beat.com.au/directory/oakleigh-carnegie-rsl/"}},{"geo":{"lat":-37.8258878,"lon":145.0015248},"venue":{"address":"267 Swan St, Richmond VIC 3121","categories":[{"contents":"","tag":"OtherVenue"}],"city":"Richmond, VIC","name":"Odeon Richmond","url":"https://beat.com.au/directory/odeon-richmond/"}},{"geo":{"lat":-37.7991326,"lon":144.9870526},"venue":{"address":"66B Johnston Street\nCollingwood VIC 3066","categories":[{"contents":"","tag":"OtherVenue"}],"city":"Collingwood, VIC","name":"Off The Kerb Gallery","url":"https://beat.com.au/directory/off-the-kerb-gallery/"}},{"geo":{"lat":-37.79833,"lon":144.97711},"venue":{"address":"74-76 Johnston St\nFitzroy VIC 3065","categories":[{"tag":"Bar"},{"tag":"LiveMusic"}],"city":"Fitzroy, VIC","name":"Old Bar","url":"https://beat.com.au/directory/old-bar/"}},{"geo":{"lat":-38.0552182,"lon":145.325688},"venue":{"address":"34 Homestead Rd\nBerwick VIC 3806","categories":[{"contents":"","tag":"OtherVenue"}],"city":"Berwick, VIC","name":"Old Cheese Factory","url":"https://beat.com.au/directory/old-cheese-factory/"}},{"geo":{"lat":-37.7956786,"lon":144.979077},"venue":{"address":"384 Brunswick St\nFitzroy VIC 3065","categories":[{"tag":"Bar"}],"city":"Fitzroy, VIC","name":"Old Plates Record Bar","url":"https://beat.com.au/directory/old-plates-record-bar/"}},{"geo":{"lat":-37.7482885,"lon":145.0025149},"venue":{"address":"104 High St\nPreston VIC 3072","categories":[{"tag":"Bar"},{"tag":"EventVenue"}],"city":"Preston, VIC","name":"Oliva Social","url":"https://beat.com.au/directory/oliva-social/"}},{"geo":{"lat":-37.7892833,"lon":144.9901391},"venue":{"address":"123 Queens Parade\nClifton Hill VIC 3068","categories":[{"tag":"Bar"}],"city":"Clifton Hill, VIC","name":"One2Three Bar","url":"https://beat.com.au/directory/one2three-bar/"}},{"geo":{"lat":-37.8536968,"lon":145.0069874},"venue":{"address":"161 High St\nPrahran VIC 3181","categories":[{"tag":"Bar"},{"tag":"Club"},{"tag":"LiveMusic"}],"city":"Prahran, VIC","name":"OneSixOne","url":"https://beat.com.au/directory/onesixone/"}},{"geo":{"lat":-37.9035553,"lon":145.0389232},"venue":{"address":"483 North Rd\nOrmond VIC 3204","categories":[{"tag":"Bar"},{"tag":"LiveMusic"},{"tag":"Pub"}],"city":"Ormond, VIC","name":"OnTop Bar","url":"https://beat.com.au/directory/ontop-bar/"}},{"geo":{"lat":-37.7742382,"lon":144.9981587},"venue":{"address":"204 High St\nNorthcote VIC 3070","categories":[{"tag":"Bar"},{"tag":"LiveMusic"}],"city":"Northcote, VIC","name":"Open Studio","url":"https://beat.com.au/directory/open-studio/"}},{"geo":{"lat":-33.8715141,"lon":151.222884},"venue":{"address":"162 Victoria St\nPotts Point NSW 2011","categories":[{"contents":"","tag":"OtherVenue"}],"city":"Sydney, NSW","name":"Original Backpackers","url":"https://beat.com.au/directory/original-backpackers/"}},{"geo":{"lat":-37.0969027,"lon":145.0844158},"venue":{"address":"210 Tallarook-Pyalong Rd\nTallarook VIC 3659","categories":[{"tag":"LiveMusic"}],"city":"Tallarook, VIC","name":"Our Friend's Farm","url":"https://beat.com.au/directory/our-friends-farm/"}},{"geo":{"lat":-37.8396401,"lon":144.9955716},"venue":{"address":"Toorak Rd & Chapel St\nSouth Yarra VIC 3141","categories":[{"tag":"TheatreVenue"}],"city":"South Yarra, VIC","name":"Palace Cinema Como","url":"https://beat.com.au/directory/palace-cinema-como/"}},{"geo":{"lat":-37.867048,"lon":144.9758434},"venue":{"address":"Lower Esplanade, St Kilda VIC","categories":[{"tag":"EventVenue"},{"tag":"LiveMusic"}],"city":"Port Melbourne","name":"Palace Foreshore","url":"https://beat.com.au/directory/palace-foreshore/"}},{"geo":{"lat":-37.3102707,"lon":144.1375023},"venue":{"address":"111 Main Rd\nHepburn Springs VIC 3461","categories":[{"tag":"Bar"},{"tag":"EventVenue"},{"tag":"LiveMusic"},{"tag":"TheatreVenue"}],"city":"Hepburn Springs, VIC","name":"Palais-Hepburn","url":"https://beat.com.au/directory/palais-hepburn/"}},{"geo":{"lat":-37.8138494,"lon":144.9610097},"venue":{"address":"401 Little Bourke St\nMelbourne VIC 3000","categories":[{"tag":"Bar"}],"city":"Melbourne, VIC","name":"Palermo","url":"https://beat.com.au/directory/palermo/"}},{"geo":{"lat":-37.813514,"lon":144.96084},"venue":{"address":"6 Goldie Pl\nMelbourne VIC 3000","categories":[{"tag":"Club"},{"tag":"EventVenue"},{"tag":"LiveMusic"}],"city":"Melbourne, VIC","name":"Paris Cat Jazz Club","url":"https://beat.com.au/directory/paris-cat-jazz-club/"}},{"geo":{"lat":-37.7345717,"lon":144.9383257},"venue":{"address":"40 Cumberland Rd\nPascoe Vale VIC 3044","categories":[{"tag":"LiveMusic"},{"tag":"Pub"}],"city":"Pascoe Vale, VIC","name":"Pascoe Vale RSL","url":"https://beat.com.au/directory/pascoe-vale-rsl/"}},{"geo":{"lat":-37.8685333,"lon":144.992982},"venue":{"address":"268 Carlisle St\nBalaclava VIC 3183","categories":[{"tag":"Bar"},{"tag":"LiveMusic"}],"city":"Balaclava, VIC","name":"Pause Bar","url":"https://beat.com.au/directory/pause-bar/"}},{"geo":{"lat":-37.8487441,"lon":144.9874881},"venue":{"address":"177 Greville St\nPrahran VIC 3181","categories":[{"tag":"Bar"},{"tag":"EventVenue"}],"city":"Prahran, VIC","name":"Pawn & Co.","url":"https://beat.com.au/directory/pawn-co/"}},{"geo":{"lat":-37.8014757,"lon":144.9781707},"venue":{"address":"196 Brunswick St\nFitzroy VIC 3065","categories":[{"tag":"Pub"}],"city":"Fitzroy, VIC","name":"Perseverance Hotel","url":"https://beat.com.au/directory/perseverance-hotel/"}},{"geo":{"lat":-37.8147114,"lon":144.9659079},"venue":{"address":"530 Little Collins Street\nMelbourne VIC 3000","categories":[{"tag":"EventVenue"}],"city":"Melbourne, VIC","name":"Pho Nung Vietnamese Restaurant","url":"https://beat.com.au/directory/pho-nung-vietnamese-restaurant/"}},{"geo":{"lat":-37.8296919,"lon":144.9256335},"venue":{"address":"1 Thackray Rd, Port Melbourne VIC 3207","categories":[{"tag":"EventVenue"},{"tag":"LiveMusic"}],"city":"Port Melbourne","name":"PICA (Port Melbourne Industrial Centre for the Arts)","url":"https://beat.com.au/directory/pica-port-melbourne-industrial-centre-for-the-arts/"}},{"geo":{"lat":-38.1456583,"lon":145.1210462},"venue":{"address":"1 Davey St\nFrankston VIC 3199","categories":[{"tag":"LiveMusic"}],"city":"Frankston, VIC","name":"Pier Bandroom","url":"https://beat.com.au/directory/pier-bandroom/"}},{"geo":{"lat":-38.1449481,"lon":145.119855},"venue":{"address":"508 Nepean Hwy\nFrankston VIC 3199","categories":[{"tag":"LiveMusic"},{"tag":"Bar"}],"city":"Frankston, VIC","name":"Pier Hotel","url":"https://beat.com.au/directory/pier-hotel/"}},{"geo":{"lat":-38.2676062,"lon":144.5222131},"venue":{"address":"6/63A The Terrace\nOcean Grove VIC 3226","categories":[{"tag":"LiveMusic"}],"city":"Ocean Grove, VIC","name":"Piping Hot Chicken and Burger Grill","url":"https://beat.com.au/directory/piping-hot-chicken-and-burger-grill/"}},{"geo":{"lat":-38.1479235,"lon":144.3595668},"venue":{"address":"93 Little Malop St\nGeelong VIC 3220","categories":[{"tag":"Pub"}],"city":"VIC","name":"Pistol Pete's Food n Blues","url":"https://beat.com.au/directory/pistol-petes-food-n-blues/"}},{"geo":{"lat":-37.815497,"lon":144.967598},"venue":{"address":"191 Collins St\nMelbourne VIC 3000","categories":[{"tag":"EventVenue"}],"city":"Melbourne, VIC","name":"Plaza Ballroom","url":"https://beat.com.au/directory/plaza-ballroom/"}},{"geo":{"lat":-37.8251062,"lon":144.9500106},"venue":{"address":"1 Convention Centre Pl\nSouth Wharf VIC 3006","categories":[{"tag":"TheatreVenue"}],"city":"VIC","name":"Plenary Theatre","url":"https://beat.com.au/directory/plenary-theatre/"}},{"geo":{"lat":-37.8258878,"lon":145.0015248},"venue":{"address":"267 Swan Street\nRichmond VIC 3121","categories":[{"tag":"LiveMusic"},{"tag":"Bar"},{"tag":"Club"},{"tag":"EventVenue"}],"city":"Richmond, VIC","name":"POME","url":"https://beat.com.au/directory/pome/"}},{"geo":{"lat":-37.7358243,"lon":144.9661336},"venue":{"address":"229-231 Sydney Rd\nCoburg VIC 3058","categories":[{"tag":"LiveMusic"},{"tag":"Pub"}],"city":"Coburg, VIC","name":"Post Office Hotel","url":"https://beat.com.au/directory/post-office-hotel/"}},{"geo":{"lat":-37.7999086,"lon":144.9023908},"venue":{"address":"1/86-88 Hopkins St\nFootscray VIC 3011","categories":[{"tag":"Bar"},{"tag":"Club"},{"tag":"EventVenue"},{"tag":"LiveMusic"}],"city":"Footscray, VIC","name":"Pride Of Our Footscray Community Bar","url":"https://beat.com.au/directory/pride-of-our-footscray-community-bar/"}},{"geo":{"lat":-37.8353554,"lon":144.9449928},"venue":{"address":"355 Bay St, Port Melbourne VIC","categories":[{"tag":"LiveMusic"},{"tag":"Pub"}],"city":"Port Melbourne","name":"Prince Alfred Hotel","url":"https://beat.com.au/directory/prince-alfred-hotel/"}},{"geo":{"lat":-37.8619943,"lon":144.9741326},"venue":{"address":"29 Fitzroy St\nSt Kilda VIC 3182","categories":[{"tag":"Bar"},{"tag":"Club"},{"tag":"LiveMusic"}],"city":"St Kilda, VIC","name":"Prince Bandroom","url":"https://beat.com.au/directory/prince-bandroom/"}},{"geo":{"lat":-37.7529061,"lon":145.6996775},"venue":{"address":"3488 Warburton Hwy\nWarburton VIC 3799","categories":[{"tag":"EventVenue"}],"city":"Warburton, VIC","name":"Projekt 3488","url":"https://beat.com.au/directory/projekt-3488/"}},{"geo":{"lat":-37.8108831,"lon":144.9713487},"venue":{"address":"43 Little Bourke St\nMelbourne VIC 3000","categories":[{"tag":"Bar"}],"city":"Melbourne, VIC","name":"Punch Lane","url":"https://beat.com.au/directory/punch-lane/"}},{"geo":{"lat":-37.8048409,"lon":144.9837213},"venue":{"address":"2 Peel St\nCollingwood VIC 3066","categories":[{"tag":"EventVenue"}],"city":"Collingwood, VIC","name":"QQQ ST. Park","url":"https://beat.com.au/directory/qqq-st-park/"}},{"geo":{"lat":-37.7664168,"lon":144.9583409},"venue":{"address":"345 Victoria St\nBrunswick VIC 3056","categories":[{"tag":"Bar"}],"city":"Brunswick, VIC","name":"Quad Club","url":"https://beat.com.au/directory/quad-club/"}},{"geo":{"lat":-37.7664168,"lon":144.9583409},"venue":{"address":"345 Victoria St, Brunswick, VIC 3056","categories":[{"tag":"EventVenue"},{"tag":"LiveMusic"}],"city":"Brunswick","name":"Quadraphonic Club","url":"https://beat.com.au/directory/quadraphonic-club/"}},{"geo":{"lat":-37.8159084,"lon":144.9642692},"venue":{"address":"Corner of Elizabeth & Victoria Street\nMelbourne VIC 3000","categories":[{"contents":"","tag":"OtherVenue"}],"city":"Melbourne, VIC","name":"Queen Vic Market","url":"https://beat.com.au/directory/queen-vic-market/"}},{"geo":{"lat":-37.8123214,"lon":144.9647713},"venue":{"address":"Level 1/243 Swanston St\nMelbourne VIC 3000","categories":[{"tag":"Club"},{"tag":"Bar"}],"city":"Melbourne","name":"Radar Bar & Nightclub","url":"https://beat.com.au/directory/radar-bar-nightclub/"}},{"geo":{"lat":-37.7964247,"lon":144.9785842},"venue":{"address":"357 Brunswick St\nFitzroy VIC 3065","categories":[{"tag":"Bar"},{"tag":"LiveMusic"}],"city":"Fitzroy, VIC","name":"Radio Bar","url":"https://beat.com.au/directory/radio-bar/"}},{"geo":{"lat":-37.7310367,"lon":145.0142411},"venue":{"address":"206 Tyler St\nPreston VIC 3072","categories":[{"tag":"EventVenue"},{"tag":"Bar"}],"city":"Preston, VIC","name":"Ragtime Tavern","url":"https://beat.com.au/directory/ragtime-tavern/"}},{"geo":{"lat":-37.8385977,"lon":144.9919594},"venue":{"address":"163 Toorak Rd\nSouth Yarra VIC 3141","categories":[{"tag":"Bar"},{"tag":"LiveMusic"}],"city":"South Yarra, VIC","name":"Rah Bar","url":"https://beat.com.au/directory/rah-bar/"}},{"geo":{"lat":-37.7929991,"lon":144.9758231},"venue":{"address":"800 Nicholson St\nFitzroy North VIC 3068","categories":[{"tag":"Bar"},{"tag":"Pub"}],"city":"Fitzroy North, VIC","name":"Railway Hotel","url":"https://beat.com.au/directory/railway-hotel/"}},{"geo":{"lat":-37.8353661,"lon":144.9557889},"venue":{"address":"280 Ferrars St\nSouth Melbourne VIC 3205","categories":[{"tag":"Pub"}],"city":"South Melbourne, VIC","name":"Railway Hotel (South Melbourne)","url":"https://beat.com.au/directory/railway-hotel-south-melbourne/"}},{"geo":{"lat":-37.7485846,"lon":145.0039167},"venue":{"address":"93 Plenty Rd\nPreston VIC 3072","categories":[{"tag":"Bar"}],"city":"Preston, VIC","name":"Rebel Rebel","url":"https://beat.com.au/directory/rebel-rebel/"}},{"geo":{"lat":-37.7581914,"lon":144.9636576},"venue":{"address":"859a Sydney Rd\nBrunswick VIC 3056","categories":[{"tag":"Bar"},{"tag":"LiveMusic"}],"city":"Brunswick, VIC","name":"Red Betty","url":"https://beat.com.au/directory/red-betty/"}},{"geo":{"lat":-37.815185,"lon":144.9615696},"venue":{"address":"27 McKillop St\nMelbourne VIC 3000","categories":[{"contents":"","tag":"OtherVenue"}],"city":"Melbourne, VIC","name":"Red Spice QV","url":"https://beat.com.au/directory/red-spice-qv/"}},{"geo":{"lat":-37.815497,"lon":144.967598},"venue":{"address":"191 Collins St\nMelbourne VIC 3000","categories":[{"tag":"TheatreVenue"}],"city":"Melbourne, VIC","name":"Regent Theatre","url":"https://beat.com.au/directory/regent-theatre/"}},{"geo":{"lat":-37.7711432,"lon":144.9615882},"venue":{"address":"280 Sydney Rd\nBrunswick VIC 3056","categories":[{"tag":"LiveMusic"},{"tag":"Pub"}],"city":"Brunswick, VIC","name":"Retreat Hotel","url":"https://beat.com.au/directory/retreat-hotel/"}},{"geo":{"lat":-37.6696863,"lon":144.9610624},"venue":{"address":"30A Colbert Rd\nCampbellfield VIC 3061","categories":[{"contents":"Café","tag":"OtherVenue"}],"city":"Campbellfield, VIC","name":"Reverence Coffee Roasters","url":"https://beat.com.au/directory/reverence-coffee-roasters/"}},{"geo":{"lat":-37.8506652,"lon":144.993413},"venue":{"address":"229 Chapel St\nPrahran VIC 3181","categories":[{"contents":"","tag":"OtherVenue"}],"city":"Prahran, VIC","name":"Revolver Upstairs","url":"https://beat.com.au/directory/revolver-upstairs/"}},{"geo":{"lat":-37.8184163,"lon":145.0008426},"venue":{"address":"333 Bridge Road\nRichmond VIC 3121","categories":[{"contents":"","tag":"OtherVenue"}],"city":"Richmond, VIC","name":"Richmond Town Hall","url":"https://beat.com.au/directory/richmond-town-hall/"}},{"geo":{"lat":-37.761782,"lon":144.9631753},"venue":{"address":"666 Sydney Rd\nBrunswick VIC 3056","categories":[{"tag":"Bar"}],"city":"Brunswick, VIC","name":"Ringo Barr","url":"https://beat.com.au/directory/ringo-barr/"}},{"geo":{"lat":-37.8792792,"lon":144.9977602},"venue":{"address":"192 Hotham St\nElsternwick VIC 3185","categories":[{"contents":"","tag":"OtherVenue"}],"city":"Elsternwick, VIC","name":"Rippon Lea Estate","url":"https://beat.com.au/directory/rippon-lea-estate/"}},{"geo":{"lat":-37.8360786,"lon":144.9666355},"venue":{"address":"2 Raglan Street\nSouth Melbourne VIC 3205","categories":[{"tag":"Pub"}],"city":"South Melbourne, VIC","name":"Rising Sun Hotel","url":"https://beat.com.au/directory/rising-sun-hotel/"}},{"geo":{"lat":-37.6844552,"lon":145.4746034},"venue":{"address":"878-880 Maroondah Highway\nColdstream VIC 3770","categories":[{"tag":"Bar"},{"tag":"Club"}],"city":"Coldstream, VIC","name":"Rochford Concert Lounge","url":"https://beat.com.au/directory/rochford-concert-lounge/"}},{"geo":{"lat":-37.8230506,"lon":144.9761619},"venue":{"address":"Olympic Blvd\nMelbourne VIC 3001","categories":[{"tag":"LiveMusic"}],"city":"Melbourne, VIC","name":"Rod Laver Arena","url":"https://beat.com.au/directory/rod-laver-arena/"}},{"geo":{"lat":-37.9091087,"lon":144.9862196},"venue":{"address":"253 Esplanade\nBrighton VIC 3186","categories":[{"tag":"Club"}],"city":"Brighton, VIC","name":"Royal Brighton Yacht Club","url":"https://beat.com.au/directory/royal-brighton-yacht-club/"}},{"geo":{"lat":-37.8046669,"lon":144.9714669},"venue":{"address":"9 Nicholson St\nCarlton VIC 3053","categories":[{"tag":"EventVenue"},{"tag":"TheatreVenue"}],"city":"Carlton, VIC","name":"Royal Exhibition Building","url":"https://beat.com.au/directory/royal-exhibition-building/"}},{"geo":{"lat":-37.7555559,"lon":144.9172318},"venue":{"address":"873 Mt Alexander Rd\nEssendon VIC 3040","categories":[{"tag":"Bar"},{"tag":"Pub"}],"city":"Essendon, VIC","name":"Royal Hotel (Essendon)","url":"https://beat.com.au/directory/royal-hotel-essendon/"}},{"geo":{"lat":-38.2185087,"lon":145.0335739},"venue":{"address":"770 Esplanade\nMornington VIC 3931","categories":[{"tag":"LiveMusic"},{"tag":"Pub"}],"city":"Mornington, VIC","name":"Royal Hotel (Mornington)","url":"https://beat.com.au/directory/royal-hotel-mornington/"}},{"geo":{"lat":-37.8167994,"lon":144.9552063},"venue":{"address":"629 Bourke St\nMelbourne VIC 3000","categories":[{"tag":"Bar"},{"tag":"EventVenue"}],"city":"Melbourne, VIC","name":"Royal Melbourne Hotel","url":"https://beat.com.au/directory/royal-melbourne-hotel/"}},{"geo":{"lat":-37.7929991,"lon":144.9758231},"venue":{"address":"442 Nicholson St\nFitzroy North VIC 3068","categories":[{"tag":"Pub"}],"city":"Fitzroy North, VIC","name":"Royal Oak Hotel","url":"https://beat.com.au/directory/royal-oak-hotel/"}},{"geo":{"lat":-37.7697547,"lon":144.9574795},"venue":{"address":"36 Phoenix St Brunswick\nMelbourne VIC 3056","categories":[{"tag":"Club"},{"tag":"EventVenue"},{"tag":"LiveMusic"}],"city":"Brunswick, VIC","name":"Rubix Warehouse","url":"https://beat.com.au/directory/rubix-warehouse/"}},{"geo":{"lat":-38.5213534,"lon":145.3670225},"venue":{"address":"145 Marine Parade\nSan Remo VIC 3925","categories":[{"tag":"Pub"}],"city":"San Remo, VIC","name":"San Remo Hotel-Motel","url":"https://beat.com.au/directory/san-remo-hotel/"}},{"geo":{"lat":-37.812219,"lon":144.9723447},"venue":{"address":"14 Meyers Pl\nMelbourne VIC 3000","categories":[{"contents":"","tag":"OtherVenue"}],"city":"Melbourne, VIC","name":"San Telmo","url":"https://beat.com.au/directory/san-telmo/"}},{"geo":{"lat":-37.9375197,"lon":145.0677577},"venue":{"address":"630 South Rd\nMoorabbin VIC 3189","categories":[{"tag":"Bar"},{"tag":"EventVenue"},{"tag":"Pub"}],"city":"Moorabbin, VIC","name":"Sandbelt Club Hotel","url":"https://beat.com.au/directory/sandbelt-club-hotel/"}},{"geo":{"lat":-37.7427582,"lon":144.9638406},"venue":{"address":"28 Victoria St\nCoburg VIC 3058","categories":[{"contents":"","tag":"OtherVenue"}],"city":"Coburg, VIC","name":"Schoolhouse Studios","url":"https://beat.com.au/directory/schoolhouse-studios/"}},{"geo":{"lat":-38.1021858,"lon":145.1268005},"venue":{"address":"6R Broughton St\nSeaford VIC 3198","categories":[{"tag":"EventVenue"}],"city":"Seaford, VIC","name":"Seaford Community Centre","url":"https://beat.com.au/directory/seaford-community-centre/"}},{"geo":{"lat":-37.8634293,"lon":144.9069007},"venue":{"address":"82 Nelson Pl\nWilliamstown VIC 3016","categories":[{"contents":"","tag":"OtherVenue"}],"city":"Williamstown, VIC","name":"Seaworks Maritime Precinct","url":"https://beat.com.au/directory/seaworks-maritime-precinct/"}},{"geo":{"lat":-37.8117457,"lon":144.965405},"venue":{"address":"27-29 Tattersalls Ln\nMelbourne VIC 3000","categories":[{"tag":"Bar"},{"tag":"Club"}],"city":"Melbourne, VIC","name":"Section 8","url":"https://beat.com.au/directory/section-8/"}},{"geo":{"lat":-37.7559265,"lon":145.0013923},"venue":{"address":"744 High St\nThornbury VIC 3071","categories":[{"tag":"Bar"}],"city":"VIC","name":"Shotkickers","url":"https://beat.com.au/directory/shotkickers/"}},{"geo":{"lat":-37.806551,"lon":144.983129},"venue":{"address":"60 Smith Street\nCollingwood VIC 3066","categories":[{"tag":"Bar"},{"tag":"Club"}],"city":"Collingwood, VIC","name":"SiBar","url":"https://beat.com.au/directory/sibar/"}},{"geo":{"lat":-38.0066468,"lon":145.0866666},"venue":{"address":"501-505 Main Street\nMordialloc VIC 3195","categories":[{"tag":"Bar"}],"city":"Mordialloc, VIC","name":"Side Street Lounge","url":"https://beat.com.au/directory/side-street-lounge/"}},{"geo":{"lat":-37.7686219,"lon":144.9609264},"venue":{"address":"271-273 Albert St\nBrunswick VIC 3056","categories":[{"tag":"EventVenue"}],"city":"Brunswick, VIC","name":"Small Time Group","url":"https://beat.com.au/directory/small-time-group/"}},{"geo":{"lat":-37.7855325,"lon":144.8836643},"venue":{"address":"01 Rosamond Road\nMaribyrnong VIC 3032","categories":[{"tag":"Pub"}],"city":"Maribyrnong, VIC","name":"Smokehouse 101","url":"https://beat.com.au/directory/smokehouse-101/"}},{"geo":{"lat":-37.8117849,"lon":144.9690181},"venue":{"address":"21-25 Croft Alley, Melbourne VIC 3000","categories":[{"tag":"Bar"},{"tag":"Club"}],"city":"Melbourne","name":"Solace","url":"https://beat.com.au/directory/solace/"}},{"geo":{"lat":-37.7892833,"lon":144.9901391},"venue":{"address":"123 Queens Parade\nClifton Hill VIC 3068","categories":[{"tag":"Bar"},{"tag":"LiveMusic"}],"city":"Clifton Hill, VIC","name":"Some Velvet Morning","url":"https://beat.com.au/directory/some-velvet-morning/"}},{"geo":{"lat":-37.7310146,"lon":145.0143731},"venue":{"address":"647 Plenty Rd\nPreston VIC 3072","categories":[{"contents":"","tag":"OtherVenue"}],"city":"Preston, VIC","name":"Sonny’s Bottega","url":"https://beat.com.au/directory/sonnys-bottega/"}},{"geo":{"lat":-37.9100746,"lon":145.3534507},"venue":{"address":"1648 Burwood Hwy\nBelgrave VIC 3160","categories":[{"tag":"LiveMusic"},{"tag":"Pub"}],"city":"Belgrave, VIC","name":"Sooki Lounge","url":"https://beat.com.au/directory/sooki-lounge/"}},{"geo":{"lat":-38.3637564,"lon":144.8763927},"venue":{"address":"1625 Point Nepean Rd\nCapel Sound VIC 3940","categories":[{"tag":"Bar"},{"tag":"EventVenue"},{"tag":"LiveMusic"}],"city":"Capel Sound, VIC","name":"Sound Bar","url":"https://beat.com.au/directory/sound-bar/"}},{"geo":{"lat":-37.9115576,"lon":145.0411467},"venue":{"address":"224 McKinnon Road\nMcKinnon VIC 3204","categories":[{"contents":"","tag":"OtherVenue"}],"city":"McKinnon, VIC","name":"Sound Gallery","url":"https://beat.com.au/directory/sound-gallery/"}},{"geo":{"lat":-37.5893088,"lon":144.717875},"venue":{"address":"1/11 McDougall Rd\nSunbury VIC 3429","categories":[{"tag":"Bar"}],"city":"Sunbury, VIC","name":"Sound System Studios","url":"https://beat.com.au/directory/sound-system-studios/"}},{"geo":{"lat":-37.7582208,"lon":145.0855403},"venue":{"address":"9-15 Templestowe Road\nBulleen VIC 3105","categories":[{"tag":"EventVenue"},{"tag":"LiveMusic"}],"city":"VIC","name":"Soundgarden Music Club","url":"https://beat.com.au/directory/soundgarden-music-club/"}},{"geo":{"lat":-37.8240878,"lon":144.9681402},"venue":{"address":"140 Southbank Blvd\nSouthbank VIC 3006","categories":[{"tag":"TheatreVenue"}],"city":"Southbank, VIC","name":"Southbank Theatre","url":"https://beat.com.au/directory/southbank-theatre/"}},{"geo":{"lat":-37.820348,"lon":144.9569204},"venue":{"address":"522 Flinders St\nMelbourne VIC 3000","categories":[{"tag":"TheatreVenue"}],"city":"VIC","name":"Speakeasy Theatre","url":"https://beat.com.au/directory/speakeasy-theatre/"}},{"geo":{"lat":-37.812124,"lon":144.970916},"venue":{"address":"87 Bourke St\nMelbourne VIC 3000","categories":[{"tag":"EventVenue"},{"tag":"LiveMusic"},{"tag":"Pub"}],"city":"Melbourne, VIC","name":"Springrock Public Bar","url":"https://beat.com.au/directory/springrock-public-bar/"}},{"geo":{"lat":-37.8589249,"lon":144.9782244},"venue":{"address":"66 Fitzroy St\nSt Kilda VIC 3182","categories":[{"tag":"EventVenue"}],"city":"St Kilda, VIC","name":"St Kilda Sports Club","url":"https://beat.com.au/directory/st-kilda-sports-club/"}},{"geo":{"lat":-37.7208558,"lon":145.1472453},"venue":{"address":"81 Pitt St\nEltham VIC 3095","categories":[{"contents":"","tag":"OtherVenue"}],"city":"Eltham, VIC","name":"St Margaret's Anglican Church","url":"https://beat.com.au/directory/st-margarets-anglican-church/"}},{"geo":{"lat":-37.8987585,"lon":145.2301471},"venue":{"address":"2/5 Lynton Pl\nScoresby VIC 3178","categories":[{"contents":"","tag":"OtherVenue"}],"city":"Scoresby, VIC","name":"Stanley Burgers","url":"https://beat.com.au/directory/stanley-burgers/"}},{"geo":{"lat":-37.8097696,"lon":144.9655352},"venue":{"address":"328 Swanston St\nMelbourne VIC 3000","categories":[{"contents":"","tag":"OtherVenue"}],"city":"Melbourne, VIC","name":"State Library Victoria","url":"https://beat.com.au/directory/state-library-victoria/"}},{"geo":{"lat":-37.7743469,"lon":144.9607404},"venue":{"address":"133 Sydney Rd\nBrunswick VIC 3056","categories":[{"tag":"Bar"},{"tag":"LiveMusic"}],"city":"Brunswick, VIC","name":"Stay Gold","url":"https://beat.com.au/directory/stay-gold/"}},{"geo":{"lat":-37.8111768,"lon":144.9668442},"venue":{"address":"185 Lonsdale St\nMelbourne VIC 3000","categories":[{"tag":"Bar"}],"city":"Melbourne, VIC","name":"StoryVille","url":"https://beat.com.au/directory/storyville/"}},{"geo":{"lat":-37.8588717,"lon":144.9770425},"venue":{"address":"11b/60 Fitzroy St\nSt Kilda VIC 3182","categories":[{"contents":"Galleries","tag":"OtherVenue"}],"city":"St Kilda, VIC","name":"Stranger Gallery & Studio","url":"https://beat.com.au/directory/stranger-gallery-studio/"}},{"geo":{"lat":-33.8271947,"lon":151.2008417},"venue":{"address":"116 Willoughby Rd\nCrows Nest NSW 2065","categories":[{"contents":"","tag":"OtherVenue"}],"city":"Sydney, NSW","name":"Street Market (NSW)","url":"https://beat.com.au/directory/street-market/"}},{"geo":{"lat":-37.8177659,"lon":144.964331},"venue":{"address":"Flinders Ct\nMelbourne VIC 3000","categories":[{"tag":"Club"}],"city":"Melbourne, VIC","name":"Sub Club","url":"https://beat.com.au/directory/sub-club/"}},{"geo":{"lat":-37.798248,"lon":144.976498},"venue":{"address":"56 Johnston Street\nFitzroy VIC 3065","categories":[{"tag":"Bar"},{"tag":"EventVenue"},{"tag":"LiveMusic"}],"city":"Fitzroy, VIC","name":"Sugar Glider","url":"https://beat.com.au/directory/sugar-glider/"}},{"geo":{"lat":-38.0052745,"lon":145.0816591},"venue":{"address":"212 Bay Trail\nMordialloc VIC 3195","categories":[{"tag":"Club"}],"city":"Mordialloc, VIC","name":"SunnyBoy Beach Club","url":"https://beat.com.au/directory/sunnyboy-beach-club/"}},{"geo":{"lat":-37.7559265,"lon":145.0013923},"venue":{"address":"744 High St\nThornbury VIC 3071","categories":[{"tag":"Bar"},{"tag":"LiveMusic"}],"city":"Thornbury, VIC","name":"Swamplands Bar","url":"https://beat.com.au/directory/swamplands-bar/"}},{"geo":{"lat":-37.8463499,"lon":144.9915105},"venue":{"address":"153 Commercial Rd\nSouth Yarra VIC 3141","categories":[{"tag":"Bar"}],"city":"South Yarra, VIC","name":"Talk to Me Bar","url":"https://beat.com.au/directory/talk-to-me-bar/"}},{"geo":{"lat":-37.8446255,"lon":144.9947964},"venue":{"address":"426 Chapel St.\nSouth Yarra VIC 3141","categories":[{"tag":"LiveMusic"},{"tag":"Pub"}],"city":"South Yarra, VIC","name":"Temperance Hotel","url":"https://beat.com.au/directory/temperance-hotel/"}},{"geo":{"lat":-37.7620474,"lon":144.9617907},"venue":{"address":"34 Breese St\nBrunswick VIC 3056","categories":[{"tag":"Bar"},{"tag":"LiveMusic"}],"city":"Brunswick, VIC","name":"Tempo Rubato, Brunswick","url":"https://beat.com.au/directory/tempo-rubato-brunswick/"}},{"geo":{"lat":-37.8315664,"lon":144.9560233},"venue":{"address":"172 York St, South Melbourne VIC 3205","categories":[{"tag":"Club"},{"tag":"Pub"}],"city":"South Melbourne","name":"The Albion Rooftop & Club","url":"https://beat.com.au/directory/the-albion-rooftop-club/"}},{"geo":{"lat":-37.8158676,"lon":144.9644814},"venue":{"address":"24 Block Pl\nMelbourne VIC 3000","categories":[{"tag":"LiveMusic"}],"city":"Melbourne, VIC","name":"The Basement Discs","url":"https://beat.com.au/directory/the-basement-discs/"}},{"geo":{"lat":-37.778276,"lon":144.9706211},"venue":{"address":"80 Lygon St\nBrunswick East VIC 3057","categories":[{"tag":"Bar"},{"tag":"LiveMusic"}],"city":"Brunswick East, VIC","name":"The Beast","url":"https://beat.com.au/directory/the-b-east/"}},{"geo":{"lat":-37.7762687,"lon":144.960725},"venue":{"address":"68 Sydney Rd\nBrunswick VIC 3056","categories":[{"tag":"Bar"}],"city":"Brunswick, VIC","name":"The Bergy Seltzer","url":"https://beat.com.au/directory/the-bergy-seltzer/"}},{"geo":{"lat":-37.8240606,"lon":144.9507878},"venue":{"address":"23 S Wharf Promenade\nSouth Wharf VIC 3006","categories":[{"tag":"Bar"},{"tag":"EventVenue"}],"city":"VIC","name":"The Boatbuilders Yard","url":"https://beat.com.au/directory/the-boatbuilders-yard/"}},{"geo":{"lat":-37.804781,"lon":144.977216},"venue":{"address":"83 Brunswick St\nFitzroy VIC 3065","categories":[{"tag":"EventVenue"}],"city":"Fitzroy, VIC","name":"The Burrow","url":"https://beat.com.au/directory/the-burrow/"}},{"geo":{"lat":-37.815011,"lon":144.9651227},"venue":{"address":"5 Carson Place\nMelbourne VIC 3000","categories":[{"tag":"Bar"},{"tag":"EventVenue"},{"tag":"FestivalVenue"},{"tag":"TheatreVenue"}],"city":"VIC","name":"The Butterfly Club","url":"https://beat.com.au/directory/the-butterfly-club/"}},{"geo":{"lat":-37.7608327,"lon":145.0986525},"venue":{"address":"113 Swanston St\nMelbourne VIC 3000","categories":[{"tag":"TheatreVenue"}],"city":"Melbourne, VIC","name":"The Capitol (RMIT)","url":"https://beat.com.au/directory/the-capitol-rmit/"}},{"geo":{"lat":-37.813096,"lon":144.9676453},"venue":{"address":"193 Bourke St\nMelbourne VIC 3000","categories":[{"tag":"Bar"},{"tag":"Club"},{"tag":"LiveMusic"}],"city":"Melbourne, VIC","name":"The Carlton Club","url":"https://beat.com.au/directory/the-carlton/"}},{"geo":{"lat":-37.807176,"lon":144.9934987},"venue":{"address":"228 Langridge St\nAbbotsford VIC 3067","categories":[{"tag":"Pub"}],"city":"Abbotsford, VIC","name":"The Carringbush Hotel","url":"https://beat.com.au/directory/the-carringbush-hotel/"}},{"geo":{"lat":-37.8057885,"lon":144.9751557},"venue":{"address":"30 Gertrude St\nFitzroy VIC 3065","categories":[{"tag":"Bar"},{"tag":"LiveMusic"}],"city":"Fitzroy, VIC","name":"The Catfish","url":"https://beat.com.au/directory/the-catfish/"}},{"geo":{"lat":-37.8044987,"lon":144.9495319},"venue":{"address":"26 Errol St\nNorth Melbourne VIC 3051","categories":[{"tag":"Club"},{"tag":"Bar"}],"city":"North Melbourne, VIC","name":"The Comic's Lounge","url":"https://beat.com.au/directory/the-comics-lounge/"}},{"geo":{"lat":-37.8130856,"lon":144.9709335},"venue":{"address":"282 Exhibition St\nMelbourne VIC 3000","categories":[{"tag":"Pub"}],"city":"Melbourne, VIC","name":"The Coopers Inn","url":"https://beat.com.au/directory/the-coopers-inn/"}},{"geo":{"lat":-37.8345462,"lon":144.9463924},"venue":{"address":"1 Crockford St, Port Melbourne VIC 3207","categories":[{"tag":"LiveMusic"},{"tag":"Pub"}],"city":"Port Melbourne","name":"The Cornerstone","url":"https://beat.com.au/directory/the-cornerstone/"}},{"geo":{"lat":-38.0474951,"lon":145.1502667},"venue":{"address":"170 Riverend Rd\nBangholme VIC 3175","categories":[{"tag":"EventVenue"}],"city":null,"name":"The Craft & Co Farm","url":"https://beat.com.au/directory/the-craft-co-farm/"}},{"geo":{"lat":-37.8136466,"lon":144.9682102},"venue":{"address":"127 Russell St\nMelbourne VIC 3000","categories":[{"tag":"Brewery"}],"city":"Melbourne, VIC","name":"The Crafty Squire","url":"https://beat.com.au/directory/the-crafty-squire/"}},{"geo":{"lat":-37.8120888,"lon":144.9691113},"venue":{"address":"21 Croft Alley\nMelbourne VIC 3000","categories":[{"tag":"EventVenue"}],"city":"Melbourne, VIC","name":"The Croft Institute","url":"https://beat.com.au/directory/the-croft-institute/"}},{"geo":{"lat":-37.8612658,"lon":144.9742951},"venue":{"address":"14 Fitzroy Street\nSt Kilda VIC 3182","categories":[{"tag":"Bar"}],"city":"St Kilda, VIC","name":"The Cross","url":"https://beat.com.au/directory/the-cross/"}},{"geo":{"lat":-37.762377,"lon":144.9995955},"venue":{"address":"607 High St\nThornbury VIC 3071","categories":[{"tag":"LiveMusic"}],"city":"Thornbury, VIC","name":"The Croxton","url":"https://beat.com.au/directory/the-croxton/"}},{"geo":{"lat":-37.8061581,"lon":144.9657057},"venue":{"address":"29 Lygon St\nCarlton VIC 3053","categories":[{"tag":"Bar"},{"tag":"LiveMusic"}],"city":"Carlton, VIC","name":"The Curtin","url":"https://beat.com.au/directory/the-curtin/"}},{"geo":{"lat":-37.8141362,"lon":144.938717},"venue":{"address":"440 Docklands Drive\nDocklands VIC 3008","categories":[{"contents":"","tag":"OtherVenue"}],"city":"Docklands, VIC","name":"The District Docklands","url":"https://beat.com.au/directory/the-district-docklands/"}},{"geo":{"lat":-37.8066759,"lon":144.9555612},"venue":{"address":"65 Peel St\nWest Melbourne VIC 3003","categories":[{"tag":"LiveMusic"},{"tag":"Pub"}],"city":"West Melbourne, VIC","name":"The Drunken Poet","url":"https://beat.com.au/directory/the-drunken-poet/"}},{"geo":{"lat":-37.811917,"lon":144.970217},"venue":{"address":"94-96 Bourke St\nMelbourne VIC 3000","categories":[{"tag":"LiveMusic"},{"tag":"Pub"}],"city":"Melbourne, VIC","name":"The Elephant and Wheelbarrow","url":"https://beat.com.au/directory/the-elephant-and-wheelbarrow/"}},{"geo":{"lat":-31.9466471,"lon":115.8642083},"venue":{"address":"191 Beaufort St\nPerth WA 6000","categories":[{"contents":"","tag":"OtherVenue"}],"city":"Perth, WA","name":"The Ellington Jazz Club","url":"https://beat.com.au/directory/the-ellington-jazz-club/"}},{"geo":{"lat":-37.8371878,"lon":144.9628801},"venue":{"address":"415 Clarendon St, South Melbourne VIC 3205","categories":[{"tag":"LiveMusic"},{"tag":"Pub"}],"city":"South Melbourne","name":"The Emerald Hotel","url":"https://beat.com.au/directory/the-emerald-hotel/"}},{"geo":{"lat":-37.8115275,"lon":144.9655203},"venue":{"address":"233 Lonsdale St\nMelbourne VIC 3000","categories":[{"tag":"Bar"},{"tag":"LiveMusic"}],"city":"Melbourne, VIC","name":"The Emerald Peacock","url":"https://beat.com.au/directory/the-emerald-peacock/"}},{"geo":{"lat":-37.8463071,"lon":144.9912231},"venue":{"address":"145 Commercial Rd\nSouth Yarra","categories":[{"tag":"Bar"},{"tag":"Club"}],"city":"South Yarra, VIC","name":"The Emerson","url":"https://beat.com.au/directory/the-emerson/"}},{"geo":{"lat":-37.8420056,"lon":144.9388498},"venue":{"address":"39 Bay St, Port Melbourne VIC 3207","categories":[{"tag":"LiveMusic"},{"tag":"Pub"}],"city":"Port Melbourne","name":"The Exchange Hotel","url":"https://beat.com.au/directory/the-exchange-hotel/"}},{"geo":{"lat":-37.8588717,"lon":144.9770425},"venue":{"address":"3/60 Fitzroy St, St Kilda VIC","categories":[{"tag":"LiveMusic"},{"tag":"Pub"}],"city":"St Kilda","name":"The Fifth Province","url":"https://beat.com.au/directory/the-fifth-province/"}},{"geo":{"lat":-37.8062207,"lon":144.9825807},"venue":{"address":"243/245 Gertrude St\nFitzroy VIC 3065","categories":[{"tag":"Bar"},{"tag":"Pub"}],"city":"Fitzroy, VIC","name":"The Fitzroy Beer Garden","url":"https://beat.com.au/directory/the-fitzroy-beer-garden/"}},{"geo":{"lat":-37.7827901,"lon":144.9840598},"venue":{"address":"251 St Georges Rd\nFitzroy North VIC 3068","categories":[{"tag":"Bar"},{"tag":"LiveMusic"},{"tag":"Pub"}],"city":"Fitzroy North, VIC","name":"The Fitzroy Pinnacle","url":"https://beat.com.au/directory/the-fitzroy-pinnacle/"}},{"geo":{"lat":-37.7945395,"lon":144.9879758},"venue":{"address":"351 Wellington St\nCollingwood VIC 3066","categories":[{"tag":"Bar"},{"tag":"LiveMusic"},{"tag":"Pub"}],"city":"Collingwood, VIC","name":"The Fox Hotel","url":"https://beat.com.au/directory/the-fox-hotel/"}},{"geo":{"lat":-37.8154393,"lon":144.9715781},"venue":{"address":"2 Malthouse Ln\nMelbourne VIC 3000","categories":[{"contents":"","tag":"OtherVenue"}],"city":"Melbourne, VIC","name":"The French Brasserie","url":"https://beat.com.au/directory/the-french-brasserie/"}},{"geo":{"lat":-37.864992,"lon":144.9885557},"venue":{"address":"34 Inkerman St\nSt Kilda VIC 3182","categories":[{"tag":"LiveMusic"},{"tag":"Bar"}],"city":"St Kilda, VIC","name":"The Fyrefly","url":"https://beat.com.au/directory/the-fyrefly/"}},{"geo":{"lat":-37.4774616,"lon":144.2916007},"venue":{"address":"189 Simmons Reef Rd\nBlackwood VIC 3458","categories":[{"contents":"","tag":"OtherVenue"}],"city":"Blackwood, VIC","name":"The Garden of St Erth","url":"https://beat.com.au/directory/the-garden-of-st-erth/"}},{"geo":{"lat":-45.9005698,"lon":170.4865079},"venue":{"address":"Basement/127 Fitzroy St, St Kilda VIC 3182","categories":[{"tag":"LiveMusic"},{"tag":"Pub"}],"city":"St Kilda","name":"The George Lounge","url":"https://beat.com.au/directory/the-george-lounge/"}},{"geo":{"lat":-37.8148146,"lon":144.9680518},"venue":{"address":"162-168 Collins St\nMelbourne VIC 3000","categories":[{"tag":"Bar"}],"city":"Melbourne, VIC","name":"The George On Collins","url":"https://beat.com.au/directory/the-george-on-collins/"}},{"geo":{"lat":-37.7344052,"lon":144.9655277},"venue":{"address":"942 Sydney Rd\nCoburg North VIC 3058","categories":[{"tag":"Bar"},{"tag":"Pub"}],"city":"Coburg North, VIC","name":"The Graveyard Bar","url":"https://beat.com.au/directory/the-graveyard-bar/"}},{"geo":{"lat":-37.9505927,"lon":145.0034466},"venue":{"address":"19-21 Melrose Street \nSandringham VIC 3191","categories":[{"tag":"Pub"}],"city":"Sandringham, VIC","name":"The Hobson Stores","url":"https://beat.com.au/directory/the-hobson-stores/"}},{"geo":{"lat":-37.798965,"lon":144.9854369},"venue":{"address":"20 Johnston Street\nCollingwood VIC 3066","categories":[{"tag":"LiveMusic"}],"city":"Collingwood, VIC","name":"The Horn African Cafe & Restaurant","url":"https://beat.com.au/directory/the-horn-african-cafe-restaurant/"}},{"geo":{"lat":-37.9135736,"lon":145.1334272},"venue":{"address":"48 Exhibition Walk\nClayton VIC 3800","categories":[{"tag":"TheatreVenue"}],"city":"Clayton, VIC","name":"The Ian Potter Centre for Performing Arts","url":"https://beat.com.au/directory/the-ian-potter-centre-for-performing-arts/"}},{"geo":{"lat":-37.8121675,"lon":144.9720579},"venue":{"address":"1/19 Meyers Pl\nMelbourne VIC 3000","categories":[{"tag":"TheatreVenue"}],"city":"VIC","name":"The Improv Conspiracy","url":"https://beat.com.au/directory/the-improv-conspiracy/"}},{"geo":{"lat":-37.7319597,"lon":144.9521683},"venue":{"address":"5-7 Louvain St\nCoburg North VIC 3058","categories":[{"tag":"EventVenue"}],"city":"VIC","name":"The Industrique","url":"https://beat.com.au/directory/the-industrique/"}},{"geo":{"lat":-37.766903,"lon":144.9586498},"venue":{"address":"27 Leslie St\nBrunswick VIC 3056","categories":[{"tag":"LiveMusic"}],"city":"Brunswick, VIC","name":"The Jazzlab","url":"https://beat.com.au/directory/the-jazzlab/"}},{"geo":{"lat":-37.8168814,"lon":144.9882369},"venue":{"address":"192 Wellington Parade\nEast Melbourne VIC 3002","categories":[{"contents":"Galleries","tag":"OtherVenue"}],"city":"Melbourne, VIC","name":"The Johnston Collection","url":"https://beat.com.au/directory/the-johnston-collection/"}},{"geo":{"lat":-37.8174258,"lon":144.9643181},"venue":{"address":"35 Elizabeth St\nMelbourne VIC 3000","categories":[{"tag":"Bar"}],"city":"Melbourne, VIC","name":"The Joint","url":"https://beat.com.au/directory/the-joint/"}},{"geo":{"lat":-37.7468183,"lon":145.0058527},"venue":{"address":"Unit 1/188 Plenty Rd\nPreston VIC 3072","categories":[{"tag":"Bar"}],"city":"Preston, VIC","name":"The Keys","url":"https://beat.com.au/directory/the-keys/"}},{"geo":{"lat":-37.880703,"lon":144.9914466},"venue":{"address":"164A Tennyson St\nElwood VIC 3184","categories":[{"tag":"EventVenue"}],"city":"VIC","name":"The King of Tonga","url":"https://beat.com.au/directory/the-king-of-tonga/"}},{"geo":{"lat":-37.8047757,"lon":144.9463641},"venue":{"address":"238 Victoria St\nNorth Melbourne VIC 3051","categories":[{"tag":"LiveMusic"}],"city":"North Melbourne, VIC","name":"The Last Chance Rock & Roll Bar","url":"https://beat.com.au/directory/the-last-chance-rock-roll-bar/"}},{"geo":{"lat":-37.8044662,"lon":144.9645597},"venue":{"address":"91 Cardigan St\nCarlton VIC 3053","categories":[{"tag":"Pub"}],"city":"Carlton, VIC","name":"The Lincoln","url":"https://beat.com.au/directory/the-lincoln/"}},{"geo":{"lat":-37.7562323,"lon":145.0192156},"venue":{"address":"188 Collins St\nMelbourne VIC 3000","categories":[{"tag":"EventVenue"},{"tag":"LiveMusic"},{"tag":"TheatreVenue"}],"city":"Melbourne, VIC","name":"The Little Ath","url":"https://beat.com.au/directory/the-little-ath/"}},{"geo":{"lat":-37.8427349,"lon":144.9388838},"venue":{"address":"22-24 Bay St, Port Melbourne VIC 3207","categories":[{"tag":"LiveMusic"},{"tag":"Pub"}],"city":"Port Melbourne","name":"The Local","url":"https://beat.com.au/directory/the-local/"}},{"geo":{"lat":-37.76712,"lon":144.9800067},"venue":{"address":"225 Nicholson St\nBrunswick East VIC 3057","categories":[{"tag":"Pub"},{"tag":"LiveMusic"}],"city":"Brunswick East, VIC","name":"The Lomond Hotel","url":"https://beat.com.au/directory/the-lomond-hotel/"}},{"geo":{"lat":-37.8159588,"lon":144.9610992},"venue":{"address":"212 Little Collins St\nMelbourne VIC 3000","categories":[{"tag":"Bar"}],"city":"Melbourne","name":"The LuWOW","url":"https://beat.com.au/directory/the-luwow/"}},{"geo":{"lat":-37.850156,"lon":144.9955056},"venue":{"address":"1/48 Clifton St\nPrahran VIC 3181","categories":[{"tag":"EventVenue"}],"city":"Prahran, VIC","name":"The MC Showroom","url":"https://beat.com.au/directory/the-mc-showroom/"}},{"geo":{"lat":-37.8153918,"lon":144.9706706},"venue":{"address":"135 Flinders Ln\nMelbourne VIC 3000","categories":[{"tag":"Bar"}],"city":"Melbourne, VIC","name":"The Meatball and Wine Bar","url":"https://beat.com.au/directory/the-meatball-and-wine-bar/"}},{"geo":{"lat":-37.7505509,"lon":144.9879283},"venue":{"address":"15 Gilbert Road\nPreston VIC 3072","categories":[{"tag":"Bar"}],"city":"Preston, VIC","name":"The Merri Bar","url":"https://beat.com.au/directory/the-merri-bar/"}},{"geo":{"lat":-37.7794356,"lon":144.996838},"venue":{"address":"111 High St\nNorthcote VIC 3070","categories":[{"tag":"LiveMusic"}],"city":"Northcote, VIC","name":"The Merri Creek Tavern","url":"https://beat.com.au/directory/the-merri-creek-tavern/"}},{"geo":{"lat":-37.8165944,"lon":144.8989928},"venue":{"address":"238 Whitehall St\nYarraville VIC 3013","categories":[{"tag":"Pub"}],"city":"Yarraville, VIC","name":"The Mersh","url":"https://beat.com.au/directory/the-mersh/"}},{"geo":{"lat":-37.7687466,"lon":144.9257607},"venue":{"address":"690-694 Mt Alexander Rd\nMoonee Ponds VIC 3039","categories":[{"tag":"Pub"}],"city":"Moonee Ponds, VIC","name":"The Mighty Moonee Ponds","url":"https://beat.com.au/directory/the-mighty-moonee-ponds/"}},{"geo":{"lat":-37.7127303,"lon":145.1494311},"venue":{"address":"70 Commercial Pl\nEltham VIC 3095","categories":[{"tag":"Bar"}],"city":"Eltham, VIC","name":"The Missing Gorilla Bar","url":"https://beat.com.au/directory/the-missing-gorilla-bar/"}},{"geo":{"lat":-37.778276,"lon":144.9706211},"venue":{"address":"120 Lygon St\nBrunswick East VIC 3057","categories":[{"tag":"Bar"}],"city":"Brunswick","name":"The Moldy Fig","url":"https://beat.com.au/directory/the-moldy-fig/"}},{"geo":{"lat":-37.7973184,"lon":144.9708437},"venue":{"address":"118 Elgin St\nCarlton VIC 3053","categories":[{"tag":"EventVenue"},{"tag":"TheatreVenue"}],"city":"Carlton, VIC","name":"The Motley Bauhaus","url":"https://beat.com.au/directory/the-motley-bauhaus/"}},{"geo":{"lat":-37.866939,"lon":144.9808644},"venue":{"address":"20 Carlisle St\nSt Kilda VIC 3182","categories":[{"tag":"TheatreVenue"}],"city":"St Kilda, VIC","name":"The National Theatre","url":"https://beat.com.au/directory/the-national-theatre-melbourne/"}},{"geo":{"lat":-37.7572887,"lon":145.3516019},"venue":{"address":"243 Main St\nLilydale VIC 3140","categories":[{"contents":"","tag":"OtherVenue"}],"city":"Lilydale, VIC","name":"The New Yorker Bar","url":"https://beat.com.au/directory/the-new-yorker-bar/"}},{"geo":{"lat":-37.7982653,"lon":144.9794553},"venue":{"address":"137-141 Johnston St\nFitzroy VIC 3065","categories":[{"tag":"Bar"},{"tag":"Club"},{"tag":"EventVenue"},{"tag":"LiveMusic"}],"city":"Fitzroy, VIC","name":"The Night Cat","url":"https://beat.com.au/directory/night-cat/"}},{"geo":{"lat":-37.8035799,"lon":144.8985392},"venue":{"address":"228 Nicholson St\nFootscray VIC 3011","categories":[{"tag":"Bar"},{"tag":"EventVenue"}],"city":"Footscray, VIC","name":"The Night Heron","url":"https://beat.com.au/directory/the-night-heron/"}},{"geo":{"lat":-37.8117556,"lon":145.0141502},"venue":{"address":"11 Acacia Pl\nAbbotsford VIC 3067","categories":[{"contents":"","tag":"OtherVenue"}],"city":"Abbotsford, VIC","name":"The Open Space","url":"https://beat.com.au/directory/the-open-space/"}},{"geo":{"lat":-37.8340778,"lon":144.9501509},"venue":{"address":"505-507 City Rd, South Melbourne VIC 3205","categories":[{"tag":"LiveMusic"},{"tag":"Pub"}],"city":"South Melbourne","name":"The Palace Hotel","url":"https://beat.com.au/directory/the-palace-hotel/"}},{"geo":{"lat":-37.7679775,"lon":144.9621651},"venue":{"address":"420 Sydney Rd\nBrunswick VIC 3056","categories":[{"tag":"Bar"},{"tag":"Club"},{"tag":"EventVenue"}],"city":"Brunswick, VIC","name":"The Penny Black","url":"https://beat.com.au/directory/the-penny-black/"}},{"geo":{"lat":-37.7545586,"lon":144.9180793},"venue":{"address":"12-14 Napier Street\nEssendon VIC 3040","categories":[{"contents":"","tag":"OtherVenue"}],"city":"Essendon, VIC","name":"The Pepper Tree (Essendon)","url":"https://beat.com.au/directory/the-pepper-tree-essendon/"}},{"geo":{"lat":-37.8090307,"lon":144.9878017},"venue":{"address":"135 Victoria Parade\nCollingwood VIC 3066","categories":[{"tag":"Pub"}],"city":"VIC","name":"The Prince Patrick","url":"https://beat.com.au/directory/the-prince-patrick/"}},{"geo":{"lat":-37.7981282,"lon":144.9782348},"venue":{"address":"299 Brunswick St\nFitzroy VIC 3065","categories":[{"tag":"Bar"},{"tag":"LiveMusic"},{"tag":"Pub"}],"city":"Fitzroy, VIC","name":"The Provincial Hotel","url":"https://beat.com.au/directory/the-provincial-hotel/"}},{"geo":{"lat":-37.7960561,"lon":144.9790327},"venue":{"address":"376 Brunswick St, Fitzroy","categories":[{"tag":"Bar"},{"tag":"Club"},{"tag":"LiveMusic"},{"tag":"Pub"}],"city":"Fitzroy","name":"The Punters Club","url":"https://beat.com.au/directory/the-punters-club/"}},{"geo":{"lat":-37.778276,"lon":144.9706211},"venue":{"address":"101 Lygon St\nBrunswick East VIC 3057","categories":[{"tag":"Bar"},{"tag":"LiveMusic"},{"tag":"Pub"}],"city":"Brunswick East, VIC","name":"The Quarry Hotel","url":"https://beat.com.au/directory/the-quarry-hotel/"}},{"geo":{"lat":-37.7874338,"lon":144.9232946},"venue":{"address":"271 Racecourse Rd\nFlemington VIC 3031","categories":[{"tag":"Pub"}],"city":"Flemington, VIC","name":"The Quiet Man Irish Pub","url":"https://beat.com.au/directory/the-quiet-man-irish-pub/"}},{"geo":{"lat":-37.9066288,"lon":145.3445715},"venue":{"address":"3/1545 Burwood Hwy\nTecoma VIC 3160","categories":[{"tag":"Pub"}],"city":"Tecoma, VIC","name":"The Railyard Saloon","url":"https://beat.com.au/directory/the-railyard-saloon/"}},{"geo":{"lat":-37.800584,"lon":144.9793959},"venue":{"address":"27 St David St\nFitzroy VIC 3065","categories":[{"tag":"Bar"},{"tag":"LiveMusic"},{"tag":"Pub"}],"city":"Fitzroy, VIC","name":"The Rainbow Hotel","url":"https://beat.com.au/directory/the-rainbow-hotel/"}},{"geo":{"lat":-37.8211482,"lon":145.0358421},"venue":{"address":"Shop 6 / 672 Glenferrie Rd\nHawthorn VIC 3122","categories":[{"tag":"Bar"},{"tag":"EventVenue"}],"city":"Hawthorn, VIC","name":"The Resistance Bar and Cafe","url":"https://beat.com.au/directory/the-resistance-bar-and-cafe/"}},{"geo":{"lat":-37.7987578,"lon":144.9809838},"venue":{"address":"182 Johnston St\nFitzroy VIC 3065","categories":[{"tag":"Pub"}],"city":"Fitzroy, VIC","name":"The Rochester","url":"https://beat.com.au/directory/the-rochester/"}},{"geo":{"lat":-37.801257,"lon":144.977767},"venue":{"address":"201 Brunswick Street\nFitzroy VIC 3065","categories":[{"tag":"Bar"},{"tag":"EventVenue"},{"tag":"LiveMusic"}],"city":"Fitzroy, VIC","name":"The Rooks Return","url":"https://beat.com.au/directory/the-rooks-return/"}},{"geo":{"lat":-37.7959296,"lon":144.9772234},"venue":{"address":"60 Rose St\nFitzroy VIC 3065","categories":[{"contents":"","tag":"OtherVenue"}],"city":"Fitzroy, VIC","name":"The Rose St Market","url":"https://beat.com.au/directory/rose-street-market/"}},{"geo":{"lat":-37.8163371,"lon":145.1818891},"venue":{"address":"379-399 Whitehorse Rd\nNunawading VIC 3131","categories":[{"contents":"","tag":"OtherVenue"}],"city":"Nunawading, VIC","name":"The Round","url":"https://beat.com.au/directory/the-round-2/"}},{"geo":{"lat":-37.7982227,"lon":144.976029},"venue":{"address":"36 Johnston St\nFitzroy VIC 3065","categories":[{"tag":"Pub"}],"city":"Fitzroy, VIC","name":"The Shady Lady","url":"https://beat.com.au/directory/the-shady-lady/"}},{"geo":{"lat":-38.3859573,"lon":144.957991},"venue":{"address":"365 Purves Road\nMain Ridge VIC 3928","categories":[{"tag":"Pub"},{"tag":"FestivalVenue"},{"tag":"TheatreVenue"},{"tag":"LiveMusic"},{"tag":"Bar"},{"tag":"EventVenue"}],"city":"Main Ridge, VIC","name":"The Shed @ The Pig & Whistle","url":"https://beat.com.au/directory/the-shed-the-pig-whistle/"}},{"geo":{"lat":-37.8007515,"lon":144.9768316},"venue":{"address":"293 Fitzroy St\nFitzroy VIC 3065","categories":[{"tag":"LiveMusic"},{"tag":"Pub"}],"city":"Fitzroy, VIC","name":"The Standard Hotel","url":"https://beat.com.au/directory/the-standard-hotel/"}},{"geo":{"lat":-37.7450925,"lon":145.0063441},"venue":{"address":"197 Plenty Rd\nPreston VIC 3072","categories":[{"tag":"Pub"}],"city":"Preston, VIC","name":"The Stolberg","url":"https://beat.com.au/directory/the-stolberg/"}},{"geo":{"lat":-37.8442106,"lon":144.8829759},"venue":{"address":"1 Market St\nNewport VIC 3015","categories":[{"tag":"EventVenue"}],"city":"Newport, VIC","name":"The Substation","url":"https://beat.com.au/directory/the-substation/"}},{"geo":{"lat":-37.7949598,"lon":144.936652},"venue":{"address":"290 Macaulay Rd\nNorth Melbourne VIC 3051","categories":[{"tag":"EventVenue"}],"city":"North Melbourne, VIC","name":"The Third Day","url":"https://beat.com.au/directory/the-third-day/"}},{"geo":{"lat":-37.7616512,"lon":144.9998797},"venue":{"address":"635 High St\nThornbury VIC 3071","categories":[{"tag":"Bar"}],"city":"Thornbury, VIC","name":"The Thornbury Local","url":"https://beat.com.au/directory/the-thornbury-local/"}},{"geo":{"lat":-37.754662,"lon":145.0011167},"venue":{"address":"859 High St\nThornbury VIC 3071","categories":[{"tag":"TheatreVenue"}],"city":"Thornbury, VIC","name":"The Thornbury Theatre","url":"https://beat.com.au/directory/the-thornbury-theatre/"}},{"geo":{"lat":-37.8326711,"lon":144.9212126},"venue":{"address":"351 Plummer St\nPort Melbourne VIC 3207","categories":[{"tag":"EventVenue"}],"city":"Port Melbourne, VIC","name":"The Timber Yard","url":"https://beat.com.au/directory/the-timber-yard/"}},{"geo":{"lat":-37.8119429,"lon":144.9651425},"venue":{"address":"2f/252 Swanston St\nMelbourne VIC 3000","categories":[{"tag":"Bar"},{"tag":"Club"}],"city":"Melbourne, VIC","name":"The Toff In Town","url":"https://beat.com.au/directory/the-toff-in-town/"}},{"geo":{"lat":-37.799406,"lon":144.9870814},"venue":{"address":"67-71 Johnston St\nCollingwood VIC 3066","categories":[{"tag":"Bar"},{"tag":"LiveMusic"},{"tag":"Pub"}],"city":"Collingwood, VIC","name":"The Tote Hotel","url":"https://beat.com.au/directory/the-tote-hotel/"}},{"geo":{"lat":-37.8674567,"lon":144.9785414},"venue":{"address":"71A Acland St\nSt Kilda VIC 3182","categories":[{"tag":"Bar"},{"tag":"LiveMusic"},{"tag":"Pub"}],"city":"St Kilda, VIC","name":"The Vineyard Restaurant & Bar","url":"https://beat.com.au/directory/the-vineyard-restaurant-bar/"}},{"geo":{"lat":-37.8347704,"lon":144.9639303},"venue":{"address":"256 Moray St\nSouth Melbourne VIC 3205","categories":[{"tag":"Pub"}],"city":"South Melbourne, VIC","name":"The Water Rat Hotel","url":"https://beat.com.au/directory/the-water-rat-hotel/"}},{"geo":{"lat":-37.8101765,"lon":144.9652219},"venue":{"address":"176 Little Lonsdale St\nMelbourne VIC 3000","categories":[{"contents":"","tag":"OtherVenue"}],"city":"Melbourne, VIC","name":"The Wheeler Centre","url":"https://beat.com.au/directory/the-wheeler-centre/"}},{"geo":{"lat":-37.8055776,"lon":144.9769451},"venue":{"address":"51 Brunswick Street\nFitzroy VIC 3065","categories":[{"tag":"Bar"},{"tag":"LiveMusic"},{"tag":"Pub"}],"city":"Fitzroy, VIC","name":"The Workers Club","url":"https://beat.com.au/directory/workers-club/"}},{"geo":{"lat":-38.1481891,"lon":144.3593024},"venue":{"address":"90 Little Malop St\nGeelong VIC 3220","categories":[{"tag":"Bar"},{"tag":"LiveMusic"}],"city":"Geelong, VIC","name":"The Workers Club Geelong","url":"https://beat.com.au/directory/the-workers-club-geelong/"}},{"geo":{"lat":-37.8003352,"lon":144.9963856},"venue":{"address":"295 Johnston St\nAbbotsford VIC 3067","categories":[{"tag":"LiveMusic"},{"tag":"Pub"}],"city":"Abbotsford, VIC","name":"The Yarra Hotel","url":"https://beat.com.au/directory/the-yarra-hotel/"}},{"geo":{"lat":-37.8074016,"lon":144.9920349},"venue":{"address":"48 Hoddle St\nAbbotsford VIC 3067","categories":[{"tag":"Bar"},{"tag":"Pub"}],"city":"Abbotsford, VIC","name":"The Yorkshire Hotel","url":"https://beat.com.au/directory/the-yorkshire-hotel/"}},{"geo":{"lat":-37.8074016,"lon":144.9920349},"venue":{"address":"48 Hoddle St\nAbbotsford VIC 3067","categories":[{"tag":"Pub"}],"city":"Abbotsford, VIC","name":"The Yorkshire Stingo Hotel","url":"https://beat.com.au/directory/the-yorkshire-stingo-hotel/"}},{"geo":{"lat":-37.0663699,"lon":144.2195588},"venue":{"address":"30 Hargraves Street\nCastlemaine VIC 3450","categories":[{"tag":"Bar"},{"tag":"EventVenue"},{"tag":"TheatreVenue"}],"city":"VIC","name":"Theatre Royal Castlemaine","url":"https://beat.com.au/directory/theatre-royal-castlemaine/"}},{"geo":{"lat":-37.863613,"lon":144.975825},"venue":{"address":"14 Acland St\nSt Kilda VIC 3182","categories":[{"tag":"TheatreVenue"}],"city":"St Kilda, VIC","name":"Theatre Works","url":"https://beat.com.au/directory/theatre-works/"}},{"geo":{"lat":-37.778276,"lon":144.9706211},"venue":{"address":"289 Lygon St \nBrunswick East VIC 3057","categories":[{"contents":"Galleries","tag":"OtherVenue"}],"city":"Brunswick East, VIC","name":"This is Not A Toy Store","url":"https://beat.com.au/directory/this-is-not-a-toy-store/"}},{"geo":{"lat":-37.7588241,"lon":144.9985126},"venue":{"address":"27 Ballantyne Street\nThornbury VIC 3071","categories":[{"tag":"EventVenue"}],"city":"Thornbury, VIC","name":"Thornbury Bowls Club","url":"https://beat.com.au/directory/thornbury-bowls-club/"}},{"geo":{"lat":-37.827719,"lon":144.9918053},"venue":{"address":"69 Dover St\nCremorne VIC 3121","categories":[{"tag":"EventVenue"}],"city":"Cremorne, VIC","name":"Thought Forms Gallery","url":"https://beat.com.au/directory/thought-forms-gallery/"}},{"geo":{"lat":-37.7772599,"lon":144.9702069},"venue":{"address":"130 Barkly St\nBrunswick VIC 3056","categories":[{"tag":"Brewery"}],"city":"Brunswick, VIC","name":"Thunder Road  Brewing Company","url":"https://beat.com.au/directory/thunder-road-brewing-company/"}},{"geo":{"lat":-37.8190329,"lon":144.9574332},"venue":{"address":"Geddes Ln\nMelbourne VIC 3000","categories":[{"tag":"Bar"},{"tag":"EventVenue"}],"city":"Melbourne, VIC","name":"Top Yard Rooftop","url":"https://beat.com.au/directory/top-yard-rooftop/"}},{"geo":{"lat":-37.8115275,"lon":144.9655203},"venue":{"address":"233 Lonsdale St\nMelbourne VIC 3000","categories":[{"contents":"","tag":"OtherVenue"}],"city":"Melbourne, VIC","name":"Touché Hombre","url":"https://beat.com.au/directory/touche-hombre/"}},{"geo":{"lat":-37.8041963,"lon":144.9490537},"venue":{"address":"33 Errol St\nNorth Melbourne VIC 3051","categories":[{"tag":"LiveMusic"},{"tag":"Pub"}],"city":"North Melbourne, VIC","name":"Town Hall Hotel","url":"https://beat.com.au/directory/town-hall-hotel/"}},{"geo":{"lat":-37.8408224,"lon":145.0081284},"venue":{"address":"445 Toorak Rd\nToorak VIC 3142","categories":[{"tag":"Bar"},{"tag":"Club"}],"city":"Toorak, VIC","name":"Trak Live Lounge Bar","url":"https://beat.com.au/directory/trak-live-lounge-bar/"}},{"geo":{"lat":-37.7885137,"lon":144.9789774},"venue":{"address":"165 Rae St\nFitzroy North VIC 3068","categories":[{"tag":"LiveMusic"},{"tag":"Pub"}],"city":"Fitzroy North, VIC","name":"Tramway Hotel","url":"https://beat.com.au/directory/tramway-hotel/"}},{"geo":{"lat":-37.8088821,"lon":144.9592533},"venue":{"address":"167 Franklin Street\nMelbourne VIC 3000","categories":[{"tag":"Club"},{"tag":"Bar"},{"tag":"EventVenue"}],"city":"Melbourne, VIC","name":"Transistor Social","url":"https://beat.com.au/directory/transistor-social/"}},{"geo":{"lat":-37.8155252,"lon":144.9556294},"venue":{"address":"577 Little Bourke St\nMelbourne VIC 3004","categories":[{"tag":"Club"}],"city":"Melbourne, VIC","name":"Treat Danceclub","url":"https://beat.com.au/directory/treat-danceclub/"}},{"geo":{"lat":-37.8064145,"lon":144.982446},"venue":{"address":"234 Gertrude St\nFitzroy VIC 3065","categories":[{"contents":"","tag":"OtherVenue"}],"city":"Fitzroy, VIC","name":"Trippy Taco","url":"https://beat.com.au/directory/trippy-taco/"}},{"geo":{"lat":-37.8094249,"lon":144.9688973},"venue":{"address":"275 Exhibition St\nMelbourne VIC 3000","categories":[{"tag":"Bar"}],"city":"Melbourne, VIC","name":"Trunk Restaurant & Bar","url":"https://beat.com.au/directory/trunk-restaurant-bar/"}},{"geo":{"lat":-37.7739347,"lon":144.9631003},"venue":{"address":"55 Edward St\nBrunswick VIC 3056","categories":[{"contents":"Galleries","tag":"OtherVenue"}],"city":"Brunswick, VIC","name":"Unassigned Gallery","url":"https://beat.com.au/directory/unassigned-gallery/"}},{"geo":{"lat":-37.8103746,"lon":144.9988184},"venue":{"address":"449 Victoria St\nAbbotsford VIC 3067","categories":[{"contents":"Café","tag":"OtherVenue"}],"city":"Abbotsford, VIC","name":"Undercover Roasters","url":"https://beat.com.au/directory/undercover-roasters/"}},{"geo":{"lat":-37.7734411,"lon":144.9531861},"venue":{"address":"109 Union St\nBrunswick VIC 3056","categories":[{"tag":"Bar"},{"tag":"LiveMusic"}],"city":"Brunswick, VIC","name":"Union Hotel Brunswick","url":"https://beat.com.au/directory/union-hotel-brunswick/"}},{"geo":{"lat":-37.7738176,"lon":144.9584265},"venue":{"address":"34 Union St\nBrunswick VIC 3056","categories":[{"contents":"","tag":"OtherVenue"}],"city":"Brunswick, VIC","name":"Union St Brewers","url":"https://beat.com.au/directory/union-st-brewers/"}},{"geo":{"lat":-37.8021833,"lon":144.9776109},"venue":{"address":"177 Brunswick St\nFitzroy VIC 3065","categories":[{"tag":"LiveMusic"}],"city":"Fitzroy, VIC","name":"Uptown Jazz Café","url":"https://beat.com.au/directory/uptown-jazz-cafe/"}},{"geo":{"lat":-37.8993016,"lon":145.0898841},"venue":{"address":"17-21 Eaton Mall\nOakleigh VIC 3166","categories":[{"contents":"","tag":"OtherVenue"}],"city":"Oakleigh, VIC","name":"Vanilla Lounge","url":"https://beat.com.au/directory/vanilla-lounge/"}},{"geo":{"lat":-32.0551181,"lon":115.744453},"venue":{"address":"179 High St\nFremantle WA 6160","categories":[{"contents":"","tag":"OtherVenue"}],"city":"Fremantle, WA","name":"Victoria Hall","url":"https://beat.com.au/directory/victoria-hall/"}},{"geo":{"lat":-37.7688306,"lon":144.9810164},"venue":{"address":"31 Victoria St\nMelbourne VIC 3000","categories":[{"tag":"TheatreVenue"}],"city":"Melbourne, VIC","name":"Victorian Opera","url":"https://beat.com.au/directory/victorian-opera/"}},{"geo":{"lat":-37.8607022,"lon":144.9763814},"venue":{"address":"79/81 Fitzroy St\nSt Kilda VIC 3182","categories":[{"contents":"Galleries","tag":"OtherVenue"}],"city":"St Kilda, VIC","name":"Victorian Pride Centre","url":"https://beat.com.au/directory/victorian-pride-centre/"}},{"geo":{"lat":-37.8159966,"lon":144.9649088},"venue":{"address":"416 Collins St\nMelbourne VIC 3000","categories":[{"tag":"LiveMusic"}],"city":"Melbourne, VIC","name":"Victory Lounge","url":"https://beat.com.au/directory/victory-lounge/"}},{"geo":{"lat":-37.9035668,"lon":145.1603807},"venue":{"address":"Springvale Rd & Ferntree Gully Rd\nMulgrave VIC 3170","categories":[{"contents":"","tag":"OtherVenue"}],"city":"Mulgrave, VIC","name":"Village Green","url":"https://beat.com.au/directory/village-green/"}},{"geo":{"lat":-37.7916295,"lon":144.9378225},"venue":{"address":"64/90 Sutton St, North Melbourne VIC 3051","categories":[{"tag":"Bar"},{"tag":"Club"},{"tag":"TheatreVenue"}],"city":"North Melbourne","name":"Viva","url":"https://beat.com.au/directory/viva/"}},{"geo":{"lat":-37.8676973,"lon":144.9903323},"venue":{"address":"143 Chapel St\nSt Kilda VIC 3182","categories":[{"tag":"LiveMusic"},{"tag":"Bar"},{"tag":"EventVenue"},{"contents":"Café","tag":"OtherVenue"}],"city":"St Kilda, VIC","name":"Voodoo Love Child Speakeasy","url":"https://beat.com.au/directory/voodoo-love-child-speakeasy/"}},{"geo":{"lat":-37.8376975,"lon":145.1102503},"venue":{"address":"Riversdale Rd\nBurwood VIC 3125","categories":[{"contents":"","tag":"OtherVenue"}],"city":"Burwood, VIC","name":"Wattle Park","url":"https://beat.com.au/directory/wattle-park/"}},{"geo":{"lat":-37.8176298,"lon":144.9661635},"venue":{"address":"250 Flinders St, Melbourne VIC 3000","categories":[{"tag":"LiveMusic"}],"city":"Melbourne","name":"Wax Music Lounge","url":"https://beat.com.au/directory/wax-music-lounge/"}},{"geo":{"lat":-37.7729134,"lon":144.9984324},"venue":{"address":"250 High St\nNorthcote VIC 3070","categories":[{"tag":"LiveMusic"},{"tag":"Pub"}],"city":"Northcote, VIC","name":"Wesley Anne","url":"https://beat.com.au/directory/wesley-anne/"}},{"geo":{"lat":-37.8008249,"lon":144.9840769},"venue":{"address":"284 Smith St\nCollingwood VIC 3066","categories":[{"tag":"Bar"},{"tag":"Brewery"}],"city":"Collingwood, VIC","name":"Wheat, Wine & Whisky","url":"https://beat.com.au/directory/wheat-wine-whisky/"}},{"geo":{"lat":-37.8490645,"lon":144.9907504},"venue":{"address":"115-117 Greville St\nPrahran VIC 3181","categories":[{"tag":"Bar"}],"city":"Prahran, VIC","name":"White Oaks Saloon Bar & Dining","url":"https://beat.com.au/directory/white-oaks-saloon-bar-dining/"}},{"geo":{"lat":-37.8126316,"lon":144.9618781},"venue":{"address":"22 Whitehart Ln\nMelbourne VIC 3000","categories":[{"tag":"LiveMusic"},{"tag":"Bar"},{"tag":"EventVenue"}],"city":"Melbourne, VIC","name":"Whitehart Bar","url":"https://beat.com.au/directory/whitehart-bar/"}},{"geo":{"lat":-37.778276,"lon":144.9706211},"venue":{"address":"524 Lygon St\nBrunswick East VIC 3057","categories":[{"tag":"Bar"},{"tag":"LiveMusic"}],"city":"Brunswick East, VIC","name":"Whole Lotta Love","url":"https://beat.com.au/directory/whole-lotta-love/"}},{"geo":{"lat":-37.8091412,"lon":144.9691791},"venue":{"address":"288 Little Lonsdale St\nMelbourne VIC 3000","categories":[{"contents":"","tag":"OtherVenue"}],"city":"Melbourne, VIC","name":"Wings of Glory","url":"https://beat.com.au/directory/wings-of-glory/"}},{"geo":{"lat":-37.7955977,"lon":144.9790863},"venue":{"address":"386-388 Brunswick Street\nFitzroy VIC 3065","categories":[{"tag":"Bar"},{"tag":"LiveMusic"}],"city":"Fitzroy, VIC","name":"Wolfhound on Brunswick","url":"https://beat.com.au/directory/wolfhound-on-brunswick/"}},{"geo":{"lat":-37.869169,"lon":144.9918764},"venue":{"address":"29 Woodstock St\nBalaclava VIC 3183","categories":[{"tag":"LiveMusic"}],"city":"VIC","name":"Woodstock Recording Studios","url":"https://beat.com.au/directory/woodstock-recording-studios/"}},{"geo":{"lat":-37.8062477,"lon":144.9833121},"venue":{"address":"64 Smith St\nCollingwood VIC 3066","categories":[{"tag":"Bar"},{"tag":"LiveMusic"}],"city":"Collingwood, VIC","name":"Woody's Bar","url":"https://beat.com.au/directory/woodys-bar/"}},{"geo":{"lat":-38.145904,"lon":144.3591931},"venue":{"address":"44 Corio St\nGeelong VIC 3220","categories":[{"tag":"EventVenue"}],"city":"Geelong, VIC","name":"Wool Exchange","url":"https://beat.com.au/directory/wool-exchange/"}},{"geo":{"lat":-37.8092084,"lon":144.9606363},"venue":{"address":"1/413 Elizabeth St\nMelbourne VIC 3000","categories":[{"tag":"Bar"}],"city":"Melbourne, VIC","name":"Workshop Bar","url":"https://beat.com.au/directory/workshop-bar/"}},{"geo":{"lat":-37.8059378,"lon":144.9829239},"venue":{"address":"97B Smith St\nFitzroy VIC 3065","categories":[{"tag":"Bar"},{"tag":"Club"},{"tag":"LiveMusic"},{"tag":"TheatreVenue"}],"city":"Fitzroy, VIC","name":"Wows","url":"https://beat.com.au/directory/wows/"}},{"geo":{"lat":-37.8115382,"lon":144.8638555},"venue":{"address":"8C Whitely Parade\nWest Footscray VIC 3011","categories":[{"tag":"Club"}],"city":"Footscray, VIC","name":"Wrangler Studios","url":"https://beat.com.au/directory/wrangler-studios/"}},{"geo":{"lat":-37.8279781,"lon":144.957278},"venue":{"address":"344 City Rd\nSouthbank VIC 3006","categories":[{"tag":"Bar"},{"tag":"Club"}],"city":"Southbank, VIC","name":"Xe54","url":"https://beat.com.au/directory/xe54/"}},{"geo":{"lat":-37.8051825,"lon":144.9825847},"venue":{"address":"99 Little Smith St\nFitzroy VIC 3065","categories":[{"tag":"Bar"},{"tag":"Club"},{"tag":"LiveMusic"}],"city":"Fitzroy, VIC","name":"Yah Yah's","url":"https://beat.com.au/directory/yah-yahs/"}},{"geo":{"lat":-37.8121401,"lon":144.8951847},"venue":{"address":"135 Stephen St\nYarraville VIC 3013","categories":[{"tag":"Pub"}],"city":"Yarraville, VIC","name":"Yarraville Club","url":"https://beat.com.au/directory/yarraville-club/"}},{"geo":{"lat":-37.7959296,"lon":144.9772234},"venue":{"address":"60 Rose Street\nFitzroy VIC 3065","categories":[{"contents":"","tag":"OtherVenue"}],"city":"Fitzroy, VIC","name":"Young Bloods","url":"https://beat.com.au/directory/young-bloods/"}},{"geo":{"lat":-38.1415836,"lon":145.1260598},"venue":{"address":"12 Young St\nFrankston VIC 3199","categories":[{"contents":"","tag":"OtherVenue"}],"city":"Frankston, VIC","name":"Young Street Supper Club","url":"https://beat.com.au/directory/young-street-supper-club/"}},{"geo":{"lat":-37.8045738,"lon":144.9611514},"venue":{"address":"229 Queensberry St\nCarlton VIC 3053","categories":[{"tag":"Club"}],"city":"Carlton, VIC","name":"Yours & Mine","url":"https://beat.com.au/directory/yours-mine/"}}]